$IIVHW,,,126,M,00.0,N,,*61
$IIVLW,02839,N,000.0,N*53
$IIVWR,034,R,07.4,N,,,,*65
$IIDPT,012.3,+0.7,*40
$IIGLL,0854.979,S,14006.028,W,190359,A,A*5F
$IIHDG,126,,,10,E*16
$IIMTW,+26.5,C*39
$IIMWV,034,R,07.4,N,A*17
$IIMWV,035,T,07.3,N,A*17
$IIRMB,A,0.00,L,,HAKAAU  ,,,,,026.60,173,,V,A*67
$IIRMC,190400,A,0854.979,S,14006.028,W,00.0,008,031110,10,E,A*03
$IIVHW,,,126,M,00.0,N,,*61
$IIVLW,02839,N,000.0,N*53
$IIVWR,032,R,07.4,N,,,,*63
$IIDPT,012.3,+0.7,*40
$IIGLL,0854.979,S,14006.028,W,190400,A,A*54
$IIHDG,126,,,10,E*16
$IIMTW,+26.5,C*39
$IIMWV,032,R,07.4,N,A*11
$IIMWV,032,T,07.4,N,A*17
$IIRMB,A,0.00,L,,HAKAAU  ,,,,,026.60,173,,V,A*67
$IIRMC,190401,A,0854.979,S,14006.028,W,00.0,008,031110,10,E,A*02
$IIVHW,,,126,M,00.0,N,,*61
$IIVLW,02839,N,000.0,N*53
$IIVWR,027,R,07.4,N,,,,*67
$IIDPT,012.3,+0.7,*40
$IIGLL,0854.979,S,14006.028,W,190401,A,A*55
$IIHDG,126,,,10,E*16
$IIMTW,+26.5,C*39
$IIMWV,027,R,07.2,N,A*13
$IIMWV,027,T,07.4,N,A*13
$IIRMC,190402,A,0854.980,S,14006.028,W,00.0,008,031110,10,E,A*07
$IIVHW,,,126,M,00.0,N,,*61
$IIVLW,02839,N,000.0,N*53
$IIVWR,027,R,07.2,N,,,,*61
$IIDPT,012.3,+0.7,*40
$IIGLL,0854.979,S,14006.029,W,190403,A,A*56
$IIHDG,126,,,10,E*16
$IIMTW,+26.5,C*39
$IIMWV,027,R,07.1,N,A*10
$IIMWV,027,T,07.2,N,A*15
$IIRMB,A,0.00,L,,HAKAAU  ,,,,,026.60,173,,V,A*67
$IIRMC,190403,A,0854.979,S,14006.029,W,00.0,008,031110,10,E,A*01
$IIVHW,,,126,M,00.0,N,,*61
$IIVLW,02839,N,000.0,N*53
$IIVWR,026,R,06.9,N,,,,*6A
$IIDPT,012.3,+0.7,*40
$IIGLL,0854.978,S,14006.029,W,190404,A,A*50
$IIHDG,127,,,10,E*17
$IIMTW,+26.5,C*39
$IIMWV,026,R,06.9,N,A*18
$IIMWV,027,T,07.1,N,A*16
$IIRMC,190404,A,0854.978,S,14006.029,W,00.0,008,031110,10,E,A*07
$IIVHW,,,127,M,00.0,N,,*60
$IIVLW,02839,N,000.0,N*53
$IIVWR,023,R,06.5,N,,,,*63
$IIDPT,012.3,+0.7,*40
$IIGLL,0854.978,S,14006.029,W,190405,A,A*51
$IIHDG,127,,,10,E*17
$IIMTW,+26.5,C*39
$IIMWV,023,R,06.5,N,A*11
$IIMWV,026,T,06.9,N,A*1E
$IIRMB,A,0.00,L,,HAKAAU  ,,,,,026.60,173,,V,A*67
$IIRMC,190406,A,0854.978,S,14006.029,W,00.0,008,031110,10,E,A*05
$IIVHW,,,127,M,00.0,N,,*60
$IIVLW,02839,N,000.0,N*53
$IIVWR,022,R,06.2,N,,,,*65
$IIDPT,012.3,+0.7,*40
$IIGLL,0854.978,S,14006.029,W,190406,A,A*52
$IIHDG,127,,,10,E*17
$IIMTW,+26.5,C*39
$IIMWV,022,R,06.2,N,A*17
$IIMWV,022,T,06.2,N,A*11
$IIRMC,190407,A,0854.978,S,14006.028,W,00.0,008,031110,10,E,A*05
$IIVHW,,,127,M,00.0,N,,*60
$IIVLW,02839,N,000.0,N*53
$IIVWR,024,R,06.0,N,,,,*61
$IIDPT,012.3,+0.7,*40
$IIGLL,0854.978,S,14006.028,W,190407,A,A*52
$IIHDG,127,,,10,E*17
$IIMTW,+26.5,C*39
$IIMWV,026,R,06.2,N,A*13
$IIMWV,024,T,06.0,N,A*15
$IIRMC,190408,A,0854.978,S,14006.028,W,00.0,008,031110,10,E,A*0A
$IIVHW,,,128,M,00.0,N,,*6F
$IIVLW,02839,N,000.0,N*53
$IIVWR,026,R,06.2,N,,,,*61
$IIDPT,012.3,+0.7,*40
$IIGLL,0854.978,S,14006.028,W,190408,A,A*5D
$IIHDG,128,,,10,E*18
$IIMTW,+26.5,C*39
$IIMWV,028,R,06.0,N,A*1F
$IIMWV,026,T,06.2,N,A*15
$IIRMB,A,0.00,L,,HAKAAU  ,,,,,026.60,173,,V,A*67
$IIRMC,190409,A,0854.978,S,14006.028,W,00.0,008,031110,10,E,A*0B
$IIVHW,,,128,M,00.0,N,,*6F
$IIVLW,02839,N,000.0,N*53
$IIVWR,028,R,06.0,N,,,,*6D
$IIDPT,046.3,+0.7,*41
$IIGLL,0854.978,S,14006.028,W,190410,A,A*54
$IIHDG,129,,,10,E*19
$IIMTW,+26.5,C*39
$IIMWV,024,R,05.9,N,A*19
$IIMWV,028,T,06.0,N,A*19
$IIRMC,190410,A,0854.978,S,14006.028,W,00.0,008,031110,10,E,A*03
$IIVHW,,,129,M,00.0,N,,*6E
$IIVLW,02839,N,000.0,N*53
$IIVWR,024,R,05.9,N,,,,*6B
$IIDPT,033.1,+0.7,*41
$IIGLL,0854.979,S,14006.029,W,190411,A,A*55
$IIHDG,130,,,10,E*11
$IIMTW,+26.5,C*39
$IIMWV,027,R,06.1,N,A*11
$IIMWV,024,T,05.9,N,A*1F
$IIRMB,A,0.00,L,,HAKAAU  ,,,,,026.60,173,,V,A*67
$IIRMC,190411,A,0854.979,S,14006.029,W,00.0,008,031110,10,E,A*02
$IIVHW,,,131,M,00.0,N,,*67
$IIVLW,02839,N,000.0,N*53
$IIVWR,032,R,06.1,N,,,,*67
$IIDPT,039.6,+0.7,*4C
$IIGLL,0854.979,S,14006.029,W,190412,A,A*56
$IIHDG,131,,,10,E*10
$IIMTW,+26.5,C*39
$IIMWV,032,R,06.1,N,A*15
$IIMWV,027,T,06.1,N,A*17
$IIRMC,190413,A,0854.978,S,14006.029,W,00.0,008,031110,10,E,A*01
$IIVHW,,,131,M,00.0,N,,*67
$IIVLW,02839,N,000.0,N*53
$IIVWR,030,R,06.3,N,,,,*67
$IIDPT,039.6,+0.7,*4C
$IIGLL,0854.978,S,14006.029,W,190413,A,A*56
$IIHDG,131,,,10,E*10
$IIMTW,+26.5,C*39
$IIMWV,030,R,06.3,N,A*15
$IIMWV,030,T,06.3,N,A*13
$IIRMB,A,0.00,L,,HAKAAU  ,,,,,026.60,173,,V,A*67
$IIRMC,190414,A,0854.978,S,14006.029,W,00.0,008,031110,10,E,A*06
$IIVHW,,,132,M,00.0,N,,*64
$IIVLW,02839,N,000.0,N*53
$IIVWR,023,R,06.4,N,,,,*62
$IIDPT,012.3,+0.7,*40
$IIGLL,0854.978,S,14006.029,W,190414,A,A*51
$IIHDG,133,,,10,E*12
$IIMTW,+26.5,C*39
$IIMWV,025,R,06.2,N,A*10
$IIMWV,023,T,06.4,N,A*16
$IIRMB,A,0.00,L,,HAKAAU  ,,,,,026.60,173,,V,A*67
$IIRMC,190415,A,0854.979,S,14006.028,W,00.0,008,031110,10,E,A*07
$IIVHW,,,133,M,00.0,N,,*65
$IIVLW,02839,N,000.0,N*53
$IIVWR,025,R,06.2,N,,,,*62
$IIDPT,012.3,+0.7,*40
$IIGLL,0854.978,S,14006.028,W,190416,A,A*52
$IIHDG,133,,,10,E*12
$IIMTW,+26.5,C*39
$IIMWV,029,R,06.6,N,A*18
$IIMWV,025,T,06.2,N,A*16
$IIRMC,190416,A,0854.978,S,14006.028,W,00.0,008,031110,10,E,A*05
$IIVHW,,,133,M,00.0,N,,*65
$IIVLW,02839,N,000.0,N*53
$IIVWR,030,R,06.9,N,,,,*6D
$IIDPT,012.3,+0.7,*40
$IIGLL,0854.977,S,14006.028,W,190417,A,A*5C
$IIHDG,134,,,10,E*15
$IIMTW,+26.5,C*39
$IIMWV,030,R,06.9,N,A*1F
$IIMWV,029,T,06.6,N,A*1E
$IIRMB,A,0.00,L,,HAKAAU  ,,,,,026.60,173,,V,A*67
$IIRMC,190418,A,0854.976,S,14006.029,W,00.0,008,031110,10,E,A*04
$IIVHW,,,135,M,00.0,N,,*63
$IIVLW,02839,N,000.0,N*53
$IIVWR,026,R,06.9,N,,,,*6A
$IIDPT,012.3,+0.7,*40
$IIGLL,0854.976,S,14006.029,W,190418,A,A*53
$IIHDG,135,,,10,E*14
$IIMTW,+26.5,C*39
$IIMWV,026,R,06.9,N,A*18
$IIMWV,026,T,06.9,N,A*1E
$IIRMB,A,0.00,L,,HAKAAU  ,,,,,026.60,173,,V,A*67
$IIRMC,190419,A,0854.976,S,14006.029,W,00.0,008,031110,10,E,A*05
$IIVHW,,,136,M,00.0,N,,*60
$IIVLW,02839,N,000.0,N*53
$IIVWR,023,R,06.8,N,,,,*6E
$IIDPT,012.3,+0.7,*40
$IIGLL,0854.976,S,14006.029,W,190419,A,A*52
$IIHDG,137,,,10,E*16
$IIMTW,+26.5,C*39
$IIMWV,022,R,06.7,N,A*12
$IIMWV,023,T,06.8,N,A*1A
$IIRMC,190420,A,0854.976,S,14006.029,W,00.0,008,031110,10,E,A*0F
$IIVHW,,,137,M,00.0,N,,*61
$IIVLW,02839,N,000.0,N*53
$IIVWR,022,R,06.7,N,,,,*60
$IIDPT,012.3,+0.7,*40
$IIGLL,0854.976,S,14006.029,W,190421,A,A*59
$IIHDG,137,,,10,E*16
$IIMTW,+26.5,C*39
$IIMWV,021,R,06.9,N,A*1F
$IIMWV,022,T,06.7,N,A*14
$IIRMB,A,0.00,L,,HAKAAU  ,,,,,026.60,173,,V,A*67
$IIRMC,190421,A,0854.976,S,14006.029,W,00.0,008,031110,10,E,A*0E
$IIVHW,,,137,M,00.0,N,,*61
$IIVLW,02839,N,000.0,N*53
$IIVWR,019,R,07.1,N,,,,*6F
$IIDPT,012.3,+0.7,*40
$IIGLL,0854.976,S,14006.029,W,190422,A,A*5A
$IIHDG,139,,,10,E*18
$IIMTW,+26.5,C*39
$IIMWV,019,R,07.1,N,A*1D
$IIMWV,021,T,06.9,N,A*19
$IIRMC,190422,A,0854.976,S,14006.029,W,00.0,008,031110,10,E,A*0D
$IIVHW,,,139,M,00.0,N,,*6F
$IIVLW,02839,N,000.0,N*53
$IIVWR,014,R,07.0,N,,,,*63
$IIDPT,012.3,+0.7,*40
$IIGLL,0854.976,S,14006.029,W,190423,A,A*5B
$IIHDG,139,,,10,E*18
$IIMTW,+26.5,C*39
$IIMWV,014,R,07.0,N,A*11
$IIMWV,019,T,07.1,N,A*1B
$IIRMB,A,0.00,L,,HAKAAU  ,,,,,026.60,173,,V,A*67
$IIRMC,190424,A,0854.976,S,14006.029,W,00.0,008,031110,10,E,A*0B
$IIVHW,,,140,M,00.0,N,,*61
$IIVLW,02839,N,000.0,N*53
$IIVWR,011,R,07.2,N,,,,*64
$IIDPT,012.1,+0.7,*42
$IIGLL,0854.976,S,14006.029,W,190424,A,A*5C
$IIHDG,140,,,10,E*16
$IIMTW,+26.5,C*39
$IIMWV,011,R,07.2,N,A*16
$IIMWV,011,T,07.2,N,A*10
$IIRMB,A,0.00,L,,HAKAAU  ,,,,,026.60,173,,V,A*67
$IIRMC,190425,A,0854.975,S,14006.029,W,00.0,008,031110,10,E,A*09
$IIVHW,,,141,M,00.0,N,,*60
$IIVLW,02839,N,000.0,N*53
$IIVWR,011,R,07.2,N,,,,*64
$IIDPT,012.1,+0.7,*42
$IIGLL,0854.975,S,14006.029,W,190425,A,A*5E
$IIHDG,142,,,10,E*14
$IIMTW,+26.5,C*39
$IIMWV,012,R,07.3,N,A*14
$IIMWV,011,T,07.2,N,A*10
$IIRMC,190426,A,0854.975,S,14006.029,W,00.0,008,031110,10,E,A*0A
$IIVHW,,,142,M,00.0,N,,*63
$IIVLW,02839,N,000.0,N*53
$IIVWR,012,R,07.3,N,,,,*66
$IIDPT,012.1,+0.7,*42
$IIGLL,0854.974,S,14006.029,W,190428,A,A*52
$IIHDG,144,,,10,E*12
$IIMTW,+26.5,C*39
$IIMWV,006,R,07.7,N,A*15
$IIMWV,009,T,07.7,N,A*1C
$IIRMB,A,0.00,L,,HAKAAU  ,,,,,026.60,173,,V,A*67
$IIRMC,190428,A,0854.974,S,14006.029,W,00.0,008,031110,10,E,A*05
$IIVHW,,,144,M,00.0,N,,*65
$IIVLW,02839,N,000.0,N*53
$IIVWR,002,R,07.9,N,,,,*6D
$IIDPT,043.5,+0.7,*42
$IIGLL,0854.974,S,14006.029,W,190429,A,A*53
$IIHDG,144,,,10,E*12
$IIMTW,+26.5,C*39
$IIMWV,002,R,07.9,N,A*1F
$IIMWV,006,T,07.7,N,A*13
$IIRMB,A,0.00,L,,HAKAAU  ,,,,,026.60,173,,V,A*67
$IIRMC,190430,A,0854.974,S,14006.029,W,00.0,008,031110,10,E,A*0C
$IIVHW,,,145,M,00.0,N,,*64
$IIVLW,02839,N,000.0,N*53
$IIVWR,005,R,07.8,N,,,,*6B
$IIDPT,043.5,+0.7,*42
$IIGLL,0854.974,S,14006.029,W,190430,A,A*5B
$IIHDG,145,,,10,E*13
$IIMTW,+26.5,C*39
$IIMWV,005,R,07.8,N,A*19
$IIMWV,005,T,07.8,N,A*1F
$IIRMB,A,0.00,L,,HAKAAU  ,,,,,026.60,173,,V,A*67
$IIRMC,190431,A,0854.974,S,14006.028,W,00.0,008,031110,10,E,A*0C
$IIVHW,,,146,M,00.0,N,,*67
$IIVLW,02839,N,000.0,N*53
$IIVWR,006,R,07.7,N,,,,*67
$IIDPT,043.5,+0.7,*42
$IIGLL,0854.974,S,14006.028,W,190431,A,A*5B
$IIHDG,147,,,10,E*11
$IIMTW,+26.5,C*39
$IIMWV,004,R,07.7,N,A*17
$IIMWV,006,T,07.7,N,A*13
$IIRMC,190432,A,0854.974,S,14006.028,W,00.0,008,031110,10,E,A*0F
$IIVHW,,,147,M,00.0,N,,*66
$IIVLW,02839,N,000.0,N*53
$IIVWR,004,R,07.7,N,,,,*65
$IIDPT,043.5,+0.7,*42
$IIGLL,0854.975,S,14006.029,W,190433,A,A*59
$IIHDG,147,,,10,E*11
$IIMTW,+26.5,C*39
$IIMWV,001,R,07.7,N,A*12
$IIMWV,004,T,07.7,N,A*11
$IIRMB,A,0.00,L,,HAKAAU  ,,,,,026.60,173,,V,A*67
$IIRMC,190433,A,0854.975,S,14006.029,W,00.0,008,031110,10,E,A*0E
$IIVHW,,,147,M,00.0,N,,*66
$IIVLW,02839,N,000.0,N*53
$IIVWR,001,R,08.0,N,,,,*68
$IIDPT,012.3,+0.7,*40
$IIGLL,0854.975,S,14006.029,W,190434,A,A*5E
$IIHDG,148,,,10,E*1E
$IIMTW,+26.5,C*39
$IIMWV,001,R,08.0,N,A*1A
$IIMWV,001,T,07.7,N,A*14
$IIRMC,190434,A,0854.975,S,14006.029,W,00.0,008,031110,10,E,A*09
$IIVHW,,,149,M,00.0,N,,*68
$IIVLW,02839,N,000.0,N*53
$IIVWR,001,R,08.1,N,,,,*69
$IIDPT,012.3,+0.7,*40
$IIGLL,0854.975,S,14006.029,W,190435,A,A*5F
$IIHDG,149,,,10,E*1F
$IIMTW,+26.5,C*39
$IIMWV,001,R,08.1,N,A*1B
$IIMWV,001,T,08.0,N,A*1C
$IIRMB,A,0.00,L,,HAKAAU  ,,,,,026.60,173,,V,A*67
$IIRMC,190436,A,0854.975,S,14006.028,W,00.0,008,031110,10,E,A*0A
$IIVHW,,,150,M,00.0,N,,*60
$IIVLW,02839,N,000.0,N*53
$IIVWR,001,R,08.3,N,,,,*6B
$IIDPT,012.3,+0.7,*40
$IIGLL,0854.975,S,14006.028,W,190436,A,A*5D
$IIHDG,150,,,10,E*17
$IIMTW,+26.5,C*39
$IIMWV,001,R,08.3,N,A*19
$IIMWV,001,T,08.3,N,A*1F
$IIRMB,A,0.00,L,,HAKAAU  ,,,,,026.60,173,,V,A*67
$IIRMC,190437,A,0854.975,S,14006.028,W,00.0,008,031110,10,E,A*0B
$IIVHW,,,151,M,00.0,N,,*61
$IIVLW,02839,N,000.0,N*53
$IIVWR,003,L,08.1,N,,,,*75
$IIDPT,012.1,+0.7,*42
$IIGLL,0854.975,S,14006.028,W,190437,A,A*5C
$IIHDG,153,,,10,E*14
$IIMTW,+26.5,C*39
$IIMWV,358,R,08.1,N,A*14
$IIMWV,357,T,08.2,N,A*1E
$IIRMB,A,0.00,L,,HAKAAU  ,,,,,026.60,173,,V,A*67
$IIRMC,190439,A,0854.974,S,14006.028,W,00.0,008,031110,10,E,A*04
$IIVHW,,,153,M,00.0,N,,*63
$IIVLW,02839,N,000.0,N*53
$IIVWR,002,L,08.1,N,,,,*74
$IIDPT,012.1,+0.7,*42
$IIGLL,0854.974,S,14006.028,W,190440,A,A*5D
$IIHDG,153,,,10,E*14
$IIMTW,+26.5,C*39
$IIMWV,359,R,08.0,N,A*14
$IIMWV,358,T,08.1,N,A*12
$IIRMC,190440,A,0854.974,S,14006.028,W,00.0,008,031110,10,E,A*0A
$IIVHW,,,153,M,00.0,N,,*63
$IIVLW,02839,N,000.0,N*53
$IIVWR,000,R,07.8,N,,,,*6E
$IIDPT,012.1,+0.7,*42
$IIGLL,0854.974,S,14006.029,W,190441,A,A*5D
$IIHDG,154,,,10,E*13
$IIMTW,+26.5,C*39
$IIMWV,000,R,07.8,N,A*1C
$IIMWV,359,T,08.0,N,A*12
$IIRMB,A,0.00,L,,HAKAAU  ,,,,,026.60,173,,V,A*67
$IIRMC,190442,A,0854.974,S,14006.029,W,00.0,008,031110,10,E,A*09
$IIVHW,,,154,M,00.0,N,,*64
$IIVLW,02839,N,000.0,N*53
$IIVWR,001,L,07.8,N,,,,*71
$IIDPT,012.1,+0.7,*42
$IIGLL,0854.974,S,14006.029,W,190442,A,A*5E
$IIHDG,154,,,10,E*13
$IIMTW,+26.5,C*39
$IIMWV,359,R,07.8,N,A*13
$IIMWV,359,T,07.8,N,A*15
$IIRMB,A,0.00,L,,HAKAAU  ,,,,,026.60,173,,V,A*67
$IIRMC,190443,A,0854.975,S,14006.029,W,00.0,008,031110,10,E,A*09
$IIVHW,,,155,M,00.0,N,,*65
$IIVLW,02839,N,000.0,N*53
$IIVWR,001,R,07.7,N,,,,*60
$IIDPT,012.1,+0.7,*42
$IIGLL,0854.975,S,14006.029,W,190443,A,A*5E
$IIHDG,155,,,10,E*12
$IIMTW,+26.5,C*39
$IIMWV,004,R,07.6,N,A*16
$IIMWV,001,T,07.7,N,A*14
$IIRMC,190444,A,0854.975,S,14006.029,W,00.0,008,031110,10,E,A*0E
$IIVHW,,,155,M,00.0,N,,*65
$IIVLW,02839,N,000.0,N*53
$IIVWR,004,R,07.6,N,,,,*64
$IIDPT,012.2,+0.7,*41
$IIGLL,0854.975,S,14006.029,W,190445,A,A*58
$IIHDG,156,,,10,E*11
$IIMTW,+26.5,C*39
$IIMWV,007,R,07.6,N,A*15
$IIMWV,004,T,07.6,N,A*10
$IIRMB,A,0.00,L,,HAKAAU  ,,,,,026.60,173,,V,A*67
$IIRMC,190445,A,0854.975,S,14006.029,W,00.0,008,031110,10,E,A*0F
$IIVHW,,,156,M,00.0,N,,*66
$IIVLW,02839,N,000.0,N*53
$IIVWR,007,R,07.9,N,,,,*68
$IIDPT,012.2,+0.7,*41
$IIGLL,0854.976,S,14006.029,W,190446,A,A*58
$IIHDG,156,,,10,E*11
$IIMTW,+26.5,C*39
$IIMWV,007,R,07.9,N,A*1A
$IIMWV,007,T,07.6,N,A*13
$IIRMC,190446,A,0854.976,S,14006.029,W,00.0,008,031110,10,E,A*0F
$IIVHW,,,156,M,00.0,N,,*66
$IIVLW,02839,N,000.0,N*53
$IIVWR,003,R,07.8,N,,,,*6D
$IIDPT,049.7,+0.7,*4A
$IIGLL,0854.976,S,14006.029,W,190447,A,A*59
$IIHDG,156,,,10,E*11
$IIMTW,+26.5,C*39
$IIMWV,003,R,07.8,N,A*1F
$IIMWV,007,T,07.9,N,A*1C
$IIRMB,A,0.00,L,,HAKAAU  ,,,,,026.60,173,,V,A*67
$IIRMC,190448,A,0854.976,S,14006.029,W,00.0,008,031110,10,E,A*01
$IIVHW,,,157,M,00.0,N,,*67
$IIVLW,02839,N,000.0,N*53
$IIVWR,001,R,07.7,N,,,,*60
$IIDPT,043.6,+0.7,*41
$IIGLL,0854.976,S,14006.029,W,190448,A,A*56
$IIHDG,157,,,10,E*10
$IIMTW,+26.5,C*39
$IIMWV,001,R,07.7,N,A*12
$IIMWV,001,T,07.7,N,A*14
$IIRMB,A,0.00,L,,HAKAAU  ,,,,,026.60,173,,V,A*67
$IIRMC,190449,A,0854.976,S,14006.028,W,00.0,008,031110,10,E,A*01
$IIVHW,,,157,M,00.0,N,,*67
$IIVLW,02839,N,000.0,N*53
$IIVWR,004,R,08.0,N,,,,*6D
$IIDPT,049.7,+0.7,*4A
$IIGLL,0854.976,S,14006.028,W,190449,A,A*56
$IIHDG,157,,,10,E*10
$IIMTW,+26.5,C*39
$IIMWV,005,R,07.9,N,A*18
$IIMWV,004,T,08.0,N,A*19
$IIRMC,190450,A,0854.976,S,14006.028,W,00.0,008,031110,10,E,A*09
$IIVHW,,,157,M,00.0,N,,*67
$IIVLW,02839,N,000.0,N*53
$IIVWR,005,R,07.9,N,,,,*6A
$IIDPT,049.7,+0.7,*4A
$IIGLL,0854.975,S,14006.028,W,190451,A,A*5C
$IIHDG,156,,,10,E*11
$IIMTW,+26.5,C*39
$IIMWV,005,R,08.1,N,A*1F
$IIMWV,005,T,07.9,N,A*1E
$IIRMB,A,0.00,L,,HAKAAU  ,,,,,026.60,173,,V,A*67
$IIRMC,190451,A,0854.975,S,14006.028,W,00.0,008,031110,10,E,A*0B
$IIVHW,,,156,M,00.0,N,,*66
$IIVLW,02839,N,000.0,N*53
$IIVWR,006,R,08.0,N,,,,*6F
$IIDPT,012.5,+0.7,*46
$IIGLL,0854.975,S,14006.028,W,190452,A,A*5F
$IIHDG,156,,,10,E*11
$IIMTW,+26.5,C*39
$IIMWV,006,R,08.0,N,A*1D
$IIMWV,005,T,08.1,N,A*19
$IIRMC,190452,A,0854.975,S,14006.028,W,00.0,008,031110,10,E,A*08
$IIVHW,,,156,M,00.0,N,,*66
$IIVLW,02839,N,000.0,N*53
$IIVWR,004,R,07.8,N,,,,*6A
$IIDPT,012.5,+0.7,*46
$IIGLL,0854.976,S,14006.028,W,190453,A,A*5D
$IIHDG,156,,,10,E*11
$IIMTW,+26.5,C*39
$IIMWV,004,R,07.8,N,A*18
$IIMWV,006,T,08.0,N,A*1B
$IIRMB,A,0.00,L,,HAKAAU  ,,,,,026.60,173,,V,A*67
$IIRMC,190454,A,0854.976,S,14006.027,W,00.0,008,031110,10,E,A*02
$IIVHW,,,156,M,00.0,N,,*66
$IIVLW,02839,N,000.0,N*53
$IIVWR,003,R,07.7,N,,,,*62
$IIDPT,012.5,+0.7,*46
$IIGLL,0854.976,S,14006.027,W,190454,A,A*55
$IIHDG,156,,,10,E*11
$IIMTW,+26.5,C*39
$IIMWV,003,R,07.7,N,A*10
$IIMWV,003,T,07.7,N,A*16
$IIRMB,A,0.00,L,,HAKAAU  ,,,,,026.60,173,,V,A*67
$IIRMC,190455,A,0854.976,S,14006.028,W,00.0,008,031110,10,E,A*0C
$IIVHW,,,155,M,00.0,N,,*65
$IIVLW,02839,N,000.0,N*53
$IIVWR,001,R,07.7,N,,,,*60
$IIDPT,012.4,+0.7,*47
$IIGLL,0854.976,S,14006.028,W,190455,A,A*5B
$IIHDG,154,,,10,E*13
$IIMTW,+26.5,C*39
$IIMWV,357,R,07.7,N,A*12
$IIMWV,001,T,07.7,N,A*14
$IIRMC,190456,A,0854.976,S,14006.028,W,00.0,008,031110,10,E,A*0F
$IIVHW,,,154,M,00.0,N,,*64
$IIVLW,02839,N,000.0,N*53
$IIVWR,003,L,07.7,N,,,,*7C
$IIDPT,012.1,+0.7,*42
$IIGLL,0854.976,S,14006.027,W,190457,A,A*56
$IIHDG,154,,,10,E*13
$IIMTW,+26.5,C*39
$IIMWV,355,R,07.7,N,A*10
$IIMWV,357,T,07.7,N,A*14
$IIRMB,A,0.00,L,,HAKAAU  ,,,,,026.60,173,,V,A*67
$IIRMC,190457,A,0854.976,S,14006.027,W,00.0,008,031110,10,E,A*01
$IIVHW,,,154,M,00.0,N,,*64
$IIVLW,02839,N,000.0,N*53
$IIVWR,003,L,07.4,N,,,,*7F
$IIDPT,012.1,+0.7,*42
$IIGLL,0854.976,S,14006.027,W,190458,A,A*59
$IIHDG,154,,,10,E*13
$IIMTW,+26.5,C*39
$IIMWV,357,R,07.4,N,A*11
$IIMWV,355,T,07.7,N,A*16
$IIRMC,190458,A,0854.976,S,14006.027,W,00.0,008,031110,10,E,A*0E
$IIVHW,,,153,M,00.0,N,,*63
$IIVLW,02839,N,000.0,N*53
$IIVWR,000,R,07.4,N,,,,*62
$IIDPT,012.1,+0.7,*42
$IIGLL,0854.976,S,14006.027,W,190459,A,A*58
$IIHDG,153,,,10,E*14
$IIMTW,+26.5,C*39
$IIMWV,000,R,07.4,N,A*10
$IIMWV,357,T,07.4,N,A*17
$IIRMB,A,0.00,L,,HAKAAU  ,,,,,026.60,173,,V,A*67
$IIRMC,190500,A,0854.976,S,14006.028,W,00.0,008,031110,10,E,A*0D
$IIVHW,,,153,M,00.0,N,,*63
$IIVLW,02839,N,000.0,N*53
$IIVWR,003,R,07.3,N,,,,*66
$IIDPT,012.1,+0.7,*42
$IIGLL,0854.976,S,14006.028,W,190500,A,A*5A
$IIHDG,153,,,10,E*14
$IIMTW,+26.5,C*39
$IIMWV,003,R,07.3,N,A*14
$IIMWV,003,T,07.3,N,A*12
$IIRMB,A,0.00,L,,HAKAAU  ,,,,,026.60,173,,V,A*67
$IIRMC,190501,A,0854.976,S,14006.028,W,00.0,008,031110,10,E,A*0C
$IIVHW,,,152,M,00.0,N,,*62
$IIVLW,02839,N,000.0,N*53
$IIVWR,004,R,07.3,N,,,,*61
$IIDPT,012.1,+0.7,*42
$IIGLL,0854.976,S,14006.028,W,190501,A,A*5B
$IIHDG,151,,,10,E*16
$IIMTW,+26.5,C*39
$IIMWV,005,R,07.2,N,A*13
$IIMWV,004,T,07.3,N,A*15
$IIRMC,190502,A,0854.976,S,14006.028,W,00.0,008,031110,10,E,A*0F
$IIVHW,,,151,M,00.0,N,,*61
$IIVLW,02839,N,000.0,N*53
$IIVWR,005,R,07.2,N,,,,*61
$IIDPT,012.8,+0.7,*4B
$IIGLL,0854.976,S,14006.028,W,190503,A,A*59
$IIHDG,151,,,10,E*16
$IIMTW,+26.5,C*39
$IIMWV,005,R,07.0,N,A*11
$IIMWV,005,T,07.2,N,A*15
$IIRMB,A,0.00,L,,HAKAAU  ,,,,,026.60,173,,V,A*67
$IIRMC,190503,A,0854.976,S,14006.028,W,00.0,008,031110,10,E,A*0E
$IIVHW,,,151,M,00.0,N,,*61
$IIVLW,02839,N,000.0,N*53
$IIVWR,005,R,07.1,N,,,,*62
$IIDPT,074.3,+0.7,*40
$IIGLL,0854.976,S,14006.029,W,190504,A,A*5F
$IIHDG,150,,,10,E*17
$IIMTW,+26.5,C*39
$IIMWV,005,R,07.1,N,A*10
$IIMWV,005,T,07.0,N,A*17
$IIRMC,190504,A,0854.976,S,14006.029,W,00.0,008,031110,10,E,A*08
$IIVHW,,,150,M,00.0,N,,*60
$IIVLW,02839,N,000.0,N*53
$IIVWR,006,R,06.8,N,,,,*69
$IIDPT,074.3,+0.7,*40
$IIGLL,0854.977,S,14006.029,W,190505,A,A*5F
$IIHDG,150,,,10,E*17
$IIMTW,+26.5,C*39
$IIMWV,006,R,06.8,N,A*1B
$IIMWV,005,T,07.1,N,A*16
$IIRMB,A,0.00,L,,HAKAAU  ,,,,,026.60,173,,V,A*67
$IIRMC,190506,A,0854.977,S,14006.028,W,00.0,008,031110,10,E,A*0A
$IIVHW,,,149,M,00.0,N,,*68
$IIVLW,02839,N,000.0,N*53
$IIVWR,004,R,06.6,N,,,,*65
$IIDPT,055.6,+0.7,*46
$IIGLL,0854.977,S,14006.028,W,190506,A,A*5D
$IIHDG,149,,,10,E*1F
$IIMTW,+26.5,C*39
$IIMWV,004,R,06.6,N,A*17
$IIMWV,004,T,06.6,N,A*11
$IIRMB,A,0.00,L,,HAKAAU  ,,,,,026.60,173,,V,A*67
$IIRMC,190507,A,0854.976,S,14006.028,W,00.0,008,031110,10,E,A*0A
$IIVHW,,,149,M,00.0,N,,*68
$IIVLW,02839,N,000.0,N*53
$IIVWR,003,R,06.6,N,,,,*62
$IIDPT,055.6,+0.7,*46
$IIGLL,0854.976,S,14006.028,W,190507,A,A*5D
$IIHDG,148,,,10,E*1E
$IIMTW,+26.5,C*39
$IIMWV,003,R,06.4,N,A*12
$IIMWV,003,T,06.6,N,A*16
$IIRMC,190508,A,0854.976,S,14006.028,W,00.0,008,031110,10,E,A*05
$IIVHW,,,148,M,00.0,N,,*69
$IIVLW,02839,N,000.0,N*53
$IIVWR,003,R,06.4,N,,,,*60
$IIDPT,036.6,+0.7,*43
$IIGLL,0854.977,S,14006.028,W,190509,A,A*52
$IIHDG,148,,,10,E*1E
$IIMTW,+26.5,C*39
$IIMWV,005,R,06.4,N,A*14
$IIMWV,003,T,06.4,N,A*14
$IIRMB,A,0.00,L,,HAKAAU  ,,,,,026.60,173,,V,A*67
$IIRMC,190509,A,0854.977,S,14006.028,W,00.0,008,031110,10,E,A*05
$IIVHW,,,148,M,00.0,N,,*69
$IIVLW,02839,N,000.0,N*53
$IIVWR,006,R,06.5,N,,,,*64
$IIDPT,012.1,+0.7,*42
$IIGLL,0854.977,S,14006.028,W,190510,A,A*5A
$IIHDG,147,,,10,E*11
$IIMTW,+26.5,C*39
$IIMWV,006,R,06.5,N,A*16
$IIMWV,005,T,06.4,N,A*12
$IIRMC,190510,A,0854.977,S,14006.028,W,00.0,008,031110,10,E,A*0D
$IIVHW,,,147,M,00.0,N,,*66
$IIVLW,02839,N,000.0,N*53
$IIVWR,005,R,06.3,N,,,,*61
$IIDPT,012.8,+0.7,*4B
$IIGLL,0854.977,S,14006.028,W,190511,A,A*5B
$IIHDG,147,,,10,E*11
$IIMTW,+26.5,C*39
$IIMWV,005,R,06.3,N,A*13
$IIMWV,006,T,06.5,N,A*10
$IIRMB,A,0.00,L,,HAKAAU  ,,,,,026.60,173,,V,A*67
$IIRMC,190512,A,0854.977,S,14006.028,W,00.0,008,031110,10,E,A*0F
$IIVHW,,,147,M,00.0,N,,*66
$IIVLW,02839,N,000.0,N*53
$IIVWR,003,R,06.1,N,,,,*65
$IIDPT,012.3,+0.7,*40
$IIGLL,0854.977,S,14006.028,W,190512,A,A*58
$IIHDG,147,,,10,E*11
$IIMTW,+26.5,C*39
$IIMWV,003,R,06.1,N,A*17
$IIMWV,003,T,06.1,N,A*11
$IIRMB,A,0.00,L,,HAKAAU  ,,,,,026.60,173,,V,A*67
$IIRMC,190513,A,0854.977,S,14006.028,W,00.0,008,031110,10,E,A*0E
$IIVHW,,,147,M,00.0,N,,*66
$IIVLW,02839,N,000.0,N*53
$IIVWR,002,R,06.2,N,,,,*67
$IIDPT,012.1,+0.7,*42
$IIGLL,0854.977,S,14006.028,W,190513,A,A*59
$IIHDG,147,,,10,E*11
$IIMTW,+26.5,C*39
$IIMWV,001,R,06.1,N,A*15
$IIMWV,002,T,06.2,N,A*13
$IIRMC,190514,A,0854.977,S,14006.028,W,00.0,008,031110,10,E,A*09
$IIVHW,,,147,M,00.0,N,,*66
$IIVLW,02839,N,000.0,N*53
$IIVWR,001,R,06.1,N,,,,*67
$IIDPT,012.1,+0.7,*42
$IIGLL,0854.976,S,14006.029,W,190515,A,A*5F
$IIHDG,147,,,10,E*11
$IIMTW,+26.5,C*39
$IIMWV,002,R,06.2,N,A*15
$IIMWV,001,T,06.1,N,A*13
$IIRMB,A,0.00,L,,HAKAAU  ,,,,,026.60,173,,V,A*67
$IIRMC,190515,A,0854.976,S,14006.029,W,00.0,008,031110,10,E,A*08
$IIVHW,,,147,M,00.0,N,,*66
$IIVLW,02839,N,000.0,N*53
$IIVWR,003,L,06.6,N,,,,*7C
$IIDPT,012.1,+0.7,*42
$IIGLL,0854.976,S,14006.029,W,190516,A,A*5C
$IIHDG,147,,,10,E*11
$IIMTW,+26.5,C*39
$IIMWV,357,R,06.6,N,A*12
$IIMWV,002,T,06.2,N,A*13
$IIRMC,190516,A,0854.976,S,14006.029,W,00.0,008,031110,10,E,A*0B
$IIVHW,,,147,M,00.0,N,,*66
$IIVLW,02839,N,000.0,N*53
$IIVWR,005,L,06.9,N,,,,*75
$IIDPT,012.1,+0.7,*42
$IIGLL,0854.977,S,14006.029,W,190517,A,A*5C
$IIHDG,147,,,10,E*11
$IIMTW,+26.5,C*39
$IIMWV,355,R,06.9,N,A*1F
$IIMWV,357,T,06.6,N,A*14
$IIRMB,A,0.00,L,,HAKAAU  ,,,,,026.60,173,,V,A*67
$IIRMC,190518,A,0854.977,S,14006.029,W,00.0,008,031110,10,E,A*04
$IIVHW,,,148,M,00.0,N,,*69
$IIVLW,02839,N,000.0,N*53
$IIVWR,004,L,07.6,N,,,,*7A
$IIDPT,012.1,+0.7,*42
$IIGLL,0854.977,S,14006.029,W,190518,A,A*53
$IIHDG,148,,,10,E*1E
$IIMTW,+26.5,C*39
$IIMWV,356,R,07.6,N,A*12
$IIMWV,356,T,07.6,N,A*14
$IIRMB,A,0.00,L,,HAKAAU  ,,,,,026.60,173,,V,A*67
$IIRMC,190519,A,0854.977,S,14006.029,W,00.0,008,031110,10,E,A*05
$IIVHW,,,148,M,00.0,N,,*69
$IIVLW,02839,N,000.0,N*53
$IIVWR,005,L,08.2,N,,,,*70
$IIDPT,011.9,+0.7,*49
$IIGLL,0854.977,S,14006.029,W,190519,A,A*52
$IIHDG,148,,,10,E*1E
$IIMTW,+26.5,C*39
$IIMWV,351,R,08.3,N,A*1F
$IIMWV,355,T,08.2,N,A*1C
$IIRMC,190520,A,0854.977,S,14006.029,W,00.0,008,031110,10,E,A*0F
$IIVHW,,,148,M,00.0,N,,*69
$IIVLW,02839,N,000.0,N*53
$IIVWR,009,L,08.3,N,,,,*7D
$IIDPT,011.9,+0.7,*49
$IIGLL,0854.977,S,14006.029,W,190521,A,A*59
$IIHDG,149,,,10,E*1F
$IIMTW,+26.5,C*39
$IIMWV,348,R,08.4,N,A*10
$IIMWV,351,T,08.3,N,A*19
$IIRMB,A,0.00,L,,HAKAAU  ,,,,,026.60,173,,V,A*67
$IIRMC,190521,A,0854.977,S,14006.029,W,00.0,008,031110,10,E,A*0E
$IIVHW,,,149,M,00.0,N,,*68
$IIVLW,02839,N,000.0,N*53
$IIVWR,012,L,08.5,N,,,,*71
$IIDPT,011.9,+0.7,*49
$IIGLL,0854.978,S,14006.029,W,190522,A,A*55
$IIHDG,149,,,10,E*1F
$IIMTW,+26.5,C*39
$IIMWV,348,R,08.5,N,A*11
$IIMWV,348,T,08.4,N,A*16
$IIRMC,190522,A,0854.978,S,14006.029,W,00.0,008,031110,10,E,A*02
$IIVHW,,,150,M,00.0,N,,*60
$IIVLW,02839,N,000.0,N*53
$IIVWR,010,L,08.5,N,,,,*73
$IIDPT,012.7,+0.7,*44
$IIGLL,0854.978,S,14006.029,W,190523,A,A*54
$IIHDG,150,,,10,E*17
$IIMTW,+26.5,C*39
$IIMWV,350,R,08.5,N,A*18
$IIMWV,348,T,08.5,N,A*17
$IIRMB,A,0.00,L,,HAKAAU  ,,,,,026.60,173,,V,A*67
$IIRMC,190524,A,0854.978,S,14006.029,W,00.0,008,031110,10,E,A*04
$IIVHW,,,150,M,00.0,N,,*60
$IIVLW,02839,N,000.0,N*53
$IIVWR,010,L,08.5,N,,,,*73
$IIDPT,012.4,+0.7,*47
$IIGLL,0854.978,S,14006.029,W,190524,A,A*53
$IIHDG,150,,,10,E*17
$IIMTW,+26.5,C*39
$IIMWV,350,R,08.5,N,A*18
$IIMWV,350,T,08.5,N,A*1E
$IIRMB,A,0.00,L,,HAKAAU  ,,,,,026.60,173,,V,A*67
$IIRMC,190525,A,0854.978,S,14006.028,W,00.0,008,031110,10,E,A*04
$IIVHW,,,150,M,00.0,N,,*60
$IIVLW,02839,N,000.0,N*53
$IIVWR,012,L,08.6,N,,,,*72
$IIDPT,012.6,+0.7,*45
$IIGLL,0854.978,S,14006.028,W,190525,A,A*53
$IIHDG,151,,,10,E*16
$IIMTW,+26.5,C*39
$IIMWV,347,R,08.6,N,A*1D
$IIMWV,348,T,08.6,N,A*14
$IIRMC,190526,A,0854.978,S,14006.027,W,00.0,008,031110,10,E,A*08
$IIVHW,,,151,M,00.0,N,,*61
$IIVLW,02839,N,000.0,N*53
$IIVWR,013,L,08.6,N,,,,*73
$IIDPT,053.8,+0.7,*4E
$IIGLL,0854.978,S,14006.027,W,190527,A,A*5E
$IIHDG,152,,,10,E*15
$IIMTW,+26.5,C*39
$IIMWV,347,R,08.6,N,A*1D
$IIMWV,347,T,08.6,N,A*1B
$IIRMB,A,0.00,L,,HAKAAU  ,,,,,026.60,173,,V,A*67
$IIRMC,190527,A,0854.978,S,14006.027,W,00.0,008,031110,10,E,A*09
$IIVHW,,,152,M,00.0,N,,*62
$IIVLW,02839,N,000.0,N*53
$IIVWR,013,L,08.6,N,,,,*73
$IIDPT,035.0,+0.7,*46
$IIGLL,0854.978,S,14006.027,W,190528,A,A*51
$IIHDG,152,,,10,E*15
$IIMTW,+26.5,C*39
$IIMWV,347,R,08.6,N,A*1D
$IIMWV,347,T,08.6,N,A*1B
$IIRMC,190528,A,0854.978,S,14006.027,W,00.0,008,031110,10,E,A*06
$IIVHW,,,153,M,00.0,N,,*63
$IIVLW,02839,N,000.0,N*53
$IIVWR,014,L,08.9,N,,,,*7B
$IIDPT,035.0,+0.7,*46
$IIGLL,0854.979,S,14006.026,W,190529,A,A*50
$IIHDG,153,,,10,E*14
$IIMTW,+26.5,C*39
$IIMWV,346,R,08.9,N,A*13
$IIMWV,347,T,08.6,N,A*1B
$IIRMB,A,0.00,L,,HAKAAU  ,,,,,026.60,173,,V,A*67
$IIRMC,190530,A,0854.979,S,14006.026,W,00.0,008,031110,10,E,A*0F
$IIVHW,,,153,M,00.0,N,,*63
$IIVLW,02839,N,000.0,N*53
$IIVWR,014,L,08.8,N,,,,*7A
$IIDPT,035.0,+0.7,*46
$IIGLL,0854.979,S,14006.026,W,190530,A,A*58
$IIHDG,153,,,10,E*14
$IIMTW,+26.5,C*39
$IIMWV,346,R,08.8,N,A*12
$IIMWV,346,T,08.8,N,A*14
$IIRMB,A,0.00,L,,HAKAAU  ,,,,,026.60,173,,V,A*67
$IIRMC,190531,A,0854.979,S,14006.026,W,00.0,008,031110,10,E,A*0E
$IIVHW,,,154,M,00.0,N,,*64
$IIVLW,02839,N,000.0,N*53
$IIVWR,014,L,08.8,N,,,,*7A
$IIDPT,014.4,+0.7,*41
$IIGLL,0854.979,S,14006.026,W,190531,A,A*59
$IIHDG,154,,,10,E*13
$IIMTW,+26.5,C*39
$IIMWV,345,R,09.0,N,A*18
$IIMWV,346,T,08.8,N,A*14
$IIRMC,190532,A,0854.979,S,14006.026,W,00.0,008,031110,10,E,A*0D
$IIVHW,,,154,M,00.0,N,,*64
$IIVLW,02839,N,000.0,N*53
$IIVWR,015,L,09.0,N,,,,*72
$IIDPT,012.3,+0.7,*40
$IIGLL,0854.979,S,14006.026,W,190533,A,A*5B
$IIHDG,155,,,10,E*12
$IIMTW,+26.5,C*39
$IIMWV,345,R,09.1,N,A*19
$IIMWV,345,T,09.0,N,A*1E
$IIRMB,A,0.00,L,,HAKAAU  ,,,,,026.60,173,,V,A*67
$IIRMC,190533,A,0854.979,S,14006.026,W,00.0,008,031110,10,E,A*0C
$IIVHW,,,155,M,00.0,N,,*65
$IIVLW,02839,N,000.0,N*53
$IIVWR,015,L,09.0,N,,,,*72
$IIDPT,012.3,+0.7,*40
$IIGLL,0854.979,S,14006.026,W,190534,A,A*5C
$IIHDG,155,,,10,E*12
$IIMTW,+26.5,C*39
$IIMWV,345,R,09.0,N,A*18
$IIMWV,345,T,09.1,N,A*1F
$IIRMC,190534,A,0854.979,S,14006.026,W,00.0,008,031110,10,E,A*0B
$IIVHW,,,155,M,00.0,N,,*65
$IIVLW,02839,N,000.0,N*53
$IIVWR,015,L,08.9,N,,,,*7A
$IIDPT,012.2,+0.7,*41
$IIGLL,0854.979,S,14006.026,W,190535,A,A*5D
$IIHDG,155,,,10,E*12
$IIMTW,+26.5,C*39
$IIMWV,345,R,08.9,N,A*10
$IIMWV,345,T,09.0,N,A*1E
$IIRMB,A,0.00,L,,HAKAAU  ,,,,,026.60,173,,V,A*67
$IIRMC,190536,A,0854.979,S,14006.026,W,00.0,008,031110,10,E,A*09
$IIVHW,,,156,M,00.0,N,,*66
$IIVLW,02839,N,000.0,N*53
$IIVWR,014,L,08.8,N,,,,*7A
$IIDPT,012.1,+0.7,*42
$IIGLL,0854.979,S,14006.026,W,190536,A,A*5E
$IIHDG,156,,,10,E*11
$IIMTW,+26.5,C*39
$IIMWV,346,R,08.8,N,A*12
$IIMWV,346,T,08.8,N,A*14
$IIRMB,A,0.00,L,,HAKAAU  ,,,,,026.60,173,,V,A*67
$IIRMC,190537,A,0854.979,S,14006.027,W,00.0,008,031110,10,E,A*09
$IIVHW,,,156,M,00.0,N,,*66
$IIVLW,02839,N,000.0,N*53
$IIVWR,017,L,08.4,N,,,,*75
$IIDPT,012.1,+0.7,*42
$IIGLL,0854.979,S,14006.027,W,190537,A,A*5E
$IIHDG,157,,,10,E*10
$IIMTW,+26.5,C*39
$IIMWV,342,R,08.1,N,A*1F
$IIMWV,343,T,08.4,N,A*1D
$IIRMC,190538,A,0854.979,S,14006.026,W,00.0,008,031110,10,E,A*07
$IIVHW,,,157,M,00.0,N,,*67
$IIVLW,02839,N,000.0,N*53
$IIVWR,018,L,08.1,N,,,,*7F
$IIDPT,012.1,+0.7,*42
$IIGLL,0854.979,S,14006.026,W,190539,A,A*51
$IIHDG,157,,,10,E*10
$IIMTW,+26.5,C*39
$IIMWV,341,R,08.2,N,A*1F
$IIMWV,342,T,08.1,N,A*19
$IIRMB,A,0.00,L,,HAKAAU  ,,,,,026.60,173,,V,A*67
$IIRMC,190539,A,0854.979,S,14006.026,W,00.0,008,031110,10,E,A*06
$IIVHW,,,157,M,00.0,N,,*67
$IIVLW,02839,N,000.0,N*53
$IIVWR,018,L,08.3,N,,,,*7D
$IIDPT,012.1,+0.7,*42
$IIGLL,0854.979,S,14006.026,W,190540,A,A*5F
$IIHDG,157,,,10,E*10
$IIMTW,+26.5,C*39
$IIMWV,342,R,08.3,N,A*1D
$IIMWV,341,T,08.2,N,A*19
$IIRMC,190540,A,0854.979,S,14006.026,W,00.0,008,031110,10,E,A*08
$IIVHW,,,157,M,00.0,N,,*67
$IIVLW,02839,N,000.0,N*53
$IIVWR,017,L,08.1,N,,,,*70
$IIDPT,012.1,+0.7,*42
$IIGLL,0854.979,S,14006.026,W,190540,A,A*5F
$IIHDG,157,,,10,E*10
$IIMTW,+26.5,C*39
$IIMWV,343,R,08.1,N,A*1E
$IIMWV,342,T,08.3,N,A*1B
$IIRMB,A,0.00,L,,HAKAAU  ,,,,,026.60,173,,V,A*67
$IIRMC,190542,A,0854.980,S,14006.025,W,00.0,008,031110,10,E,A*0F
$IIVHW,,,157,M,00.0,N,,*67
$IIVLW,02839,N,000.0,N*53
$IIVWR,018,L,08.0,N,,,,*7E
$IIDPT,013.2,+0.7,*40
$IIGLL,0854.980,S,14006.025,W,190542,A,A*58
$IIHDG,157,,,10,E*10
$IIMTW,+26.5,C*39
$IIMWV,342,R,08.0,N,A*1E
$IIMWV,342,T,08.0,N,A*18
$IIRMB,A,0.00,L,,HAKAAU  ,,,,,026.60,173,,V,A*67
$IIRMC,190543,A,0854.980,S,14006.025,W,00.0,008,031110,10,E,A*0E
$IIVHW,,,158,M,00.0,N,,*68
$IIVLW,02839,N,000.0,N*53
$IIVWR,020,L,07.9,N,,,,*73
$IIDPT,012.9,+0.7,*4A
$IIGLL,0854.980,S,14006.025,W,190543,A,A*59
$IIHDG,158,,,10,E*1F
$IIMTW,+26.5,C*39
$IIMWV,340,R,08.3,N,A*1F
$IIMWV,340,T,07.9,N,A*1C
$IIRMC,190544,A,0854.980,S,14006.025,W,00.0,008,031110,10,E,A*09
$IIVHW,,,158,M,00.0,N,,*68
$IIVLW,02839,N,000.0,N*53
$IIVWR,020,L,08.3,N,,,,*76
$IIDPT,012.9,+0.7,*4A
$IIGLL,0854.979,S,14006.026,W,190545,A,A*5A
$IIHDG,157,,,10,E*10
$IIMTW,+26.5,C*39
$IIMWV,341,R,08.4,N,A*19
$IIMWV,340,T,08.3,N,A*19
$IIRMB,A,0.00,L,,HAKAAU  ,,,,,026.60,173,,V,A*67
$IIRMC,190545,A,0854.979,S,14006.026,W,00.0,008,031110,10,E,A*0D
$IIVHW,,,157,M,00.0,N,,*67
$IIVLW,02839,N,000.0,N*53
$IIVWR,020,L,08.8,N,,,,*7D
$IIDPT,048.0,+0.7,*4C
$IIGLL,0854.979,S,14006.026,W,190546,A,A*59
$IIHDG,157,,,10,E*10
$IIMTW,+26.5,C*39
$IIMWV,340,R,08.8,N,A*14
$IIMWV,341,T,08.4,N,A*1F
$IIRMC,190546,A,0854.979,S,14006.026,W,00.0,008,031110,10,E,A*0E
$IIVHW,,,157,M,00.0,N,,*67
$IIVLW,02839,N,000.0,N*53
$IIVWR,022,L,08.8,N,,,,*7F
$IIDPT,054.0,+0.7,*41
$IIGLL,0854.980,S,14006.027,W,190547,A,A*5F
$IIHDG,157,,,10,E*10
$IIMTW,+26.5,C*39
$IIMWV,338,R,08.8,N,A*1B
$IIMWV,340,T,08.8,N,A*12
$IIRMB,A,0.00,L,,HAKAAU  ,,,,,026.60,173,,V,A*67
$IIRMC,190548,A,0854.980,S,14006.027,W,00.0,008,031110,10,E,A*07
$IIVHW,,,157,M,00.0,N,,*67
$IIVLW,02839,N,000.0,N*53
$IIVWR,021,L,09.0,N,,,,*75
$IIDPT,022.9,+0.7,*49
$IIGLL,0854.980,S,14006.027,W,190548,A,A*50
$IIHDG,157,,,10,E*10
$IIMTW,+26.5,C*39
$IIMWV,339,R,09.0,N,A*13
$IIMWV,339,T,09.0,N,A*15
$IIRMB,A,0.00,L,,HAKAAU  ,,,,,026.60,173,,V,A*67
$IIRMC,190549,A,0854.980,S,14006.027,W,00.0,008,031110,10,E,A*06
$IIVHW,,,157,M,00.0,N,,*67
$IIVLW,02839,N,000.0,N*53
$IIVWR,020,L,08.9,N,,,,*7C
$IIDPT,022.9,+0.7,*49
$IIGLL,0854.980,S,14006.027,W,190549,A,A*51
$IIHDG,157,,,10,E*10
$IIMTW,+26.5,C*39
$IIMWV,340,R,08.8,N,A*14
$IIMWV,340,T,08.9,N,A*13
$IIRMC,190550,A,0854.980,S,14006.027,W,00.0,008,031110,10,E,A*0E
$IIVHW,,,157,M,00.0,N,,*67
$IIVLW,02839,N,000.0,N*53
$IIVWR,020,L,08.8,N,,,,*7D
$IIDPT,022.9,+0.7,*49
$IIGLL,0854.982,S,14006.026,W,190551,A,A*5B
$IIHDG,157,,,10,E*10
$IIMTW,+26.5,C*39
$IIMWV,340,R,08.4,N,A*18
$IIMWV,340,T,08.8,N,A*12
$IIRMB,A,0.00,L,,HAKAAU  ,,,,,026.60,173,,V,A*67
$IIRMC,190551,A,0854.982,S,14006.026,W,00.0,008,031110,10,E,A*0C
$IIVHW,,,157,M,00.0,N,,*67
$IIVLW,02839,N,000.0,N*53
$IIVWR,021,L,08.2,N,,,,*76
$IIDPT,012.5,+0.7,*46
$IIGLL,0854.982,S,14006.026,W,190552,A,A*58
$IIHDG,157,,,10,E*10
$IIMTW,+26.5,C*39
$IIMWV,339,R,08.2,N,A*10
$IIMWV,340,T,08.4,N,A*1E
$IIRMC,190552,A,0854.982,S,14006.026,W,00.0,008,031110,10,E,A*0F
$IIVHW,,,157,M,00.0,N,,*67
$IIVLW,02839,N,000.0,N*53
$IIVWR,020,L,08.3,N,,,,*76
$IIDPT,012.5,+0.7,*46
$IIGLL,0854.982,S,14006.026,W,190553,A,A*59
$IIHDG,157,,,10,E*10
$IIMTW,+26.5,C*39
$IIMWV,340,R,08.3,N,A*1F
$IIMWV,339,T,08.2,N,A*16
$IIRMB,A,0.00,L,,HAKAAU  ,,,,,026.60,173,,V,A*67
$IIRMC,190554,A,0854.982,S,14006.026,W,00.0,008,031110,10,E,A*09
$IIVHW,,,156,M,00.0,N,,*66
$IIVLW,02839,N,000.0,N*53
$IIVWR,018,L,08.1,N,,,,*7F
$IIDPT,012.7,+0.7,*44
$IIGLL,0854.982,S,14006.026,W,190554,A,A*5E
$IIHDG,156,,,10,E*11
$IIMTW,+26.5,C*39
$IIMWV,342,R,08.1,N,A*1F
$IIMWV,342,T,08.1,N,A*19
$IIRMB,A,0.00,L,,HAKAAU  ,,,,,026.60,173,,V,A*67
$IIRMC,190555,A,0854.982,S,14006.026,W,00.0,008,031110,10,E,A*08
$IIVHW,,,156,M,00.0,N,,*66
$IIVLW,02839,N,000.0,N*53
$IIVWR,016,L,07.9,N,,,,*76
$IIDPT,012.5,+0.7,*46
$IIGLL,0854.982,S,14006.026,W,190555,A,A*5F
$IIHDG,155,,,10,E*12
$IIMTW,+26.5,C*39
$IIMWV,343,R,08.1,N,A*1E
$IIMWV,344,T,07.9,N,A*18
$IIRMC,190556,A,0854.982,S,14006.026,W,00.0,008,031110,10,E,A*0B
$IIVHW,,,155,M,00.0,N,,*65
$IIVLW,02839,N,000.0,N*53
$IIVWR,017,L,08.1,N,,,,*70
$IIDPT,012.5,+0.7,*46
$IIGLL,0854.982,S,14006.026,W,190557,A,A*5D
$IIHDG,155,,,10,E*12
$IIMTW,+26.5,C*39
$IIMWV,342,R,08.0,N,A*1E
$IIMWV,343,T,08.1,N,A*18
$IIRMB,A,0.00,L,,HAKAAU  ,,,,,026.60,173,,V,A*67
$IIRMC,190557,A,0854.982,S,14006.026,W,00.0,008,031110,10,E,A*0A
$IIVHW,,,155,M,00.0,N,,*65
$IIVLW,02839,N,000.0,N*53
$IIVWR,018,L,07.9,N,,,,*78
$IIDPT,012.7,+0.7,*44
$IIGLL,0854.982,S,14006.026,W,190558,A,A*52
$IIHDG,154,,,10,E*13
$IIMTW,+26.5,C*39
$IIMWV,342,R,07.9,N,A*18
$IIMWV,342,T,08.0,N,A*18
$IIRMC,190558,A,0854.982,S,14006.026,W,00.0,008,031110,10,E,A*05
$IIVHW,,,154,M,00.0,N,,*64
$IIVLW,02839,N,000.0,N*53
$IIVWR,018,L,08.1,N,,,,*7F
$IIDPT,012.7,+0.7,*44
$IIGLL,0854.982,S,14006.026,W,190559,A,A*53
$IIHDG,154,,,10,E*13
$IIMTW,+26.5,C*39
$IIMWV,342,R,08.1,N,A*1F
$IIMWV,342,T,07.9,N,A*1E
$IIRMB,A,0.00,L,,HAKAAU  ,,,,,026.60,173,,V,A*67
$IIRMC,190600,A,0854.982,S,14006.026,W,00.0,008,031110,10,E,A*0B
$IIVHW,,,154,M,00.0,N,,*64
$IIVLW,02839,N,000.0,N*53
$IIVWR,020,L,08.0,N,,,,*75
$IIDPT,012.7,+0.7,*44
$IIGLL,0854.982,S,14006.026,W,190600,A,A*5C
$IIHDG,154,,,10,E*13
$IIMTW,+26.5,C*39
$IIMWV,340,R,08.0,N,A*1C
$IIMWV,340,T,08.0,N,A*1A
$IIRMB,A,0.00,L,,HAKAAU  ,,,,,026.60,173,,V,A*67
$IIRMC,190601,A,0854.982,S,14006.026,W,00.0,008,031110,10,E,A*0A
$IIVHW,,,154,M,00.0,N,,*64
$IIVLW,02839,N,000.0,N*53
$IIVWR,021,L,08.1,N,,,,*75
$IIDPT,012.7,+0.7,*44
$IIGLL,0854.982,S,14006.026,W,190601,A,A*5D
$IIHDG,153,,,10,E*14
$IIMTW,+26.5,C*39
$IIMWV,338,R,08.0,N,A*13
$IIMWV,339,T,08.1,N,A*15
$IIRMC,190602,A,0854.982,S,14006.026,W,00.0,008,031110,10,E,A*09
$IIVHW,,,153,M,00.0,N,,*63
$IIVLW,02839,N,000.0,N*53
$IIVWR,022,L,08.0,N,,,,*77
$IIDPT,012.7,+0.7,*44
$IIGLL,0854.982,S,14006.026,W,190603,A,A*5F
$IIHDG,153,,,10,E*14
$IIMTW,+26.5,C*39
$IIMWV,342,R,08.1,N,A*1F
$IIMWV,338,T,08.0,N,A*15
$IIRMB,A,0.00,L,,HAKAAU  ,,,,,026.60,173,,V,A*67
$IIRMC,190603,A,0854.982,S,14006.026,W,00.0,008,031110,10,E,A*08
$IIVHW,,,153,M,00.0,N,,*63
$IIVLW,02839,N,000.0,N*53
$IIVWR,014,L,08.6,N,,,,*74
$IIDPT,065.9,+0.7,*4A
$IIGLL,0854.983,S,14006.026,W,190604,A,A*59
$IIHDG,152,,,10,E*15
$IIMTW,+26.5,C*39
$IIMWV,346,R,08.6,N,A*1C
$IIMWV,342,T,08.1,N,A*19
$IIRMC,190604,A,0854.983,S,14006.026,W,00.0,008,031110,10,E,A*0E
$IIVHW,,,151,M,00.0,N,,*61
$IIVLW,02839,N,000.0,N*53
$IIVWR,012,L,08.6,N,,,,*72
$IIDPT,047.0,+0.7,*43
$IIGLL,0854.983,S,14006.026,W,190605,A,A*58
$IIHDG,151,,,10,E*16
$IIMTW,+26.5,C*39
$IIMWV,348,R,08.6,N,A*12
$IIMWV,346,T,08.6,N,A*1A
$IIRMB,A,0.00,L,,HAKAAU  ,,,,,026.60,173,,V,A*67
$IIRMC,190606,A,0854.983,S,14006.026,W,00.0,008,031110,10,E,A*0C
$IIVHW,,,151,M,00.0,N,,*61
$IIVLW,02839,N,000.0,N*53
$IIVWR,012,L,08.9,N,,,,*7D
$IIDPT,040.6,+0.7,*42
$IIGLL,0854.983,S,14006.026,W,190606,A,A*5B
$IIHDG,151,,,10,E*16
$IIMTW,+26.5,C*39
$IIMWV,348,R,08.9,N,A*1D
$IIMWV,348,T,08.9,N,A*1B
$IIRMB,A,0.00,L,,HAKAAU  ,,,,,026.60,173,,V,A*67
$IIRMC,190607,A,0854.983,S,14006.026,W,00.0,008,031110,10,E,A*0D
$IIVHW,,,150,M,00.0,N,,*60
$IIVLW,02839,N,000.0,N*53
$IIVWR,012,L,09.0,N,,,,*75
$IIDPT,046.9,+0.7,*4B
$IIGLL,0854.983,S,14006.026,W,190607,A,A*5A
$IIHDG,150,,,10,E*17
$IIMTW,+26.5,C*39
$IIMWV,350,R,08.9,N,A*14
$IIMWV,348,T,09.0,N,A*13
$IIRMC,190607,A,0854.983,S,14006.026,W,00.0,008,031110,10,E,A*0D
$IIVHW,,,150,M,00.0,N,,*60
$IIVLW,02839,N,000.0,N*53
$IIVWR,010,L,08.9,N,,,,*7F
$IIDPT,046.9,+0.7,*4B
$IIGLL,0854.984,S,14006.026,W,190609,A,A*53
$IIHDG,150,,,10,E*17
$IIMTW,+26.5,C*39
$IIMWV,353,R,09.1,N,A*1E
$IIMWV,350,T,08.9,N,A*12
$IIRMB,A,0.00,L,,HAKAAU  ,,,,,026.60,173,,V,A*67
$IIRMC,190609,A,0854.984,S,14006.026,W,00.0,008,031110,10,E,A*04
$IIVHW,,,150,M,00.0,N,,*60
$IIVLW,02839,N,000.0,N*53
$IIVWR,007,L,09.2,N,,,,*73
$IIDPT,013.3,+0.7,*41
$IIGLL,0854.984,S,14006.026,W,190610,A,A*5B
$IIHDG,149,,,10,E*1F
$IIMTW,+26.5,C*39
$IIMWV,353,R,09.2,N,A*1D
$IIMWV,353,T,09.1,N,A*18
$IIRMC,190610,A,0854.984,S,14006.026,W,00.0,008,031110,10,E,A*0C
$IIVHW,,,148,M,00.0,N,,*69
$IIVLW,02839,N,000.0,N*53
$IIVWR,008,L,09.0,N,,,,*7E
$IIDPT,013.0,+0.7,*42
$IIGLL,0854.984,S,14006.026,W,190611,A,A*5A
$IIHDG,148,,,10,E*1E
$IIMTW,+26.5,C*39
$IIMWV,352,R,09.0,N,A*1E
$IIMWV,353,T,09.2,N,A*1B
$IIRMB,A,0.00,L,,HAKAAU  ,,,,,026.60,173,,V,A*67
$IIRMC,190612,A,0854.984,S,14006.027,W,00.0,008,031110,10,E,A*0F
$IIVHW,,,148,M,00.0,N,,*69
$IIVLW,02839,N,000.0,N*53
$IIVWR,009,L,08.6,N,,,,*78
$IIDPT,013.0,+0.7,*42
$IIGLL,0854.984,S,14006.027,W,190612,A,A*58
$IIHDG,148,,,10,E*1E
$IIMTW,+26.5,C*39
$IIMWV,351,R,08.6,N,A*1A
$IIMWV,351,T,08.6,N,A*1C
$IIRMB,A,0.00,L,,HAKAAU  ,,,,,026.60,173,,V,A*67
$IIRMC,190613,A,0854.985,S,14006.027,W,00.0,008,031110,10,E,A*0F
$IIVHW,,,148,M,00.0,N,,*69
$IIVLW,02839,N,000.0,N*53
$IIVWR,009,L,08.6,N,,,,*78
$IIDPT,012.9,+0.7,*4A
$IIGLL,0854.985,S,14006.027,W,190613,A,A*58
$IIHDG,147,,,10,E*11
$IIMTW,+26.5,C*39
$IIMWV,354,R,08.3,N,A*1A
$IIMWV,351,T,08.6,N,A*1C
$IIRMC,190614,A,0854.984,S,14006.027,W,00.0,008,031110,10,E,A*09
$IIVHW,,,147,M,00.0,N,,*66
$IIVLW,02839,N,000.0,N*53
$IIVWR,006,L,08.3,N,,,,*72
$IIDPT,012.8,+0.7,*4B
$IIGLL,0854.984,S,14006.026,W,190615,A,A*5E
$IIHDG,147,,,10,E*11
$IIMTW,+26.5,C*39
$IIMWV,356,R,08.6,N,A*1D
$IIMWV,354,T,08.3,N,A*1C
$IIRMB,A,0.00,L,,HAKAAU  ,,,,,026.60,173,,V,A*67
$IIRMC,190615,A,0854.984,S,14006.026,W,00.0,008,031110,10,E,A*09
$IIVHW,,,147,M,00.0,N,,*66
$IIVLW,02839,N,000.0,N*53
$IIVWR,004,L,08.4,N,,,,*77
$IIDPT,012.8,+0.7,*4B
$IIGLL,0854.984,S,14006.025,W,190616,A,A*5E
$IIHDG,146,,,10,E*10
$IIMTW,+26.5,C*39
$IIMWV,356,R,08.4,N,A*1F
$IIMWV,356,T,08.6,N,A*1B
$IIRMC,190616,A,0854.984,S,14006.025,W,00.0,008,031110,10,E,A*09
$IIVHW,,,146,M,00.0,N,,*67
$IIVLW,02839,N,000.0,N*53
$IIVWR,003,L,08.1,N,,,,*75
$IIDPT,012.8,+0.7,*4B
$IIGLL,0854.984,S,14006.025,W,190617,A,A*5F
$IIHDG,146,,,10,E*10
$IIMTW,+26.5,C*39
$IIMWV,357,R,08.1,N,A*1B
$IIMWV,356,T,08.4,N,A*19
$IIRMB,A,0.00,L,,HAKAAU  ,,,,,026.60,173,,V,A*67
$IIRMC,190618,A,0854.984,S,14006.025,W,00.0,008,031110,10,E,A*07
$IIVHW,,,145,M,00.0,N,,*64
$IIVLW,02839,N,000.0,N*53
$IIVWR,000,R,08.2,N,,,,*6B
$IIDPT,012.8,+0.7,*4B
$IIGLL,0854.984,S,14006.025,W,190618,A,A*50
$IIHDG,145,,,10,E*13
$IIMTW,+26.5,C*39
$IIMWV,000,R,08.2,N,A*19
$IIMWV,000,T,08.2,N,A*1F
$IIRMB,A,0.00,L,,HAKAAU  ,,,,,026.60,173,,V,A*67
$IIRMC,190619,A,0854.984,S,14006.025,W,00.0,008,031110,10,E,A*06
$IIVHW,,,144,M,00.0,N,,*65
$IIVLW,02839,N,000.0,N*53
$IIVWR,003,R,08.0,N,,,,*6A
$IIDPT,012.8,+0.7,*4B
$IIGLL,0854.984,S,14006.025,W,190619,A,A*51
$IIHDG,144,,,10,E*12
$IIMTW,+26.5,C*39
$IIMWV,005,R,07.9,N,A*18
$IIMWV,003,T,08.0,N,A*1E
$IIRMC,190620,A,0854.984,S,14006.026,W,00.0,008,031110,10,E,A*0F
$IIVHW,,,144,M,00.0,N,,*65
$IIVLW,02839,N,000.0,N*53
$IIVWR,005,R,07.9,N,,,,*6A
$IIDPT,012.8,+0.7,*4B
$IIGLL,0854.985,S,14006.025,W,190621,A,A*5B
$IIHDG,144,,,10,E*12
$IIMTW,+26.5,C*39
$IIMWV,003,R,07.9,N,A*1E
$IIMWV,005,T,07.9,N,A*1E
$IIRMB,A,0.00,L,,HAKAAU  ,,,,,026.60,173,,V,A*67
$IIRMC,190621,A,0854.985,S,14006.025,W,00.0,008,031110,10,E,A*0C
$IIVHW,,,144,M,00.0,N,,*65
$IIVLW,02839,N,000.0,N*53
$IIVWR,002,R,08.0,N,,,,*6B
$IIDPT,013.1,+0.7,*43
$IIGLL,0854.985,S,14006.025,W,190622,A,A*58
$IIHDG,143,,,10,E*15
$IIMTW,+26.5,C*39
$IIMWV,002,R,08.0,N,A*19
$IIMWV,003,T,07.9,N,A*18
$IIRMC,190622,A,0854.985,S,14006.025,W,00.0,008,031110,10,E,A*0F
$IIVHW,,,143,M,00.0,N,,*62
$IIVLW,02839,N,000.0,N*53
$IIVWR,004,R,07.9,N,,,,*6B
$IIDPT,070.1,+0.7,*46
$IIGLL,0854.986,S,14006.026,W,190623,A,A*59
$IIHDG,143,,,10,E*15
$IIMTW,+26.5,C*39
$IIMWV,004,R,07.9,N,A*19
$IIMWV,002,T,08.0,N,A*1F
$IIRMB,A,0.00,L,,HAKAAU  ,,,,,026.60,173,,V,A*67
$IIRMC,190624,A,0854.986,S,14006.026,W,00.0,008,031110,10,E,A*09
$IIVHW,,,142,M,00.0,N,,*63
$IIVLW,02839,N,000.0,N*53
$IIVWR,005,R,07.8,N,,,,*6B
$IIDPT,070.1,+0.7,*46
$IIGLL,0854.986,S,14006.026,W,190624,A,A*5E
$IIHDG,142,,,10,E*14
$IIMTW,+26.5,C*39
$IIMWV,005,R,07.8,N,A*19
$IIMWV,005,T,07.8,N,A*1F
$IIRMB,A,0.00,L,,HAKAAU  ,,,,,026.60,173,,V,A*67
$IIRMC,190625,A,0854.986,S,14006.026,W,00.0,008,031110,10,E,A*08
$IIVHW,,,142,M,00.0,N,,*63
$IIVLW,02839,N,000.0,N*53
$IIVWR,003,R,08.0,N,,,,*6A
$IIDPT,057.6,+0.7,*44
$IIGLL,0854.986,S,14006.026,W,190625,A,A*5F
$IIHDG,142,,,10,E*14
$IIMTW,+26.5,C*39
$IIMWV,002,R,07.9,N,A*1F
$IIMWV,003,T,08.0,N,A*1E
$IIRMC,190626,A,0854.986,S,14006.026,W,00.0,008,031110,10,E,A*0B
$IIVHW,,,142,M,00.0,N,,*63
$IIVLW,02839,N,000.0,N*53
$IIVWR,002,R,07.9,N,,,,*6D
$IIDPT,057.6,+0.7,*44
$IIGLL,0854.986,S,14006.026,W,190627,A,A*5D
$IIHDG,141,,,10,E*17
$IIMTW,+26.5,C*39
$IIMWV,002,R,07.6,N,A*10
$IIMWV,002,T,07.9,N,A*19
$IIRMB,A,0.00,L,,HAKAAU  ,,,,,026.60,173,,V,A*67
$IIRMC,190627,A,0854.986,S,14006.026,W,00.0,008,031110,10,E,A*0A
$IIVHW,,,141,M,00.0,N,,*60
$IIVLW,02839,N,000.0,N*53
$IIVWR,005,R,07.6,N,,,,*65
$IIDPT,032.0,+0.7,*41
$IIGLL,0854.986,S,14006.025,W,190628,A,A*51
$IIHDG,141,,,10,E*17
$IIMTW,+26.5,C*39
$IIMWV,005,R,07.6,N,A*17
$IIMWV,002,T,07.6,N,A*16
$IIRMC,190628,A,0854.986,S,14006.025,W,00.0,008,031110,10,E,A*06
$IIVHW,,,140,M,00.0,N,,*61
$IIVLW,02839,N,000.0,N*53
$IIVWR,006,R,07.6,N,,,,*66
$IIDPT,032.0,+0.7,*41
$IIGLL,0854.986,S,14006.025,W,190629,A,A*50
$IIHDG,140,,,10,E*16
$IIMTW,+26.5,C*39
$IIMWV,006,R,07.6,N,A*14
$IIMWV,005,T,07.6,N,A*11
$IIRMB,A,0.00,L,,HAKAAU  ,,,,,026.60,173,,V,A*67
$IIRMC,190630,A,0854.986,S,14006.025,W,00.0,008,031110,10,E,A*0F
$IIVHW,,,140,M,00.0,N,,*61
$IIVLW,02839,N,000.0,N*53
$IIVWR,005,R,07.1,N,,,,*62
$IIDPT,032.0,+0.7,*41
$IIGLL,0854.986,S,14006.025,W,190630,A,A*58
$IIHDG,140,,,10,E*16
$IIMTW,+26.5,C*39
$IIMWV,005,R,07.1,N,A*10
$IIMWV,005,T,07.1,N,A*16
$IIRMB,A,0.00,L,,HAKAAU  ,,,,,026.60,173,,V,A*67
$IIRMC,190631,A,0854.987,S,14006.025,W,00.0,008,031110,10,E,A*0F
$IIVHW,,,140,M,00.0,N,,*61
$IIVLW,02839,N,000.0,N*53
$IIVWR,002,R,06.9,N,,,,*6C
$IIDPT,012.8,+0.7,*4B
$IIGLL,0854.987,S,14006.025,W,190631,A,A*58
$IIHDG,139,,,10,E*18
$IIMTW,+26.5,C*39
$IIMWV,003,R,07.0,N,A*17
$IIMWV,002,T,06.9,N,A*18
$IIRMC,190632,A,0854.987,S,14006.025,W,00.0,008,031110,10,E,A*0C
$IIVHW,,,139,M,00.0,N,,*6F
$IIVLW,02839,N,000.0,N*53
$IIVWR,003,R,07.0,N,,,,*65
$IIDPT,012.8,+0.7,*4B
$IIGLL,0854.987,S,14006.026,W,190633,A,A*59
$IIHDG,139,,,10,E*18
$IIMTW,+26.5,C*39
$IIMWV,004,R,06.9,N,A*18
$IIMWV,003,T,07.0,N,A*11
$IIRMB,A,0.00,L,,HAKAAU  ,,,,,026.60,173,,V,A*67
$IIRMC,190633,A,0854.987,S,14006.026,W,00.0,008,031110,10,E,A*0E
$IIVHW,,,139,M,00.0,N,,*6F
$IIVLW,02839,N,000.0,N*53
$IIVWR,006,R,06.8,N,,,,*69
$IIDPT,012.8,+0.7,*4B
$IIGLL,0854.987,S,14006.026,W,190634,A,A*5E
$IIHDG,139,,,10,E*18
$IIMTW,+26.5,C*39
$IIMWV,006,R,06.8,N,A*1B
$IIMWV,004,T,06.9,N,A*1E
$IIRMC,190634,A,0854.987,S,14006.026,W,00.0,008,031110,10,E,A*09
$IIVHW,,,138,M,00.0,N,,*6E
$IIVLW,02839,N,000.0,N*53
$IIVWR,005,R,06.8,N,,,,*6A
$IIDPT,012.8,+0.7,*4B
$IIGLL,0854.986,S,14006.026,W,190635,A,A*5E
$IIHDG,138,,,10,E*19
$IIMTW,+26.5,C*39
$IIMWV,005,R,06.8,N,A*18
$IIMWV,006,T,06.8,N,A*1D
$IIRMB,A,0.00,L,,HAKAAU  ,,,,,026.60,173,,V,A*67
$IIRMC,190636,A,0854.986,S,14006.026,W,00.0,008,031110,10,E,A*0A
$IIVHW,,,138,M,00.0,N,,*6E
$IIVLW,02839,N,000.0,N*53
$IIVWR,005,R,06.5,N,,,,*67
$IIDPT,012.8,+0.7,*4B
$IIGLL,0854.986,S,14006.026,W,190636,A,A*5D
$IIHDG,138,,,10,E*19
$IIMTW,+26.5,C*39
$IIMWV,005,R,06.5,N,A*15
$IIMWV,005,T,06.5,N,A*13
$IIRMB,A,0.00,L,,HAKAAU  ,,,,,026.60,173,,V,A*67
$IIRMC,190637,A,0854.985,S,14006.025,W,00.0,008,031110,10,E,A*0B
$IIVHW,,,138,M,00.0,N,,*6E
$IIVLW,02839,N,000.0,N*53
$IIVWR,006,R,06.7,N,,,,*66
$IIDPT,012.8,+0.7,*4B
$IIGLL,0854.985,S,14006.025,W,190637,A,A*5C
$IIHDG,138,,,10,E*19
$IIMTW,+26.5,C*39
$IIMWV,009,R,06.4,N,A*18
$IIMWV,006,T,06.7,N,A*12
$IIRMC,190638,A,0854.986,S,14006.025,W,00.0,008,031110,10,E,A*07
$IIVHW,,,138,M,00.0,N,,*6E
$IIVLW,02839,N,000.0,N*53
$IIVWR,009,R,06.4,N,,,,*6A
$IIDPT,012.8,+0.7,*4B
$IIGLL,0854.986,S,14006.025,W,190639,A,A*51
$IIHDG,137,,,10,E*16
$IIMTW,+26.5,C*39
$IIMWV,010,R,06.4,N,A*10
$IIMWV,009,T,06.4,N,A*1E
$IIRMB,A,0.00,L,,HAKAAU  ,,,,,026.60,173,,V,A*67
$IIRMC,190639,A,0854.986,S,14006.025,W,00.0,008,031110,10,E,A*06
$IIVHW,,,137,M,00.0,N,,*61
$IIVLW,02839,N,000.0,N*53
$IIVWR,007,R,06.6,N,,,,*66
$IIDPT,012.8,+0.7,*4B
$IIGLL,0854.986,S,14006.026,W,190640,A,A*5C
$IIHDG,137,,,10,E*16
$IIMTW,+26.5,C*39
$IIMWV,007,R,06.6,N,A*14
$IIMWV,010,T,06.4,N,A*16
$IIRMC,190640,A,0854.986,S,14006.026,W,00.0,008,031110,10,E,A*0B
$IIVHW,,,137,M,00.0,N,,*61
$IIVLW,02839,N,000.0,N*53
$IIVWR,008,R,06.8,N,,,,*67
$IIDPT,073.4,+0.7,*40
$IIGLL,0854.986,S,14006.026,W,190641,A,A*5D
$IIHDG,137,,,10,E*16
$IIMTW,+26.5,C*39
$IIMWV,008,R,06.8,N,A*15
$IIMWV,007,T,06.6,N,A*12
$IIRMB,A,0.00,L,,HAKAAU  ,,,,,026.60,173,,V,A*67
$IIRMC,190642,A,0854.986,S,14006.026,W,00.0,008,031110,10,E,A*09
$IIVHW,,,137,M,00.0,N,,*61
$IIVLW,02839,N,000.0,N*53
$IIVWR,010,R,06.7,N,,,,*61
$IIDPT,013.0,+0.7,*42
$IIGLL,0854.986,S,14006.026,W,190642,A,A*5E
$IIHDG,137,,,10,E*16
$IIMTW,+26.5,C*39
$IIMWV,010,R,06.7,N,A*13
$IIMWV,010,T,06.7,N,A*15
$IIRMB,A,0.00,L,,HAKAAU  ,,,,,026.60,173,,V,A*67
$IIRMC,190643,A,0854.987,S,14006.025,W,00.0,008,031110,10,E,A*0A
$IIVHW,,,136,M,00.0,N,,*60
$IIVLW,02839,N,000.0,N*53
$IIVWR,013,R,07.0,N,,,,*64
$IIDPT,073.4,+0.7,*40
$IIGLL,0854.987,S,14006.025,W,190643,A,A*5D
$IIHDG,136,,,10,E*17
$IIMTW,+26.5,C*39
$IIMWV,011,R,07.2,N,A*16
$IIMWV,013,T,07.0,N,A*10
$IIRMC,190644,A,0854.987,S,14006.025,W,00.0,008,031110,10,E,A*0D
$IIVHW,,,136,M,00.0,N,,*60
$IIVLW,02839,N,000.0,N*53
$IIVWR,011,R,07.2,N,,,,*64
$IIDPT,073.4,+0.7,*40
$IIGLL,0854.988,S,14006.024,W,190645,A,A*55
$IIHDG,136,,,10,E*17
$IIMTW,+26.5,C*39
$IIMWV,008,R,07.3,N,A*1F
$IIMWV,011,T,07.2,N,A*10
$IIRMB,A,0.00,L,,HAKAAU  ,,,,,026.60,173,,V,A*67
$IIRMC,190645,A,0854.988,S,14006.024,W,00.0,008,031110,10,E,A*02
$IIVHW,,,136,M,00.0,N,,*60
$IIVLW,02839,N,000.0,N*53
$IIVWR,009,R,07.7,N,,,,*68
$IIDPT,048.0,+0.7,*4C
$IIGLL,0854.988,S,14006.024,W,190646,A,A*56
$IIHDG,136,,,10,E*17
$IIMTW,+26.5,C*39
$IIMWV,009,R,07.7,N,A*1A
$IIMWV,008,T,07.3,N,A*19
$IIRMC,190646,A,0854.988,S,14006.024,W,00.0,008,031110,10,E,A*01
$IIVHW,,,136,M,00.0,N,,*60
$IIVLW,02839,N,000.0,N*53
$IIVWR,009,R,07.7,N,,,,*68
$IIDPT,048.0,+0.7,*4C
$IIGLL,0854.988,S,14006.024,W,190647,A,A*57
$IIHDG,136,,,10,E*17
$IIMTW,+26.5,C*39
$IIMWV,009,R,07.7,N,A*1A
$IIMWV,009,T,07.7,N,A*1C
$IIRMB,A,0.00,L,,HAKAAU  ,,,,,026.60,173,,V,A*67
$IIRMC,190648,A,0854.987,S,14006.024,W,00.0,008,031110,10,E,A*00
$IIVHW,,,135,M,00.0,N,,*63
$IIVLW,02839,N,000.0,N*53
$IIVWR,008,R,07.9,N,,,,*67
$IIDPT,048.0,+0.7,*4C
$IIGLL,0854.987,S,14006.024,W,190648,A,A*57
$IIHDG,135,,,10,E*14
$IIMTW,+26.5,C*39
$IIMWV,008,R,07.9,N,A*15
$IIMWV,008,T,07.9,N,A*13
$IIRMB,A,0.00,L,,HAKAAU  ,,,,,026.60,173,,V,A*67
$IIRMC,190649,A,0854.987,S,14006.024,W,00.0,008,031110,10,E,A*01
$IIVHW,,,136,M,00.0,N,,*60
$IIVLW,02839,N,000.0,N*53
$IIVWR,006,R,08.1,N,,,,*6E
$IIDPT,013.2,+0.7,*40
$IIGLL,0854.987,S,14006.024,W,190649,A,A*56
$IIHDG,136,,,10,E*17
$IIMTW,+26.5,C*39
$IIMWV,006,R,08.0,N,A*1D
$IIMWV,006,T,08.1,N,A*1A
$IIRMC,190650,A,0854.988,S,14006.024,W,00.0,008,031110,10,E,A*06
$IIVHW,,,136,M,00.0,N,,*60
$IIVLW,02839,N,000.0,N*53
$IIVWR,006,R,08.0,N,,,,*6F
$IIDPT,013.2,+0.7,*40
$IIGLL,0854.987,S,14006.025,W,190651,A,A*5E
$IIHDG,136,,,10,E*17
$IIMTW,+26.5,C*39
$IIMWV,007,R,07.6,N,A*15
$IIMWV,006,T,08.0,N,A*1B
$IIRMB,A,0.00,L,,HAKAAU  ,,,,,026.60,173,,V,A*67
$IIRMC,190651,A,0854.987,S,14006.025,W,00.0,008,031110,10,E,A*09
$IIVHW,,,136,M,00.0,N,,*60
$IIVLW,02839,N,000.0,N*53
$IIVWR,007,R,07.5,N,,,,*64
$IIDPT,013.4,+0.7,*46
$IIGLL,0854.986,S,14006.025,W,190652,A,A*5C
$IIHDG,136,,,10,E*17
$IIMTW,+26.5,C*39
$IIMWV,007,R,07.5,N,A*16
$IIMWV,007,T,07.6,N,A*13
$IIRMC,190652,A,0854.986,S,14006.025,W,00.0,008,031110,10,E,A*0B
$IIVHW,,,136,M,00.0,N,,*60
$IIVLW,02839,N,000.0,N*53
$IIVWR,006,R,07.6,N,,,,*66
$IIDPT,013.3,+0.7,*41
$IIGLL,0854.987,S,14006.025,W,190653,A,A*5C
$IIHDG,136,,,10,E*17
$IIMTW,+26.5,C*39
$IIMWV,006,R,07.6,N,A*14
$IIMWV,007,T,07.5,N,A*10
$IIRMB,A,0.00,L,,HAKAAU  ,,,,,026.60,173,,V,A*67
$IIRMC,190654,A,0854.987,S,14006.025,W,00.0,008,031110,10,E,A*0C
$IIVHW,,,136,M,00.0,N,,*60
$IIVLW,02839,N,000.0,N*53
$IIVWR,005,R,07.4,N,,,,*67
$IIDPT,013.3,+0.7,*41
$IIGLL,0854.987,S,14006.025,W,190654,A,A*5B
$IIHDG,136,,,10,E*17
$IIMTW,+26.5,C*39
$IIMWV,005,R,07.4,N,A*15
$IIMWV,005,T,07.4,N,A*13
$IIRMB,A,0.00,L,,HAKAAU  ,,,,,026.60,173,,V,A*67
$IIRMC,190655,A,0854.987,S,14006.025,W,00.0,008,031110,10,E,A*0D
$IIVHW,,,136,M,00.0,N,,*60
$IIVLW,02839,N,000.0,N*53
$IIVWR,003,R,07.4,N,,,,*61
$IIDPT,013.2,+0.7,*40
$IIGLL,0854.987,S,14006.025,W,190655,A,A*5A
$IIHDG,136,,,10,E*17
$IIMTW,+26.5,C*39
$IIMWV,002,R,07.2,N,A*14
$IIMWV,003,T,07.4,N,A*15
$IIRMC,190656,A,0854.988,S,14006.024,W,00.0,008,031110,10,E,A*00
$IIVHW,,,136,M,00.0,N,,*60
$IIVLW,02839,N,000.0,N*53
$IIVWR,002,R,07.2,N,,,,*66
$IIDPT,013.2,+0.7,*40
$IIGLL,0854.988,S,14006.024,W,190657,A,A*56
$IIHDG,136,,,10,E*17
$IIMTW,+26.5,C*39
$IIMWV,003,R,07.6,N,A*11
$IIMWV,002,T,07.2,N,A*12
$IIRMB,A,0.00,L,,HAKAAU  ,,,,,026.60,173,,V,A*67
$IIRMC,190657,A,0854.988,S,14006.024,W,00.0,008,031110,10,E,A*01
$IIVHW,,,136,M,00.0,N,,*60
$IIVLW,02839,N,000.0,N*53
$IIVWR,003,R,07.6,N,,,,*63
$IIDPT,013.2,+0.7,*40
$IIGLL,0854.988,S,14006.024,W,190658,A,A*59
$IIHDG,136,,,10,E*17
$IIMTW,+26.5,C*39
$IIMWV,003,R,07.6,N,A*11
$IIMWV,003,T,07.6,N,A*17
$IIRMC,190658,A,0854.988,S,14006.024,W,00.0,008,031110,10,E,A*0E
$IIVHW,,,137,M,00.0,N,,*61
$IIVLW,02839,N,000.0,N*53
$IIVWR,001,L,07.6,N,,,,*7F
$IIDPT,013.2,+0.7,*40
$IIGLL,0854.988,S,14006.024,W,190659,A,A*58
$IIHDG,137,,,10,E*16
$IIMTW,+26.5,C*39
$IIMWV,359,R,07.6,N,A*1D
$IIMWV,003,T,07.6,N,A*17
$IIRMB,A,0.00,L,,HAKAAU  ,,,,,026.60,173,,V,A*67
$IIRMC,190700,A,0854.988,S,14006.024,W,00.0,008,031110,10,E,A*02
$IIVHW,,,137,M,00.0,N,,*61
$IIVLW,02839,N,000.0,N*53
$IIVWR,007,L,07.6,N,,,,*79
$IIDPT,013.2,+0.7,*40
$IIGLL,0854.988,S,14006.024,W,190700,A,A*55
$IIHDG,137,,,10,E*16
$IIMTW,+26.5,C*39
$IIMWV,353,R,07.6,N,A*17
$IIMWV,353,T,07.6,N,A*11
$IIRMB,A,0.00,L,,HAKAAU  ,,,,,026.60,173,,V,A*67
$IIRMC,190701,A,0854.987,S,14006.025,W,00.0,008,031110,10,E,A*0D
$IIVHW,,,137,M,00.0,N,,*61
$IIVLW,02839,N,000.0,N*53
$IIVWR,008,L,07.6,N,,,,*76
$IIDPT,013.2,+0.7,*40
$IIGLL,0854.987,S,14006.025,W,190701,A,A*5A
$IIHDG,138,,,10,E*19
$IIMTW,+26.5,C*39
$IIMWV,356,R,07.6,N,A*12
$IIMWV,352,T,07.6,N,A*10
$IIRMC,190702,A,0854.987,S,14006.025,W,00.0,008,031110,10,E,A*0E
$IIVHW,,,138,M,00.0,N,,*6E
$IIVLW,02839,N,000.0,N*53
$IIVWR,004,L,07.6,N,,,,*7A
$IIDPT,051.2,+0.7,*46
$IIGLL,0854.987,S,14006.025,W,190703,A,A*58
$IIHDG,138,,,10,E*19
$IIMTW,+26.5,C*39
$IIMWV,000,R,07.5,N,A*11
$IIMWV,356,T,07.6,N,A*14
$IIRMB,A,0.00,L,,HAKAAU  ,,,,,026.60,173,,V,A*67
$IIRMC,190703,A,0854.987,S,14006.025,W,00.0,008,031110,10,E,A*0F
$IIVHW,,,138,M,00.0,N,,*6E
$IIVLW,02839,N,000.0,N*53
$IIVWR,005,L,07.3,N,,,,*7E
$IIDPT,051.2,+0.7,*46
$IIGLL,0854.987,S,14006.025,W,190704,A,A*5F
$IIHDG,138,,,10,E*19
$IIMTW,+26.5,C*39
$IIMWV,355,R,07.3,N,A*14
$IIMWV,000,T,07.5,N,A*17
$IIRMC,190704,A,0854.987,S,14006.025,W,00.0,008,031110,10,E,A*08
$IIVHW,,,139,M,00.0,N,,*6F
$IIVLW,02839,N,000.0,N*53
$IIVWR,008,L,07.4,N,,,,*74
$IIDPT,051.2,+0.7,*46
$IIGLL,0854.987,S,14006.025,W,190705,A,A*5E
$IIHDG,139,,,10,E*18
$IIMTW,+26.5,C*39
$IIMWV,352,R,07.4,N,A*14
$IIMWV,355,T,07.3,N,A*12
$IIRMB,A,0.00,L,,HAKAAU  ,,,,,026.60,173,,V,A*67
$IIRMC,190706,A,0854.988,S,14006.024,W,00.0,008,031110,10,E,A*04
$IIVHW,,,140,M,00.0,N,,*61
$IIVLW,02839,N,000.0,N*53
$IIVWR,005,L,07.2,N,,,,*7F
$IIDPT,051.2,+0.7,*46
$IIGLL,0854.988,S,14006.024,W,190706,A,A*53
$IIHDG,140,,,10,E*16
$IIMTW,+26.5,C*39
$IIMWV,355,R,07.2,N,A*15
$IIMWV,355,T,07.2,N,A*13
$IIRMB,A,0.00,L,,HAKAAU  ,,,,,026.50,173,,V,A*64
$IIRMC,190707,A,0854.989,S,14006.024,W,00.0,008,031110,10,E,A*04
$IIVHW,,,140,M,00.0,N,,*61
$IIVLW,02839,N,000.0,N*53
$IIVWR,001,L,07.0,N,,,,*79
$IIDPT,013.2,+0.7,*40
$IIGLL,0854.989,S,14006.024,W,190707,A,A*53
$IIHDG,141,,,10,E*17
$IIMTW,+26.5,C*39
$IIMWV,357,R,07.1,N,A*14
$IIMWV,359,T,07.0,N,A*1D
$IIRMC,190708,A,0854.989,S,14006.024,W,00.0,008,031110,10,E,A*0B
$IIVHW,,,141,M,00.0,N,,*60
$IIVLW,02839,N,000.0,N*53
$IIVWR,003,L,07.1,N,,,,*7A
$IIDPT,013.2,+0.7,*40
$IIGLL,0854.990,S,14006.024,W,190709,A,A*55
$IIHDG,141,,,10,E*17
$IIMTW,+26.5,C*39
$IIMWV,352,R,07.0,N,A*10
$IIMWV,357,T,07.1,N,A*12
$IIRMB,A,0.00,L,,HAKAAU  ,,,,,026.50,173,,V,A*64
$IIRMC,190709,A,0854.990,S,14006.024,W,00.0,008,031110,10,E,A*02
$IIVHW,,,141,M,00.0,N,,*60
$IIVLW,02839,N,000.0,N*53
$IIVWR,008,L,07.1,N,,,,*71
$IIDPT,013.2,+0.7,*40
$IIGLL,0854.990,S,14006.024,W,190710,A,A*5D
$IIHDG,142,,,10,E*14
$IIMTW,+26.5,C*39
$IIMWV,352,R,07.1,N,A*11
$IIMWV,352,T,07.0,N,A*16
$IIRMC,190710,A,0854.990,S,14006.024,W,00.0,008,031110,10,E,A*0A
$IIVHW,,,142,M,00.0,N,,*63
$IIVLW,02839,N,000.0,N*53
$IIVWR,002,L,07.0,N,,,,*7A
$IIDPT,013.2,+0.7,*40
$IIGLL,0854.991,S,14006.024,W,190711,A,A*5D
$IIHDG,142,,,10,E*14
$IIMTW,+26.5,C*39
$IIMWV,358,R,07.0,N,A*1A
$IIMWV,352,T,07.1,N,A*17
$IIRMB,A,0.00,L,,HAKAAU  ,,,,,026.50,173,,V,A*64
$IIRMC,190712,A,0854.991,S,14006.024,W,00.0,008,031110,10,E,A*09
$IIVHW,,,143,M,00.0,N,,*62
$IIVLW,02839,N,000.0,N*53
$IIVWR,000,R,06.9,N,,,,*6E
$IIDPT,013.2,+0.7,*40
$IIGLL,0854.991,S,14006.024,W,190712,A,A*5E
$IIHDG,143,,,10,E*15
$IIMTW,+26.5,C*39
$IIMWV,000,R,06.9,N,A*1C
$IIMWV,000,T,06.9,N,A*1A
$IIRMB,A,0.00,L,,HAKAAU  ,,,,,026.50,173,,V,A*64
$IIRMC,190713,A,0854.991,S,14006.024,W,00.0,008,031110,10,E,A*08
$IIVHW,,,143,M,00.0,N,,*62
$IIVLW,02839,N,000.0,N*53
$IIVWR,004,L,07.0,N,,,,*7C
$IIDPT,013.2,+0.7,*40
$IIGLL,0854.991,S,14006.024,W,190713,A,A*5F
$IIHDG,144,,,10,E*12
$IIMTW,+26.5,C*39
$IIMWV,353,R,06.9,N,A*19
$IIMWV,356,T,07.0,N,A*12
$IIRMC,190714,A,0854.991,S,14006.024,W,00.0,008,031110,10,E,A*0F
$IIVHW,,,144,M,00.0,N,,*65
$IIVLW,02839,N,000.0,N*53
$IIVWR,007,L,06.9,N,,,,*77
$IIDPT,013.2,+0.7,*40
$IIGLL,0854.992,S,14006.024,W,190715,A,A*5A
$IIHDG,145,,,10,E*13
$IIMTW,+26.5,C*39
$IIMWV,354,R,06.8,N,A*1F
$IIMWV,353,T,06.9,N,A*1F
$IIRMB,A,0.00,L,,HAKAAU  ,,,,,026.50,173,,V,A*64
$IIRMC,190715,A,0854.992,S,14006.024,W,00.0,008,031110,10,E,A*0D
$IIVHW,,,145,M,00.0,N,,*64
$IIVLW,02839,N,000.0,N*53
$IIVWR,004,L,06.8,N,,,,*75
$IIDPT,013.2,+0.7,*40
$IIGLL,0854.992,S,14006.024,W,190716,A,A*59
$IIHDG,145,,,10,E*13
$IIMTW,+26.5,C*39
$IIMWV,356,R,06.8,N,A*1D
$IIMWV,354,T,06.8,N,A*19
$IIRMC,190716,A,0854.992,S,14006.024,W,00.0,008,031110,10,E,A*0E
$IIVHW,,,146,M,00.0,N,,*67
$IIVLW,02839,N,000.0,N*53
$IIVWR,003,L,07.0,N,,,,*7B
$IIDPT,013.2,+0.7,*40
$IIGLL,0854.992,S,14006.025,W,190717,A,A*59
$IIHDG,146,,,10,E*10
$IIMTW,+26.5,C*39
$IIMWV,357,R,07.0,N,A*15
$IIMWV,356,T,06.8,N,A*1B
$IIRMB,A,0.00,L,,HAKAAU  ,,,,,026.50,173,,V,A*64
$IIRMC,190718,A,0854.992,S,14006.025,W,00.0,008,031110,10,E,A*01
$IIVHW,,,147,M,00.0,N,,*66
$IIVLW,02839,N,000.0,N*53
$IIVWR,008,L,07.1,N,,,,*71
$IIDPT,013.2,+0.7,*40
$IIGLL,0854.992,S,14006.025,W,190718,A,A*56
$IIHDG,147,,,10,E*11
$IIMTW,+26.5,C*39
$IIMWV,352,R,07.1,N,A*11
$IIMWV,352,T,07.1,N,A*17
$IIRMB,A,0.00,L,,HAKAAU  ,,,,,026.50,173,,V,A*64
$IIRMC,190719,A,0854.992,S,14006.025,W,00.0,008,031110,10,E,A*00
$IIVHW,,,147,M,00.0,N,,*66
$IIVLW,02839,N,000.0,N*53
$IIVWR,010,L,07.0,N,,,,*79
$IIDPT,013.2,+0.7,*40
$IIGLL,0854.992,S,14006.025,W,190719,A,A*57
$IIHDG,147,,,10,E*11
$IIMTW,+26.5,C*39
$IIMWV,353,R,07.2,N,A*13
$IIMWV,350,T,07.0,N,A*14
$IIRMC,190720,A,0854.992,S,14006.025,W,00.0,008,031110,10,E,A*0A
$IIVHW,,,147,M,00.0,N,,*66
$IIVLW,02839,N,000.0,N*53
$IIVWR,007,L,07.2,N,,,,*7D
$IIDPT,067.3,+0.7,*42
$IIGLL,0854.992,S,14006.024,W,190721,A,A*5D
$IIHDG,147,,,10,E*11
$IIMTW,+26.5,C*39
$IIMWV,357,R,07.0,N,A*15
$IIMWV,353,T,07.2,N,A*15
$IIRMB,A,0.00,L,,HAKAAU  ,,,,,026.50,173,,V,A*64
$IIRMC,190721,A,0854.992,S,14006.024,W,00.0,008,031110,10,E,A*0A
$IIVHW,,,147,M,00.0,N,,*66
$IIVLW,02839,N,000.0,N*53
$IIVWR,006,L,06.7,N,,,,*78
$IIDPT,013.3,+0.7,*41
$IIGLL,0854.992,S,14006.023,W,190722,A,A*59
$IIHDG,148,,,10,E*1E
$IIMTW,+26.5,C*39
$IIMWV,354,R,06.7,N,A*10
$IIMWV,357,T,07.0,N,A*13
$IIRMC,190722,A,0854.992,S,14006.023,W,00.0,008,031110,10,E,A*0E
$IIVHW,,,148,M,00.0,N,,*69
$IIVLW,02839,N,000.0,N*53
$IIVWR,011,L,06.6,N,,,,*7F
$IIDPT,013.3,+0.7,*41
$IIGLL,0854.992,S,14006.024,W,190723,A,A*5F
$IIHDG,148,,,10,E*1E
$IIMTW,+26.5,C*39
$IIMWV,349,R,06.6,N,A*1D
$IIMWV,354,T,06.7,N,A*16
$IIRMB,A,0.00,L,,HAKAAU  ,,,,,026.50,173,,V,A*64
$IIRMC,190724,A,0854.992,S,14006.024,W,00.0,008,031110,10,E,A*0F
$IIVHW,,,149,M,00.0,N,,*68
$IIVLW,02839,N,000.0,N*53
$IIVWR,013,L,06.6,N,,,,*7D
$IIDPT,013.4,+0.7,*46
$IIGLL,0854.992,S,14006.024,W,190724,A,A*58
$IIHDG,149,,,10,E*1F
$IIMTW,+26.5,C*39
$IIMWV,347,R,06.6,N,A*13
$IIMWV,347,T,06.6,N,A*15
$IIRMB,A,0.00,L,,HAKAAU  ,,,,,026.50,173,,V,A*64
$IIRMC,190725,A,0854.992,S,14006.024,W,00.0,008,031110,10,E,A*0E
$IIVHW,,,149,M,00.0,N,,*68
$IIVLW,02839,N,000.0,N*53
$IIVWR,009,L,06.6,N,,,,*76
$IIDPT,013.4,+0.7,*46
$IIGLL,0854.992,S,14006.024,W,190725,A,A*59
$IIHDG,149,,,10,E*1F
$IIMTW,+26.5,C*39
$IIMWV,353,R,06.5,N,A*15
$IIMWV,351,T,06.6,N,A*12
$IIRMC,190726,A,0854.992,S,14006.024,W,00.0,008,031110,10,E,A*0D
$IIVHW,,,149,M,00.0,N,,*68
$IIVLW,02839,N,000.0,N*53
$IIVWR,007,L,06.5,N,,,,*7B
$IIDPT,013.4,+0.7,*46
$IIGLL,0854.992,S,14006.024,W,190727,A,A*5B
$IIHDG,149,,,10,E*1F
$IIMTW,+26.5,C*39
$IIMWV,350,R,06.3,N,A*10
$IIMWV,353,T,06.5,N,A*13
$IIRMB,A,0.00,L,,HAKAAU  ,,,,,026.50,173,,V,A*64
$IIRMC,190727,A,0854.992,S,14006.024,W,00.0,008,031110,10,E,A*0C
$IIVHW,,,149,M,00.0,N,,*68
$IIVLW,02839,N,000.0,N*53
$IIVWR,015,L,06.4,N,,,,*79
$IIDPT,013.4,+0.7,*46
$IIGLL,0854.992,S,14006.024,W,190728,A,A*54
$IIHDG,149,,,10,E*1F
$IIMTW,+26.5,C*39
$IIMWV,345,R,06.4,N,A*13
$IIMWV,350,T,06.3,N,A*16
$IIRMC,190728,A,0854.992,S,14006.024,W,00.0,008,031110,10,E,A*03
$IIVHW,,,150,M,00.0,N,,*60
$IIVLW,02839,N,000.0,N*53
$IIVWR,015,L,06.4,N,,,,*79
$IIDPT,013.4,+0.7,*46
$IIGLL,0854.991,S,14006.024,W,190729,A,A*56
$IIHDG,150,,,10,E*17
$IIMTW,+26.5,C*39
$IIMWV,345,R,06.4,N,A*13
$IIMWV,345,T,06.4,N,A*15
$IIRMB,A,0.00,L,,HAKAAU  ,,,,,026.50,173,,V,A*64
$IIRMC,190729,A,0854.991,S,14006.024,W,00.0,008,031110,10,E,A*01
$IIVHW,,,150,M,00.0,N,,*60
$IIVLW,02839,N,000.0,N*53
$IIVWR,012,L,06.2,N,,,,*78
$IIDPT,013.4,+0.7,*46
$IIGLL,0854.991,S,14006.024,W,190729,A,A*56
$IIHDG,150,,,10,E*17
$IIMTW,+26.5,C*39
$IIMWV,348,R,06.2,N,A*18
$IIMWV,348,T,06.2,N,A*1E
$IIRMB,A,0.00,L,,HAKAAU  ,,,,,026.50,173,,V,A*64
$IIRMC,190731,A,0854.991,S,14006.024,W,00.0,008,031110,10,E,A*08
$IIVHW,,,150,M,00.0,N,,*60
$IIVLW,02839,N,000.0,N*53
$IIVWR,010,L,06.0,N,,,,*78
$IIDPT,013.2,+0.7,*40
$IIGLL,0854.991,S,14006.024,W,190731,A,A*5F
$IIHDG,149,,,10,E*1F
$IIMTW,+26.5,C*39
$IIMWV,348,R,06.1,N,A*1B
$IIMWV,350,T,06.0,N,A*15
$IIRMC,190732,A,0854.990,S,14006.023,W,00.0,008,031110,10,E,A*0D
$IIVHW,,,149,M,00.0,N,,*68
$IIVLW,02839,N,000.0,N*53
$IIVWR,012,L,06.1,N,,,,*7B
$IIDPT,013.3,+0.7,*41
$IIGLL,0854.990,S,14006.023,W,190733,A,A*5B
$IIHDG,149,,,10,E*1F
$IIMTW,+26.5,C*39
$IIMWV,347,R,06.0,N,A*15
$IIMWV,348,T,06.1,N,A*1D
$IIRMB,A,0.01,R,,HAKAAU  ,,,,,026.50,173,,V,A*7B
$IIRMC,190733,A,0854.990,S,14006.023,W,00.0,008,031110,10,E,A*0C
$IIVHW,,,149,M,00.0,N,,*68
$IIVLW,02839,N,000.0,N*53
$IIVWR,013,L,06.1,N,,,,*7A
$IIDPT,013.3,+0.7,*41
$IIGLL,0854.990,S,14006.023,W,190734,A,A*5C
$IIHDG,149,,,10,E*1F
$IIMTW,+26.5,C*39
$IIMWV,347,R,06.1,N,A*14
$IIMWV,347,T,06.0,N,A*13
$IIRMC,190734,A,0854.990,S,14006.023,W,00.0,008,031110,10,E,A*0B
$IIVHW,,,149,M,00.0,N,,*68
$IIVLW,02839,N,000.0,N*53
$IIVWR,011,L,05.7,N,,,,*7D
$IIDPT,013.3,+0.7,*41
$IIGLL,0854.990,S,14006.023,W,190735,A,A*5D
$IIHDG,149,,,10,E*1F
$IIMTW,+26.5,C*39
$IIMWV,349,R,05.7,N,A*1F
$IIMWV,347,T,06.1,N,A*12
$IIRMB,A,0.00,L,,HAKAAU  ,,,,,026.50,173,,V,A*64
$IIRMC,190736,A,0854.991,S,14006.023,W,00.0,008,031110,10,E,A*08
$IIVHW,,,149,M,00.0,N,,*68
$IIVLW,02839,N,000.0,N*53
$IIVWR,013,L,05.7,N,,,,*7F
$IIDPT,013.3,+0.7,*41
$IIGLL,0854.991,S,14006.023,W,190736,A,A*5F
$IIHDG,149,,,10,E*1F
$IIMTW,+26.5,C*39
$IIMWV,347,R,05.7,N,A*11
$IIMWV,347,T,05.7,N,A*17
$IIRMB,A,0.01,R,,HAKAAU  ,,,,,026.50,173,,V,A*7B
$IIRMC,190737,A,0854.991,S,14006.023,W,00.0,008,031110,10,E,A*09
$IIVHW,,,149,M,00.0,N,,*68
$IIVLW,02839,N,000.0,N*53
$IIVWR,015,L,05.6,N,,,,*78
$IIDPT,013.3,+0.7,*41
$IIGLL,0854.991,S,14006.023,W,190737,A,A*5E
$IIHDG,148,,,10,E*1E
$IIMTW,+26.5,C*39
$IIMWV,345,R,05.4,N,A*10
$IIMWV,345,T,05.6,N,A*14
$IIRMC,190738,A,0854.992,S,14006.022,W,00.0,008,031110,10,E,A*04
$IIVHW,,,148,M,00.0,N,,*69
$IIVLW,02839,N,000.0,N*53
$IIVWR,015,L,05.4,N,,,,*7A
$IIDPT,013.3,+0.7,*41
$IIGLL,0854.991,S,14006.022,W,190739,A,A*51
$IIHDG,148,,,10,E*1E
$IIMTW,+26.5,C*39
$IIMWV,348,R,05.1,N,A*18
$IIMWV,345,T,05.4,N,A*16
$IIRMB,A,0.01,R,,HAKAAU  ,,,,,026.50,173,,V,A*7B
$IIRMC,190739,A,0854.991,S,14006.022,W,00.0,008,031110,10,E,A*06
