$BMMMB,30.0477,I,1.0174,B*72
$GPRMC,070029.00,V,,,,,,,040822,,,N*7D
$GPVTG,,,,,,,,,N*30
$GPGGA,070029.00,,,,,0,03,3.23,,,,,,*5B
$GPGSA,A,1,18,07,23,,,,,,,,,,3.38,3.23,1.00*04
$GPGSV,2,1,07,07,09,329,28,10,,,34,16,,,26,18,47,056,23*7C
$GPGSV,2,2,07,23,33,115,33,26,,,29,27,,,36*45
$GPGLL,,,,,070029.00,V,N*46
$BMXDR,H,71.0,P,0,C,23.4,C,1,P,101743,P,2*69
$BMMDA,30.045,I,1.017,B,23.4,C,,,71.0,,,,,,,,,,,*39
$BMMTA,23.4,C*0F
$BMMMB,30.0481,I,1.0174,B*7B
$GPRMC,070030.00,A,4741.00925,N,00310.27239,W,0.120,,040822,,,A*6E
$GPVTG,,T,,M,0.120,N,0.221,K,A*21
$GPGGA,070030.00,4741.00925,N,00310.27239,W,1,03,3.23,3.3,M,49.4,M,,*45
$GPGSA,A,2,18,07,23,,,,,,,,,,3.38,3.23,1.00*07
$GPGSV,2,1,07,07,09,329,35,10,,,34,16,,,26,18,47,056,24*77
$GPGSV,2,2,07,23,33,115,33,26,,,30,27,,,36*4D
$GPGLL,4741.00925,N,00310.27239,W,070030.00,A,A*78
$BMXDR,H,71.2,P,0,C,23.4,C,1,P,101741,P,2*69
$BMMDA,30.044,I,1.017,B,23.4,C,,,71.2,,,,,,,,,,,*3A
$BMMTA,23.4,C*0F
$BMMMB,30.0477,I,1.0174,B*72
$GPRMC,070031.00,V,,,,,,,040822,,,N*74
$GPVTG,,,,,,,,,N*30
$GPGGA,070031.00,,,,,0,00,99.99,,,,,,*63
$GPGSA,A,1,,,,,,,,,,,,,99.99,99.99,99.99*30
$GPGSV,2,1,07,07,09,329,34,10,,,33,16,,,26,18,47,056,23*76
$GPGSV,2,2,07,23,33,115,33,26,,,31,27,,,35*4F
$GPGLL,,,,,070031.00,V,N*4F
$BMXDR,H,70.8,P,0,C,23.4,C,1,P,101741,P,2*62
$BMMDA,30.044,I,1.017,B,23.4,C,,,70.8,,,,,,,,,,,*31
$BMMTA,23.4,C*0F
$BMMMB,30.0475,I,1.0174,B*70
$GPRMC,070032.00,V,,,,,,,040822,,,N*77
$GPVTG,,,,,,,,,N*30
$GPGGA,070032.00,,,,,0,00,99.99,,,,,,*60
$GPGSA,A,1,,,,,,,,,,,,,99.99,99.99,99.99*30
$GPGSV,2,1,07,07,09,329,35,10,,,34,16,,,26,18,47,056,21*72
$GPGSV,2,2,07,23,33,115,33,26,,,31,27,,,36*4C
$GPGLL,,,,,070032.00,V,N*4C
$BMXDR,H,70.8,P,0,C,23.4,C,1,P,101742,P,2*61
$BMMDA,30.044,I,1.017,B,23.4,C,,,70.8,,,,,,,,,,,*31
$BMMTA,23.4,C*0F
$BMMMB,30.0478,I,1.0174,B*7D
$GPRMC,070033.00,V,,,,,,,040822,,,N*76
$GPVTG,,,,,,,,,N*30
$GPGGA,070033.00,,,,,0,00,99.99,,,,,,*61
$GPGSA,A,1,,,,,,,,,,,,,99.99,99.99,99.99*30
$GPGSV,2,1,06,07,09,329,34,16,,,25,18,47,056,22,23,33,115,*40
$GPGSV,2,2,06,26,,,30,27,,,35*7B
$GPGLL,,,,,070033.00,V,N*4D
$BMXDR,H,70.8,P,0,C,23.4,C,1,P,101741,P,2*62
$BMMDA,30.044,I,1.017,B,23.4,C,,,70.8,,,,,,,,,,,*31
$BMMTA,23.4,C*0F
$BMMMB,30.0475,I,1.0174,B*70
$GPRMC,070034.00,V,,,,,,,040822,,,N*71
$GPVTG,,,,,,,,,N*30
$GPGGA,070034.00,,,,,0,00,99.99,,,,,,*66
$GPGSA,A,1,,,,,,,,,,,,,99.99,99.99,99.99*30
$GPGSV,2,1,05,07,09,329,34,16,,,26,18,47,056,22,23,33,115,*40
$GPGSV,2,2,05,27,,,36*7C
$GPGLL,,,,,070034.00,V,N*4A
$GPRMC,070035.00,V,,,,,,,040822,,,N*70
$GPVTG,,,,,,,,,N*30
$GPGGA,070035.00,,,,,0,00,99.99,,,,,,*67
$GPGSA,A,1,,,,,,,,,,,,,99.99,99.99,99.99*30
$GPGSV,2,1,07,07,09,329,34,16,,,26,18,47,056,22,20,,,20*76
$GPGSV,2,2,07,23,33,115,,26,,,30,27,,,35*4E
$GPGLL,,,,,070035.00,V,N*4B
$BMXDR,H,70.6,P,0,C,23.4,C,1,P,101739,P,2*63
$BMMDA,30.044,I,1.017,B,23.4,C,,,70.6,,,,,,,,,,,*3F
$BMMTA,23.4,C*0F
$BMMMB,30.0471,I,1.0174,B*74
$GPRMC,070036.00,V,,,,,,,040822,,,N*73
$GPVTG,,,,,,,,,N*30
$GPGGA,070036.00,,,,,0,00,99.99,,,,,,*64
$GPGSA,A,1,,,,,,,,,,,,,99.99,99.99,99.99*30
$GPGSV,2,1,05,07,09,329,34,16,,,27,18,47,056,22,23,33,115,36*44
$GPGSV,2,2,05,27,,,35*7F
$GPGLL,,,,,070036.00,V,N*48
$BMXDR,H,71.4,P,0,C,23.4,C,1,P,101739,P,2*60
$BMMDA,30.043,I,1.017,B,23.4,C,,,71.4,,,,,,,,,,,*3B
$BMMTA,23.4,C*0F
$BMMMB,30.0469,I,1.0174,B*7D
$GPRMC,070037.00,V,,,,,,,040822,,,N*72
$GPVTG,,,,,,,,,N*30
$GPGGA,070037.00,,,,,0,00,99.99,,,,,,*65
$GPGSA,A,1,,,,,,,,,,,,,99.99,99.99,99.99*30
$GPGSV,2,1,05,07,09,329,35,16,,,26,18,47,056,22,23,33,115,36*44
$GPGSV,2,2,05,27,,,35*7F
$GPGLL,,,,,070037.00,V,N*49
$BMXDR,H,70.3,P,0,C,23.4,C,1,P,101742,P,2*6A
$BMMDA,30.044,I,1.017,B,23.4,C,,,70.3,,,,,,,,,,,*3A
$BMMTA,23.4,C*0F
$BMMMB,30.0477,I,1.0174,B*72
$GPRMC,070038.00,V,,,,,,,040822,,,N*7D
$GPVTG,,,,,,,,,N*30
$GPGGA,070038.00,,,,,0,00,99.99,,,,,,*6A
$GPGSA,A,1,,,,,,,,,,,,,99.99,99.99,99.99*30
$GPGSV,2,1,05,07,09,329,35,16,,,26,18,47,056,22,23,33,115,35*47
$GPGSV,2,2,05,27,,,35*7F
$GPGLL,,,,,070038.00,V,N*46
$BMXDR,H,69.5,P,0,C,23.4,C,1,P,101739,P,2*68
$BMMDA,30.043,I,1.017,B,23.4,C,,,69.5,,,,,,,,,,,*33
$BMMTA,23.4,C*0F
$BMMMB,30.0468,I,1.0174,B*7C
$GPRMC,070039.00,V,,,,,,,040822,,,N*7C
$GPVTG,,,,,,,,,N*30
$GPGGA,070039.00,,,,,0,00,99.99,,,,,,*6B
$GPGSA,A,1,,,,,,,,,,,,,99.99,99.99,99.99*30
$GPGSV,2,1,05,07,09,329,35,16,,,26,18,47,056,22,23,33,115,35*47
$GPGSV,2,2,05,27,,,35*7F
$GPGLL,,,,,070039.00,V,N*47
$BMXDR,H,70.1,P,0,C,23.2,C,1,P,101700,P,2*68
$BMMDA,30.032,I,1.017,B,23.2,C,,,70.1,,,,,,,,,,,*3F
$BMMTA,23.2,C*09
$BMMMB,30.0353,I,1.0170,B*77
$GPRMC,070040.00,V,,,,,,,040822,,,N*72
$GPVTG,,,,,,,,,N*30
$GPGGA,070040.00,,,,,0,00,99.99,,,,,,*65
$GPGSA,A,1,,,,,,,,,,,,,99.99,99.99,99.99*30
$GPGSV,2,1,05,07,09,329,34,16,,,26,18,47,056,23,23,33,115,35*47
$GPGSV,2,2,05,27,,,35*7F
$GPGLL,,,,,070040.00,V,N*49
$BMXDR,H,69.8,P,0,C,23.4,C,1,P,101739,P,2*65
$BMMDA,30.044,I,1.017,B,23.4,C,,,69.8,,,,,,,,,,,*39
$BMMTA,23.4,C*0F
$BMMMB,30.0471,I,1.0174,B*74
$GPRMC,070041.00,V,,,,,,,040822,,,N*73
$GPVTG,,,,,,,,,N*30
$GPGGA,070041.00,,,,,0,00,99.99,,,,,,*64
$GPGSA,A,1,,,,,,,,,,,,,99.99,99.99,99.99*30
$GPGSV,2,1,05,07,09,329,34,16,,,26,18,47,056,23,23,33,115,35*47
$GPGSV,2,2,05,27,,,36*7C
$GPGLL,,,,,070041.00,V,N*48
$BMXDR,H,70.1,P,0,C,23.4,C,1,P,101743,P,2*69
$BMMDA,30.045,I,1.017,B,23.4,C,,,70.1,,,,,,,,,,,*39
$BMMTA,23.4,C*0F
$BMMMB,30.0481,I,1.0174,B*7B
$GPRMC,070042.00,V,,,,,,,040822,,,N*70
$GPVTG,,,,,,,,,N*30
$GPGGA,070042.00,,,,,0,00,99.99,,,,,,*67
$GPGSA,A,1,,,,,,,,,,,,,99.99,99.99,99.99*30
$GPGSV,2,1,05,07,09,329,34,16,,,26,18,47,056,22,23,33,115,33*40
$GPGSV,2,2,05,27,,,36*7C
$GPGLL,,,,,070042.00,V,N*4B
$BMXDR,H,69.2,P,0,C,23.4,C,1,P,101742,P,2*63
$BMMDA,30.044,I,1.017,B,23.4,C,,,69.2,,,,,,,,,,,*33
$BMMTA,23.4,C*0F
$BMMMB,30.0478,I,1.0174,B*7D
$GPRMC,070043.00,V,,,,,,,040822,,,N*71
$GPVTG,,,,,,,,,N*30
$GPGGA,070043.00,,,,,0,00,99.99,,,,,,*66
$GPGSA,A,1,,,,,,,,,,,,,99.99,99.99,99.99*30
$GPGSV,2,1,06,07,09,329,34,16,,,26,18,47,056,22,23,33,115,34*44
$GPGSV,2,2,06,24,,,19,27,,,36*71
$GPGLL,,,,,070043.00,V,N*4A
$GPRMC,070044.00,V,,,,,,,040822,,,N*76
$GPVTG,,,,,,,,,N*30
$GPGGA,070044.00,,,,,0,00,99.99,,,,,,*61
$GPGSA,A,1,,,,,,,,,,,,,99.99,99.99,99.99*30
$GPGSV,2,1,06,07,09,329,33,16,,,26,18,46,056,22,23,33,115,33*45
$GPGSV,2,2,06,26,,,30,27,,,35*7B
$GPGLL,,,,,070044.00,V,N*4D
$BMXDR,H,68.7,P,0,C,23.4,C,1,P,101739,P,2*6B
$BMMDA,30.044,I,1.017,B,23.4,C,,,68.7,,,,,,,,,,,*37
$BMMTA,23.4,C*0F
$BMMMB,30.0470,I,1.0174,B*75
$GPRMC,070045.00,V,,,,,,,040822,,,N*77
$GPVTG,,,,,,,,,N*30
$GPGGA,070045.00,,,,,0,00,99.99,,,,,,*60
$GPGSA,A,1,,,,,,,,,,,,,99.99,99.99,99.99*30
$GPGSV,2,1,06,07,09,329,33,16,,,27,18,46,056,21,23,33,115,33*47
$GPGSV,2,2,06,26,,,30,27,,,36*78
$GPGLL,,,,,070045.00,V,N*4C
$BMXDR,H,68.7,P,0,C,23.4,C,1,P,101740,P,2*65
$BMMDA,30.044,I,1.017,B,23.4,C,,,68.7,,,,,,,,,,,*37
$BMMTA,23.4,C*0F
$BMMMB,30.0474,I,1.0174,B*71
$GPRMC,070046.00,V,,,,,,,040822,,,N*74
$GPVTG,,,,,,,,,N*30
$GPGGA,070046.00,,,,,0,00,99.99,,,,,,*63
$GPGSA,A,1,,,,,,,,,,,,,99.99,99.99,99.99*30
$GPGSV,2,1,05,07,09,329,34,16,,,27,18,46,056,22,23,33,115,35*46
$GPGSV,2,2,05,27,,,35*7F
$GPGLL,,,,,070046.00,V,N*4F
$BMXDR,H,68.4,P,0,C,23.4,C,1,P,101731,P,2*60
$BMMDA,30.041,I,1.017,B,23.4,C,,,68.4,,,,,,,,,,,*31
$BMMTA,23.4,C*0F
$BMMMB,30.0446,I,1.0173,B*77
$GPRMC,070047.00,V,,,,,,,040822,,,N*75
$GPVTG,,,,,,,,,N*30
$GPGGA,070047.00,,,,,0,00,99.99,,,,,,*62
$GPGSA,A,1,,,,,,,,,,,,,99.99,99.99,99.99*30
$GPGSV,2,1,05,07,09,329,35,16,,,26,18,46,056,22,23,33,115,*40
$GPGSV,2,2,05,27,,,36*7C
$GPGLL,,,,,070047.00,V,N*4E
$BMXDR,H,69.2,P,0,C,23.4,C,1,P,101731,P,2*67
$BMMDA,30.041,I,1.017,B,23.4,C,,,69.2,,,,,,,,,,,*36
$BMMTA,23.4,C*0F
$BMMMB,30.0445,I,1.0173,B*74
$GPRMC,070048.00,V,,,,,,,040822,,,N*7A
$GPVTG,,,,,,,,,N*30
$GPGGA,070048.00,,,,,0,00,99.99,,,,,,*6D
$GPGSA,A,1,,,,,,,,,,,,,99.99,99.99,99.99*30
$GPGSV,2,1,05,07,09,329,35,16,,,26,18,46,056,22,23,33,115,33*40
$GPGSV,2,2,05,27,,,36*7C
$GPGLL,,,,,070048.00,V,N*41
$BMXDR,H,68.1,P,0,C,23.4,C,1,P,101744,P,2*67
$BMMDA,30.045,I,1.017,B,23.4,C,,,68.1,,,,,,,,,,,*30
$BMMTA,23.4,C*0F
$BMMMB,30.0483,I,1.0174,B*79
$GPRMC,070049.00,V,,,,,,,040822,,,N*7B
$GPVTG,,,,,,,,,N*30
$GPGGA,070049.00,,,,,0,00,99.99,,,,,,*6C
$GPGSA,A,1,,,,,,,,,,,,,99.99,99.99,99.99*30
$GPGSV,2,1,05,07,09,329,35,16,,,27,18,46,056,22,23,33,115,*41
$GPGSV,2,2,05,27,,,36*7C
$GPGLL,,,,,070049.00,V,N*40
$BMXDR,H,68.7,P,0,C,23.4,C,1,P,101745,P,2*60
$BMMDA,30.045,I,1.017,B,23.4,C,,,68.7,,,,,,,,,,,*36
$BMMTA,23.4,C*0F
$BMMMB,30.0488,I,1.0175,B*73
$GPRMC,070050.00,V,,,,,,,040822,,,N*73
$GPVTG,,,,,,,,,N*30
$GPGGA,070050.00,,,,,0,00,99.99,,,,,,*64
$GPGSA,A,1,,,,,,,,,,,,,99.99,99.99,99.99*30
$GPGSV,2,1,05,07,09,329,36,16,,,27,18,46,056,22,23,33,115,*42
$GPGSV,2,2,05,27,,,36*7C
$GPGLL,,,,,070050.00,V,N*48
$BMXDR,H,69.5,P,0,C,23.4,C,1,P,101743,P,2*65
$BMMDA,30.045,I,1.017,B,23.4,C,,,69.5,,,,,,,,,,,*35
$BMMTA,23.4,C*0F
$BMMMB,30.0482,I,1.0174,B*78
$GPRMC,070051.00,V,,,,,,,040822,,,N*72
$GPVTG,,,,,,,,,N*30
$GPGGA,070051.00,,,,,0,00,99.99,,,,,,*65
$GPGSA,A,1,,,,,,,,,,,,,99.99,99.99,99.99*30
$GPGSV,2,1,05,07,09,329,34,16,,,27,18,46,056,22,23,33,115,*40
$GPGSV,2,2,05,27,,,36*7C
$GPGLL,,,,,070051.00,V,N*49
$BMXDR,H,68.6,P,0,C,23.4,C,1,P,101745,P,2*61
$BMMDA,30.045,I,1.017,B,23.4,C,,,68.6,,,,,,,,,,,*37
$BMMTA,23.4,C*0F
$BMMMB,30.0486,I,1.0174,B*7C
$GPRMC,070052.00,V,,,,,,,040822,,,N*71
$GPVTG,,,,,,,,,N*30
$GPGGA,070052.00,,,,,0,00,99.99,,,,,,*66
$GPGSA,A,1,,,,,,,,,,,,,99.99,99.99,99.99*30
$GPGSV,2,1,06,07,09,329,36,16,,,27,18,46,056,23,23,33,115,*40
$GPGSV,2,2,06,27,,,36,29,,,20*76
$GPGLL,,,,,070052.00,V,N*4A
$BMXDR,H,69.4,P,0,C,23.4,C,1,P,101742,P,2*65
$BMMDA,30.044,I,1.017,B,23.4,C,,,69.4,,,,,,,,,,,*35
$BMMTA,23.4,C*0F
$BMMMB,30.0478,I,1.0174,B*7D
$GPRMC,070053.00,V,,,,,,,040822,,,N*70
$GPVTG,,,,,,,,,N*30
$GPGGA,070053.00,,,,,0,03,3.22,,,,,,*57
$GPGSA,A,1,18,07,23,,,,,,,,,,3.37,3.22,1.00*0A
$GPGSV,2,1,05,07,09,329,36,16,,,27,18,46,056,23,23,33,115,29*48
$GPGSV,2,2,05,27,,,37*7D
$GPGLL,,,,,070053.00,V,N*4B
$GPRMC,070054.00,V,,,,,,,040822,,,N*77
$GPVTG,,,,,,,,,N*30
$GPGGA,070054.00,,,,,0,03,3.22,,,,,,*50
$GPGSA,A,1,18,07,23,,,,,,,,,,3.37,3.22,1.00*0A
$GPGSV,2,1,05,07,09,329,35,16,,,27,18,46,056,22,23,33,115,34*46
$GPGSV,2,2,05,27,,,36*7C
$GPGLL,,,,,070054.00,V,N*4C
$BMXDR,H,69.0,P,0,C,23.4,C,1,P,101739,P,2*6D
$BMMDA,30.043,I,1.017,B,23.4,C,,,69.0,,,,,,,,,,,*36
$BMMTA,23.4,C*0F
$BMMMB,30.0469,I,1.0174,B*7D
$GPRMC,070055.00,V,,,,,,,040822,,,N*76
$GPVTG,,,,,,,,,N*30
$GPGGA,070055.00,,,,,0,03,3.22,,,,,,*51
$GPGSA,A,1,18,07,23,,,,,,,,,,3.37,3.22,1.00*0A
$GPGSV,2,1,06,07,09,329,35,16,,,27,18,46,056,22,23,33,115,34*45
$GPGSV,2,2,06,24,,,20,27,,,36*7B
$GPGLL,,,,,070055.00,V,N*4D
$BMXDR,H,68.2,P,0,C,23.5,C,1,P,101743,P,2*62
$BMMDA,30.045,I,1.017,B,23.5,C,,,68.2,,,,,,,,,,,*32
$BMMTA,23.5,C*0E
$BMMMB,30.0481,I,1.0174,B*7B
$GPRMC,070056.00,V,,,,,,,040822,,,N*75
$GPVTG,,,,,,,,,N*30
$GPGGA,070056.00,,,,,0,03,3.22,,,,,,*52
$GPGSA,A,1,18,07,23,,,,,,,,,,3.37,3.22,1.00*0A
$GPGSV,2,1,07,07,09,329,36,16,,,27,18,46,056,22,23,33,115,34*47
$GPGSV,2,2,07,24,,,17,27,,,36,31,,,20*7E
$GPGLL,,,,,070056.00,V,N*4E
$BMXDR,H,67.6,P,0,C,23.5,C,1,P,101742,P,2*68
$BMMDA,30.044,I,1.017,B,23.5,C,,,67.6,,,,,,,,,,,*38
$BMMTA,23.5,C*0E
$BMMMB,30.0478,I,1.0174,B*7D
$GPRMC,070057.00,V,,,,,,,040822,,,N*74
$GPVTG,,,,,,,,,N*30
$GPGGA,070057.00,,,,,0,03,3.22,,,,,,*53
$GPGSA,A,1,18,07,23,,,,,,,,,,3.37,3.22,1.00*0A
$GPGSV,2,1,07,07,09,329,29,16,,,27,18,46,056,23,23,33,115,34*48
$GPGSV,2,2,07,24,,,14,27,,,33,29,,,20*71
$GPGLL,,,,,070057.00,V,N*4F
$BMXDR,H,68.4,P,0,C,23.5,C,1,P,101742,P,2*65
$BMMDA,30.044,I,1.017,B,23.5,C,,,68.4,,,,,,,,,,,*35
$BMMTA,23.5,C*0E
$BMMMB,30.0479,I,1.0174,B*7C
$GPRMC,070058.00,V,,,,,,,040822,,,N*7B
$GPVTG,,,,,,,,,N*30
$GPGGA,070058.00,,,,,0,03,3.22,,,,,,*5C
$GPGSA,A,1,18,07,23,,,,,,,,,,3.37,3.22,1.00*0A
$GPGSV,2,1,07,07,09,329,35,16,,,27,18,46,056,24,23,33,115,34*42
$GPGSV,2,2,07,24,,,10,27,,,29,29,,,21*7F
$GPGLL,,,,,070058.00,V,N*40
$BMXDR,H,68.0,P,0,C,23.5,C,1,P,101739,P,2*6D
$BMMDA,30.044,I,1.017,B,23.5,C,,,68.0,,,,,,,,,,,*31
$BMMTA,23.5,C*0E
$BMMMB,30.0471,I,1.0174,B*74
$GPRMC,070059.00,A,4741.00803,N,00310.27235,W,0.973,346.54,040822,,,A*78
$GPVTG,346.54,T,,M,0.973,N,1.803,K,A*3A
$GPGGA,070059.00,4741.00803,N,00310.27235,W,1,03,3.22,-0.2,M,49.4,M,,*6D
$GPGSA,A,2,18,07,23,,,,,,,,,,3.37,3.22,1.00*09
$GPGSV,2,1,08,07,09,329,36,16,,,28,18,46,056,24,23,33,115,33*46
$GPGSV,2,2,08,24,,,09,27,,,30,28,,,20,29,,,21*78
$GPGLL,4741.00803,N,00310.27235,W,070059.00,A,A*7E
$BMXDR,H,67.8,P,0,C,23.5,C,1,P,101741,P,2*65
$BMMDA,30.044,I,1.017,B,23.5,C,,,67.8,,,,,,,,,,,*36
$BMMTA,23.5,C*0E
$BMMMB,30.0475,I,1.0174,B*70
$GPRMC,070100.00,A,4741.00746,N,00310.27262,W,0.304,,040822,,,A*6D
$GPVTG,,T,,M,0.304,N,0.563,K,A*24
$GPGGA,070100.00,4741.00746,N,00310.27262,W,1,03,3.22,2.3,M,49.4,M,,*42
$GPGSA,A,2,18,07,23,,,,,,,,,,3.37,3.22,1.00*09
$GPGSV,3,1,10,07,09,329,36,10,,,33,16,,,28,18,46,056,25*7A
$GPGSV,3,2,10,23,33,115,33,24,,,10,27,,,30,28,,,18*4F
$GPGSV,3,3,10,29,,,21,32,,,19*79
$GPGLL,4741.00746,N,00310.27262,W,070100.00,A,A*7F
$BMXDR,H,68.1,P,0,C,23.5,C,1,P,101743,P,2*61
$BMMDA,30.045,I,1.017,B,23.5,C,,,68.1,,,,,,,,,,,*31
$BMMTA,23.5,C*0E
$BMMMB,30.0482,I,1.0174,B*78
$GPRMC,070101.00,A,4741.00736,N,00310.27307,W,0.253,,040822,,,A*6A
$GPVTG,,T,,M,0.253,N,0.469,K,A*2C
$GPGGA,070101.00,4741.00736,N,00310.27307,W,1,03,3.22,-0.5,M,49.4,M,,*6F
$GPGSA,A,2,18,07,23,,,,,,,,,,3.37,3.22,1.00*09
$GPGSV,3,1,11,07,09,329,36,10,,,33,16,,,28,18,46,056,26*78
$GPGSV,3,2,11,23,33,115,34,24,,,11,27,,,31,28,,,16*47
$GPGSV,3,3,11,29,,,21,31,,,21,32,,,20*73
$GPGLL,4741.00736,N,00310.27307,W,070101.00,A,A*7B
$BMXDR,H,68.7,P,0,C,23.5,C,1,P,101742,P,2*66
$BMMDA,30.044,I,1.017,B,23.5,C,,,68.7,,,,,,,,,,,*36
$BMMTA,23.5,C*0E
$BMMMB,30.0479,I,1.0174,B*7C
$GPRMC,070102.00,A,4741.00738,N,00310.27314,W,0.176,,040822,,,A*61
$GPVTG,,T,,M,0.176,N,0.326,K,A*24
$GPGGA,070102.00,4741.00738,N,00310.27314,W,1,03,3.21,-2.7,M,49.4,M,,*63
$GPGSA,A,2,18,07,23,,,,,,,,,,3.37,3.21,1.00*0A
$GPGSV,3,1,11,01,,,21,07,09,329,33,10,,,34,16,,,27*4B
$GPGSV,3,2,11,18,46,056,25,23,33,115,34,24,,,10,27,,,37*72
$GPGSV,3,3,11,29,,,22,31,,,21,32,,,21*71
$GPGLL,4741.00738,N,00310.27314,W,070102.00,A,A*74
$GPRMC,070103.00,V,,,,,,,040822,,,N*74
$GPVTG,,,,,,,,,N*30
$GPGGA,070103.00,,,,,0,04,1.96,,,,,,*59
$GPGSA,A,1,27,18,07,23,,,,,,,,,3.09,1.96,2.40*08
$GPGSV,3,1,11,01,,,17,07,09,329,27,10,,,33,16,,,26*4D
$GPGSV,3,2,11,18,46,056,23,23,33,115,32,24,,,09,27,53,284,35*40
$GPGSV,3,3,11,29,,,18,31,,,16,32,,,18*76
$GPGLL,,,,,070103.00,V,N*4F
$BMXDR,H,68.4,P,0,C,23.5,C,1,P,101742,P,2*65
$BMMDA,30.045,I,1.017,B,23.5,C,,,68.4,,,,,,,,,,,*34
$BMMTA,23.5,C*0E
$BMMMB,30.0480,I,1.0174,B*7A
$GPRMC,070104.00,A,4741.00172,N,00310.28808,W,1.424,220.23,040822,,,A*7A
$GPVTG,220.23,T,,M,1.424,N,2.638,K,A*30
$GPGGA,070104.00,4741.00172,N,00310.28808,W,1,04,1.96,28.8,M,49.4,M,,*77
$GPGSA,A,3,27,18,07,23,,,,,,,,,3.09,1.96,2.40*0A
$GPGSV,2,1,07,01,,,15,07,09,329,28,10,,,33,16,,,26*46
$GPGSV,2,2,07,18,46,056,22,23,33,115,33,27,53,284,35*49
$GPGLL,4741.00172,N,00310.28808,W,070104.00,A,A*73
$BMXDR,H,68.3,P,0,C,23.5,C,1,P,101741,P,2*61
$BMMDA,30.044,I,1.017,B,23.5,C,,,68.3,,,,,,,,,,,*32
$BMMTA,23.5,C*0E
$BMMMB,30.0474,I,1.0174,B*71
$GPRMC,070105.00,A,4741.00199,N,00310.28823,W,1.621,214.04,040822,,,A*72
$GPVTG,214.04,T,,M,1.621,N,3.003,K,A*3A
$GPGGA,070105.00,4741.00199,N,00310.28823,W,1,04,1.96,28.3,M,49.4,M,,*71
$GPGSA,A,3,27,18,07,23,,,,,,,,,3.09,1.96,2.40*0A
$GPGSV,2,1,07,01,,,12,07,09,329,30,10,,,33,16,,,26*48
$GPGSV,2,2,07,18,46,056,22,23,33,115,32,27,53,284,34*49
$GPGLL,4741.00199,N,00310.28823,W,070105.00,A,A*7E
$BMXDR,H,69.2,P,0,C,23.4,C,1,P,101730,P,2*66
$BMMDA,30.041,I,1.017,B,23.4,C,,,69.2,,,,,,,,,,,*36
$BMMTA,23.4,C*0F
$BMMMB,30.0444,I,1.0173,B*75
$GPRMC,070106.00,A,4741.00185,N,00310.28844,W,1.280,212.71,040822,,,A*76
$GPVTG,212.71,T,,M,1.280,N,2.371,K,A*36
$GPGGA,070106.00,4741.00185,N,00310.28844,W,1,04,1.96,30.2,M,49.4,M,,*76
$GPGSA,A,3,27,18,07,23,,,,,,,,,3.09,1.96,2.40*0A
$GPGSV,2,1,08,01,,,09,07,09,329,33,08,,,29,10,,,33*4E
$GPGSV,2,2,08,16,,,25,18,46,056,21,23,33,115,32,27,53,284,35*44
$GPGLL,4741.00185,N,00310.28844,W,070106.00,A,A*71
$BMXDR,H,68.4,P,0,C,23.4,C,1,P,101731,P,2*60
$BMMDA,30.041,I,1.017,B,23.4,C,,,68.4,,,,,,,,,,,*31
$BMMTA,23.4,C*0F
$BMMMB,30.0445,I,1.0173,B*74
$GPRMC,070107.00,A,4741.00197,N,00310.28823,W,0.988,212.88,040822,,,A*71
$GPVTG,212.88,T,,M,0.988,N,1.829,K,A*37
$GPGGA,070107.00,4741.00197,N,00310.28823,W,1,04,1.96,30.0,M,49.4,M,,*77
$GPGSA,A,3,27,18,07,23,,,,,,,,,3.09,1.96,2.40*0A
$GPGSV,2,1,08,01,,,08,07,09,329,33,08,,,29,10,,,33*4F
$GPGSV,2,2,08,16,,,26,18,46,056,23,23,33,115,32,27,53,284,35*45
$GPGLL,4741.00197,N,00310.28823,W,070107.00,A,A*72
$BMXDR,H,68.2,P,0,C,23.5,C,1,P,101744,P,2*65
$BMMDA,30.045,I,1.017,B,23.5,C,,,68.2,,,,,,,,,,,*32
$BMMTA,23.5,C*0E
$BMMMB,30.0486,I,1.0174,B*7C
$GPRMC,070108.00,A,4741.00137,N,00310.28789,W,1.004,211.26,040822,,,A*70
$GPVTG,211.26,T,,M,1.004,N,1.859,K,A*3B
$GPGGA,070108.00,4741.00137,N,00310.28789,W,1,04,1.96,28.4,M,49.4,M,,*70
$GPGSA,A,3,27,18,07,23,,,,,,,,,3.10,1.96,2.40*02
$GPGSV,2,1,07,07,09,329,35,08,,,30,10,,,33,16,,,27*45
$GPGSV,2,2,07,18,46,056,24,23,33,115,33,27,53,284,36*4C
$GPGLL,4741.00137,N,00310.28789,W,070108.00,A,A*78
$BMXDR,H,68.2,P,0,C,23.5,C,1,P,101744,P,2*65
$BMMDA,30.045,I,1.017,B,23.5,C,,,68.2,,,,,,,,,,,*32
$BMMTA,23.5,C*0E
$BMMMB,30.0483,I,1.0174,B*79
$GPRMC,070109.00,A,4741.00169,N,00310.28734,W,0.177,,040822,,,A*60
$GPVTG,,T,,M,0.177,N,0.327,K,A*24
$GPGGA,070109.00,4741.00169,N,00310.28734,W,1,04,1.96,28.3,M,49.4,M,,*7B
$GPGSA,A,3,27,18,07,23,,,,,,,,,3.10,1.96,2.40*02
$GPGSV,2,1,07,07,09,329,33,08,,,30,10,,,33,16,,,26*42
$GPGSV,2,2,07,18,46,056,21,23,33,115,33,27,53,284,36*49
$GPGLL,4741.00169,N,00310.28734,W,070109.00,A,A*74
$BMXDR,H,67.9,P,0,C,23.5,C,1,P,101746,P,2*63
$BMMDA,30.046,I,1.017,B,23.5,C,,,67.9,,,,,,,,,,,*35
$BMMTA,23.5,C*0E
$BMMMB,30.0490,I,1.0175,B*7A
$GPRMC,070110.00,A,4741.00171,N,00310.28736,W,0.540,,040822,,,A*63
$GPVTG,,T,,M,0.540,N,1.000,K,A*23
$GPGGA,070110.00,4741.00171,N,00310.28736,W,1,04,1.96,27.9,M,49.4,M,,*7D
$GPGSA,A,3,27,18,07,23,,,,,,,,,3.10,1.96,2.40*02
$GPGSV,2,1,07,07,09,329,30,08,,,31,10,,,33,16,,,26*40
$GPGSV,2,2,07,18,46,056,21,23,33,115,28,27,53,284,36*43
$GPGLL,4741.00171,N,00310.28736,W,070110.00,A,A*77
$BMXDR,H,67.7,P,0,C,23.5,C,1,P,101744,P,2*6F
$BMMDA,30.045,I,1.017,B,23.5,C,,,67.7,,,,,,,,,,,*38
$BMMTA,23.5,C*0E
$BMMMB,30.0484,I,1.0174,B*7E
$GPRMC,070111.00,A,4741.00166,N,00310.28752,W,0.383,,040822,,,A*6F
$GPVTG,,T,,M,0.383,N,0.710,K,A*2D
$GPGGA,070111.00,4741.00166,N,00310.28752,W,1,04,1.96,28.6,M,49.4,M,,*78
$GPGSA,A,3,27,18,07,23,,,,,,,,,3.10,1.96,2.40*02
$GPGSV,2,1,07,07,09,329,28,08,,,30,10,,,34,16,,,26*4F
$GPGSV,2,2,07,18,46,056,23,23,33,115,26,27,53,284,38*41
$GPGLL,4741.00166,N,00310.28752,W,070111.00,A,A*72
$GPRMC,070112.00,A,4741.00139,N,00310.28774,W,0.330,,040822,,,A*6A
$BMXDR,H,67.6,P,0,C,23.5,C,1,P,101742,P,2*68
$GPVTG,,T,,M,0.330,N,0.612,K,A*26
$BMMDA,30.044,I,1.017,B,23.5,C,,,67.6,,,,,,,,,,,*38
$GPGGA,070112.00,4741.00139,N,00310.28774,W,1,04,1.96,27.3,M,49.4,M,,*7F
$BMMTA,23.5,C*0E
$GPGSA,A,3,27,18,07,23,,,,,,,,,3.10,1.96,2.40*02
$BMMMB,30.0479,I,1.0174,B*7C
$GPGSV,2,1,07,07,09,329,28,08,,,31,10,,,35,16,,,26*4F
$GPGSV,2,2,07,18,46,056,26,23,33,115,27,27,53,284,35*48
$GPGLL,4741.00139,N,00310.28774,W,070112.00,A,A*7F
$GPRMC,070113.00,A,4741.00177,N,00310.28773,W,0.070,,040822,,,A*61
$GPVTG,,T,,M,0.070,N,0.129,K,A*2E
$GPGGA,070113.00,4741.00177,N,00310.28773,W,1,04,1.96,27.9,M,49.4,M,,*79
$GPGSA,A,3,27,18,07,23,,,,,,,,,3.10,1.96,2.40*02
$GPGSV,2,1,07,07,09,329,27,08,,,31,10,,,34,16,,,26*41
$GPGSV,2,2,07,18,46,056,26,23,33,115,32,27,53,284,35*4C
$GPGLL,4741.00177,N,00310.28773,W,070113.00,A,A*73
$BMXDR,H,67.9,P,0,C,23.4,C,1,P,101730,P,2*63
$BMMDA,30.041,I,1.017,B,23.4,C,,,67.9,,,,,,,,,,,*33
$BMMTA,23.4,C*0F
$BMMMB,30.0443,I,1.0173,B*72
$GPRMC,070114.00,A,4741.00184,N,00310.28768,W,0.068,,040822,,,A*69
$GPVTG,,T,,M,0.068,N,0.125,K,A*2B
$GPGGA,070114.00,4741.00184,N,00310.28768,W,1,04,1.96,27.5,M,49.4,M,,*74
$GPGSA,A,3,27,18,07,23,,,,,,,,,3.10,1.96,2.40*02
$GPGSV,2,1,07,07,09,329,27,08,,,30,10,,,33,16,,,25*44
$GPGSV,2,2,07,18,46,056,24,23,33,115,32,27,53,284,35*4E
$GPGLL,4741.00184,N,00310.28768,W,070114.00,A,A*72
$BMXDR,H,67.7,P,0,C,23.4,C,1,P,101727,P,2*6B
$BMMDA,30.040,I,1.017,B,23.4,C,,,67.7,,,,,,,,,,,*3C
$BMMTA,23.4,C*0F
$BMMMB,30.0433,I,1.0173,B*75
$GPRMC,070115.00,A,4741.00197,N,00310.28756,W,0.290,,040822,,,A*62
$GPVTG,,T,,M,0.290,N,0.537,K,A*29
$GPGGA,070115.00,4741.00197,N,00310.28756,W,1,04,1.96,26.9,M,49.4,M,,*77
$GPGSA,A,3,27,18,07,23,,,,,,,,,3.10,1.96,2.40*02
$GPGSV,2,1,07,07,09,329,27,08,,,30,10,,,35,16,,,25*42
$GPGSV,2,2,07,18,46,056,22,23,33,115,24,27,53,284,38*42
$GPGLL,4741.00197,N,00310.28756,W,070115.00,A,A*7C
$BMXDR,H,67.5,P,0,C,23.5,C,1,P,101744,P,2*6D
$BMMDA,30.045,I,1.017,B,23.5,C,,,67.5,,,,,,,,,,,*3A
$BMMTA,23.5,C*0E
$BMMMB,30.0485,I,1.0174,B*7F
$GPRMC,070116.00,A,4741.00209,N,00310.28751,W,0.115,,040822,,,A*6C
$GPVTG,,T,,M,0.115,N,0.213,K,A*26
$GPGGA,070116.00,4741.00209,N,00310.28751,W,1,04,1.96,26.8,M,49.4,M,,*76
$GPGSA,A,3,27,18,07,23,,,,,,,,,3.10,1.96,2.40*02
$GPGSV,2,1,07,07,09,329,26,08,,,29,10,,,35,16,,,24*4A
$GPGSV,2,2,07,18,46,056,21,23,33,115,24,27,53,284,36*4F
$GPGLL,4741.00209,N,00310.28751,W,070116.00,A,A*7C
$BMXDR,H,67.2,P,0,C,23.5,C,1,P,101739,P,2*60
$BMMDA,30.044,I,1.017,B,23.5,C,,,67.2,,,,,,,,,,,*3C
$BMMTA,23.5,C*0E
$BMMMB,30.0470,I,1.0174,B*75
$GPRMC,070117.00,A,4741.00236,N,00310.28731,W,0.503,,040822,,,A*64
$GPVTG,,T,,M,0.503,N,0.932,K,A*2D
$GPGGA,070117.00,4741.00236,N,00310.28731,W,1,04,1.96,27.1,M,49.4,M,,*75
$GPGSA,A,3,27,18,07,23,,,,,,,,,3.10,1.96,2.40*02
$GPGSV,2,1,07,07,09,329,27,08,,,31,10,,,35,16,,,24*42
$GPGSV,2,2,07,18,46,056,21,23,33,115,25,27,53,284,35*4D
$GPGLL,4741.00236,N,00310.28731,W,070117.00,A,A*77
$BMXDR,H,66.9,P,0,C,23.5,C,1,P,101743,P,2*67
$BMMDA,30.045,I,1.017,B,23.5,C,,,66.9,,,,,,,,,,,*37
$BMMTA,23.5,C*0E
$BMMMB,30.0483,I,1.0174,B*79
$GPRMC,070118.00,A,4741.00269,N,00310.28705,W,0.607,,040822,,,A*61
$GPVTG,,T,,M,0.607,N,1.124,K,A*24
$GPGGA,070118.00,4741.00269,N,00310.28705,W,1,04,1.96,27.4,M,49.4,M,,*72
$GPGSA,A,3,27,18,07,23,,,,,,,,,3.10,1.96,2.40*02
$GPGSV,2,1,08,07,09,329,26,08,,,30,10,,,35,16,,,25*4C
$GPGSV,2,2,08,18,46,056,21,23,33,115,27,26,,,29,27,53,284,36*4C
$GPGLL,4741.00269,N,00310.28705,W,070118.00,A,A*75
$BMXDR,H,67.6,P,0,C,23.5,C,1,P,101743,P,2*69
$BMMDA,30.045,I,1.017,B,23.5,C,,,67.6,,,,,,,,,,,*39
$BMMTA,23.5,C*0E
$BMMMB,30.0481,I,1.0174,B*7B
$GPRMC,070119.00,A,4741.00268,N,00310.28700,W,0.383,,040822,,,A*6D
$GPVTG,,T,,M,0.383,N,0.710,K,A*2D
$GPGGA,070119.00,4741.00268,N,00310.28700,W,1,04,1.96,27.1,M,49.4,M,,*72
$GPGSA,A,3,27,18,07,23,,,,,,,,,3.10,1.96,2.40*02
$GPGSV,2,1,08,07,09,329,25,08,,,31,10,,,34,16,,,25*4F
$GPGSV,2,2,08,18,46,056,24,23,33,115,27,26,,,29,27,53,284,36*49
$GPGLL,4741.00268,N,00310.28700,W,070119.00,A,A*70
$BMXDR,H,67.2,P,0,C,23.5,C,1,P,101745,P,2*6B
$BMMDA,30.045,I,1.017,B,23.5,C,,,67.2,,,,,,,,,,,*3D
$BMMTA,23.5,C*0E
$BMMMB,30.0488,I,1.0175,B*73
$GPRMC,070120.00,A,4741.00209,N,00310.28730,W,0.945,,040822,,,A*63
$GPVTG,,T,,M,0.945,N,1.750,K,A*28
$GPGGA,070120.00,4741.00209,N,00310.28730,W,1,04,1.96,26.4,M,49.4,M,,*78
$GPGSA,A,3,27,18,07,23,,,,,,,,,3.10,1.96,2.40*02
$GPGSV,2,1,08,07,09,329,23,08,,,27,10,,,35,16,,,23*49
$GPGSV,2,2,08,18,46,056,22,23,33,115,27,26,,,28,27,53,284,33*4B
$GPGLL,4741.00209,N,00310.28730,W,070120.00,A,A*7E
$GPRMC,070121.00,A,4741.00160,N,00310.28755,W,1.319,205.41,040822,,,A*73
$BMXDR,H,67.7,P,0,C,23.5,C,1,P,101741,P,2*6A
$GPVTG,205.41,T,,M,1.319,N,2.443,K,A*34
$BMMDA,30.044,I,1.017,B,23.5,C,,,67.7,,,,,,,,,,,*39
$GPGGA,070121.00,4741.00160,N,00310.28755,W,1,04,1.96,26.0,M,49.4,M,,*72
$BMMTA,23.5,C*0E
$GPGSA,A,3,27,18,07,23,,,,,,,,,3.10,1.96,2.40*02
$BMMMB,30.0474,I,1.0174,B*71
$GPGSV,2,1,08,07,09,329,23,08,,,29,10,,,34,16,,,23*46
$GPGSV,2,2,08,18,46,056,20,23,33,115,27,26,,,28,27,53,284,35*4F
$GPGLL,4741.00160,N,00310.28755,W,070121.00,A,A*70
$GPRMC,070122.00,A,4741.00091,N,00310.28826,W,1.914,212.32,040822,,,A*71
$GPVTG,212.32,T,,M,1.914,N,3.545,K,A*37
$GPGGA,070122.00,4741.00091,N,00310.28826,W,1,04,1.96,24.9,M,49.4,M,,*7E
$GPGSA,A,3,27,18,07,23,,,,,,,,,3.10,1.96,2.40*02
$GPGSV,2,1,08,07,09,329,35,08,,,21,10,,,34,16,,,23*49
$GPGSV,2,2,08,18,46,056,19,23,33,115,27,26,,,29,27,53,284,23*43
$GPGLL,4741.00091,N,00310.28826,W,070122.00,A,A*77
$BMXDR,H,67.4,P,0,C,23.5,C,1,P,101742,P,2*6A
$BMMDA,30.044,I,1.017,B,23.5,C,,,67.4,,,,,,,,,,,*3A
$BMMTA,23.5,C*0E
$BMMMB,30.0477,I,1.0174,B*72
$GPRMC,070123.00,A,4741.00108,N,00310.28823,W,0.234,,040822,,,A*62
$GPVTG,,T,,M,0.234,N,0.434,K,A*25
$GPGGA,070123.00,4741.00108,N,00310.28823,W,1,04,1.96,24.8,M,49.4,M,,*7A
$GPGSA,A,3,27,18,07,23,,,,,,,,,3.10,1.96,2.40*02
$GPGSV,2,1,08,07,09,329,34,08,,,29,10,,,34,16,,,24*47
$GPGSV,2,2,08,18,46,056,17,23,33,115,27,26,,,29,27,53,284,34*4B
$GPGLL,4741.00108,N,00310.28823,W,070123.00,A,A*72
$BMXDR,H,67.2,P,0,C,23.6,C,1,P,101742,P,2*6F
$BMMDA,30.044,I,1.017,B,23.6,C,,,67.2,,,,,,,,,,,*3F
$BMMTA,23.6,C*0D
$BMMMB,30.0477,I,1.0174,B*72
$GPRMC,070124.00,A,4741.00110,N,00310.28823,W,0.090,,040822,,,A*60
$GPVTG,,T,,M,0.090,N,0.166,K,A*2B
$GPGGA,070124.00,4741.00110,N,00310.28823,W,1,04,1.96,24.5,M,49.4,M,,*79
$GPGSA,A,3,27,18,07,23,,,,,,,,,3.10,1.96,2.40*02
$GPGSV,2,1,08,07,09,329,34,08,,,29,10,,,34,16,,,26*45
$GPGSV,2,2,08,18,46,056,15,23,33,115,27,26,,,29,27,53,284,35*48
$GPGLL,4741.00110,N,00310.28823,W,070124.00,A,A*7C
$BMXDR,H,66.7,P,0,C,23.6,C,1,P,101743,P,2*6A
$BMMDA,30.045,I,1.017,B,23.6,C,,,66.7,,,,,,,,,,,*3A
$BMMTA,23.6,C*0D
$BMMMB,30.0480,I,1.0174,B*7A
$GPRMC,070125.00,A,4741.00083,N,00310.28846,W,0.159,,040822,,,A*6D
$GPVTG,,T,,M,0.159,N,0.295,K,A*20
$GPGGA,070125.00,4741.00083,N,00310.28846,W,1,04,1.96,24.0,M,49.4,M,,*75
$GPGSA,A,3,27,18,07,23,,,,,,,,,3.10,1.96,2.40*02
$GPGSV,2,1,08,07,09,329,35,08,,,29,10,,,33,16,,,26*43
$GPGSV,2,2,08,18,46,056,15,23,33,115,26,26,,,29,27,53,284,35*49
$GPGLL,4741.00083,N,00310.28846,W,070125.00,A,A*75
$BMXDR,H,66.6,P,0,C,23.6,C,1,P,101741,P,2*69
$BMMDA,30.044,I,1.017,B,23.6,C,,,66.6,,,,,,,,,,,*3A
$BMMTA,23.6,C*0D
$BMMMB,30.0475,I,1.0174,B*70
$GPRMC,070126.00,A,4741.00075,N,00310.28854,W,0.055,,040822,,,A*69
$GPVTG,,T,,M,0.055,N,0.101,K,A*23
$GPGGA,070126.00,4741.00075,N,00310.28854,W,1,04,1.96,23.5,M,49.4,M,,*7E
$GPGSA,A,3,27,18,07,23,,,,,,,,,3.10,1.96,2.40*02
$GPGSV,2,1,08,07,09,329,34,08,,,29,10,,,33,16,,,26*42
$GPGSV,2,2,08,18,46,056,17,23,33,115,26,26,,,30,27,53,284,34*42
$GPGLL,4741.00075,N,00310.28854,W,070126.00,A,A*7C
$BMXDR,H,68.1,P,0,C,23.6,C,1,P,101742,P,2*63
$BMMDA,30.044,I,1.017,B,23.6,C,,,68.1,,,,,,,,,,,*33
$BMMTA,23.6,C*0D
$BMMMB,30.0479,I,1.0174,B*7C
$GPRMC,070127.00,A,4740.99865,N,00310.28974,W,0.246,,040822,,,A*63
$GPVTG,,T,,M,0.246,N,0.456,K,A*24
$GPGGA,070127.00,4740.99865,N,00310.28974,W,1,05,1.42,19.3,M,49.4,M,,*73
$GPGSA,A,3,10,27,18,07,23,,,,,,,,2.36,1.42,1.89*09
$GPGSV,2,1,08,07,09,329,34,08,,,29,10,20,145,34,16,,,26*77
$GPGSV,2,2,08,18,46,056,19,23,33,115,28,26,,,30,27,53,284,35*43
$GPGLL,4740.99865,N,00310.28974,W,070127.00,A,A*76
$BMXDR,H,67.9,P,0,C,23.6,C,1,P,101742,P,2*64
$BMMDA,30.044,I,1.017,B,23.6,C,,,67.9,,,,,,,,,,,*34
$BMMTA,23.6,C*0D
$BMMMB,30.0479,I,1.0174,B*7C
$GPRMC,070128.00,A,4740.99787,N,00310.29023,W,0.302,,040822,,,A*64
$GPVTG,,T,,M,0.302,N,0.560,K,A*21
$GPGGA,070128.00,4740.99787,N,00310.29023,W,1,05,1.42,17.9,M,49.4,M,,*71
$GPGSA,A,3,10,27,18,07,23,,,,,,,,2.36,1.42,1.89*09
$GPGSV,2,1,08,07,09,329,34,08,,,29,10,20,145,34,16,,,26*77
$GPGSV,2,2,08,18,46,056,20,23,33,115,28,26,,,29,27,53,284,35*41
$GPGLL,4740.99787,N,00310.29023,W,070128.00,A,A*70
$BMXDR,H,67.2,P,0,C,23.6,C,1,P,101741,P,2*6C
$BMMDA,30.044,I,1.017,B,23.6,C,,,67.2,,,,,,,,,,,*3F
$BMMTA,23.6,C*0D
$BMMMB,30.0476,I,1.0174,B*73
$GPRMC,070129.00,A,4740.99760,N,00310.29039,W,0.067,,040822,,,A*67
$GPVTG,,T,,M,0.067,N,0.123,K,A*22
$GPGGA,070129.00,4740.99760,N,00310.29039,W,1,05,1.42,17.3,M,49.4,M,,*78
$GPGSA,A,3,10,27,18,07,23,,,,,,,,2.36,1.42,1.89*09
$GPGSV,2,1,08,07,09,329,34,08,,,30,10,20,145,33,16,,,27*79
$GPGSV,2,2,08,18,46,056,20,23,33,115,28,26,,,29,27,53,284,35*41
$GPGLL,4740.99760,N,00310.29039,W,070129.00,A,A*73
$GPRMC,070130.00,A,4740.99743,N,00310.29040,W,0.025,,040822,,,A*66
$BMXDR,H,66.8,P,0,C,23.6,C,1,P,101745,P,2*63
$GPVTG,,T,,M,0.025,N,0.046,K,A*26
$GPGGA,070130.00,4740.99743,N,00310.29040,W,1,05,1.42,17.0,M,49.4,M,,*7C
$BMMDA,30.045,I,1.017,B,23.6,C,,,66.8,,,,,,,,,,,*35
$GPGSA,A,3,10,27,18,07,23,,,,,,,,2.36,1.42,1.89*09
$BMMTA,23.6,C*0D
$GPGSV,2,1,08,07,09,329,34,08,,,30,10,20,145,33,16,,,26*78
$BMMMB,30.0486,I,1.0174,B*7C
$GPGSV,2,2,08,18,46,056,20,23,33,115,28,26,,,29,27,53,284,35*41
$GPGLL,4740.99743,N,00310.29040,W,070130.00,A,A*74
$GPRMC,070131.00,A,4740.99737,N,00310.29033,W,0.120,,040822,,,A*64
$GPVTG,,T,,M,0.120,N,0.222,K,A*22
$GPGGA,070131.00,4740.99737,N,00310.29033,W,1,05,1.42,16.8,M,49.4,M,,*73
$GPGSA,A,3,10,27,18,07,23,,,,,,,,2.36,1.42,1.89*09
$GPGSV,2,1,08,07,09,329,35,08,,,30,10,20,145,33,16,,,27*78
$GPGSV,2,2,08,18,46,056,19,23,33,115,28,26,,,29,27,53,284,36*48
$GPGLL,4740.99737,N,00310.29033,W,070131.00,A,A*72
$BMXDR,H,66.8,P,0,C,23.6,C,1,P,101744,P,2*62
$BMMDA,30.045,I,1.017,B,23.6,C,,,66.8,,,,,,,,,,,*35
$BMMTA,23.6,C*0D
$BMMMB,30.0485,I,1.0174,B*7F
$GPRMC,070132.00,A,4740.99728,N,00310.29034,W,0.095,,040822,,,A*61
$GPVTG,,T,,M,0.095,N,0.175,K,A*2C
$GPGGA,070132.00,4740.99728,N,00310.29034,W,1,05,1.42,16.5,M,49.4,M,,*74
$GPGSA,A,3,10,27,18,07,23,,,,,,,,2.36,1.42,1.89*09
$GPGSV,2,1,08,07,09,329,35,08,,,31,10,20,145,33,16,,,27*79
$GPGSV,2,2,08,18,46,056,19,23,33,115,28,26,,,28,27,53,284,36*49
$GPGLL,4740.99728,N,00310.29034,W,070132.00,A,A*78
$BMXDR,H,66.7,P,0,C,23.6,C,1,P,101744,P,2*6D
$BMMDA,30.045,I,1.017,B,23.6,C,,,66.7,,,,,,,,,,,*3A
$BMMTA,23.6,C*0D
$BMMMB,30.0486,I,1.0174,B*7C
$GPRMC,070133.00,A,4740.99721,N,00310.29028,W,0.242,,040822,,,A*6C
$GPVTG,,T,,M,0.242,N,0.448,K,A*2F
$GPGGA,070133.00,4740.99721,N,00310.29028,W,1,05,1.42,16.4,M,49.4,M,,*70
$GPGSA,A,3,10,27,18,07,23,,,,,,,,2.36,1.42,1.89*09
$GPGSV,2,1,08,07,09,329,35,08,,,31,10,20,145,34,16,,,27*7E
$GPGSV,2,2,08,18,46,056,20,23,33,115,27,26,,,28,27,53,284,36*4C
$GPGLL,4740.99721,N,00310.29028,W,070133.00,A,A*7D
$BMXDR,H,66.9,P,0,C,23.6,C,1,P,101739,P,2*69
$BMMDA,30.044,I,1.017,B,23.6,C,,,66.9,,,,,,,,,,,*35
$BMMTA,23.6,C*0D
$BMMMB,30.0471,I,1.0174,B*74
$GPRMC,070134.00,A,4740.99726,N,00310.29013,W,0.362,,040822,,,A*67
$GPVTG,,T,,M,0.362,N,0.671,K,A*24
$GPGGA,070134.00,4740.99726,N,00310.29013,W,1,05,1.42,16.6,M,49.4,M,,*7A
$GPGSA,A,3,10,27,18,07,23,,,,,,,,2.36,1.42,1.89*09
$GPGSV,2,1,08,07,09,329,35,08,,,31,10,20,145,34,16,,,27*7E
$GPGSV,2,2,08,18,46,056,20,23,33,115,26,26,,,30,27,53,284,35*47
$GPGLL,4740.99726,N,00310.29013,W,070134.00,A,A*75
$BMXDR,H,67.8,P,0,C,23.6,C,1,P,101745,P,2*62
$BMMDA,30.045,I,1.017,B,23.6,C,,,67.8,,,,,,,,,,,*34
$BMMTA,23.6,C*0D
$BMMMB,30.0487,I,1.0174,B*7D
$GPRMC,070135.00,A,4740.99734,N,00310.28994,W,0.354,,040822,,,A*67
$GPVTG,,T,,M,0.354,N,0.656,K,A*24
$GPGGA,070135.00,4740.99734,N,00310.28994,W,1,05,1.42,16.8,M,49.4,M,,*71
$GPGSA,A,3,10,27,18,07,23,,,,,,,,2.36,1.42,1.89*09
$GPGSV,2,1,08,07,09,329,35,08,,,31,10,20,145,34,16,,,27*7E
$GPGSV,2,2,08,18,46,056,21,23,33,115,26,26,,,30,27,53,284,36*45
$GPGLL,4740.99734,N,00310.28994,W,070135.00,A,A*70
$BMXDR,H,68.7,P,0,C,23.6,C,1,P,101748,P,2*6F
$BMMDA,30.046,I,1.017,B,23.6,C,,,68.7,,,,,,,,,,,*37
$BMMTA,23.6,C*0D
$BMMMB,30.0496,I,1.0175,B*7C
$GPRMC,070136.00,A,4740.99740,N,00310.28978,W,0.412,,040822,,,A*60
$GPVTG,,T,,M,0.412,N,0.763,K,A*26
$GPGGA,070136.00,4740.99740,N,00310.28978,W,1,05,1.42,16.9,M,49.4,M,,*72
$GPGSA,A,3,10,27,18,07,23,,,,,,,,2.36,1.42,1.89*09
$GPGSV,2,1,08,07,09,329,34,08,,,31,10,20,145,34,16,,,27*7F
$GPGSV,2,2,08,18,46,056,21,23,33,115,26,26,,,30,27,53,284,36*45
$GPGLL,4740.99740,N,00310.28978,W,070136.00,A,A*72
$BMXDR,H,68.8,P,0,C,23.6,C,1,P,101743,P,2*6B
$BMMDA,30.045,I,1.017,B,23.6,C,,,68.8,,,,,,,,,,,*3B
$BMMTA,23.6,C*0D
$BMMMB,30.0482,I,1.0174,B*78
$GPRMC,070137.00,A,4740.99745,N,00310.28966,W,0.225,,040822,,,A*69
$GPVTG,,T,,M,0.225,N,0.417,K,A*24
$GPGGA,070137.00,4740.99745,N,00310.28966,W,1,05,1.42,17.1,M,49.4,M,,*70
$GPGSA,A,3,10,27,18,07,23,,,,,,,,2.36,1.42,1.89*09
$GPGSV,2,1,08,07,09,329,34,08,,,31,10,20,145,34,16,,,26*7E
$GPGSV,2,2,08,18,46,056,19,23,33,115,25,26,,,29,27,53,284,35*46
$GPGLL,4740.99745,N,00310.28966,W,070137.00,A,A*79
$BMXDR,H,68.0,P,0,C,23.6,C,1,P,101740,P,2*60
$BMMDA,30.044,I,1.017,B,23.6,C,,,68.0,,,,,,,,,,,*32
$BMMTA,23.6,C*0D
$BMMMB,30.0473,I,1.0174,B*76
$GPRMC,070138.00,A,4740.99747,N,00310.28959,W,0.022,,040822,,,A*6D
$GPVTG,,T,,M,0.022,N,0.040,K,A*27
$GPGGA,070138.00,4740.99747,N,00310.28959,W,1,05,1.42,17.1,M,49.4,M,,*71
$GPGSA,A,3,10,27,18,07,23,,,,,,,,2.36,1.42,1.89*09
$GPGSV,2,1,08,07,09,329,34,08,,,30,10,20,145,33,16,,,26*78
$GPGSV,2,2,08,18,46,056,20,23,33,115,25,26,,,29,27,53,284,35*4C
$GPGLL,4740.99747,N,00310.28959,W,070138.00,A,A*78
$GPRMC,070139.00,A,4740.99736,N,00310.28978,W,0.550,,040822,,,A*69
$BMXDR,H,67.2,P,0,C,23.6,C,1,P,101742,P,2*6F
$GPVTG,,T,,M,0.550,N,1.018,K,A*2B
$BMMDA,30.045,I,1.017,B,23.6,C,,,67.2,,,,,,,,,,,*3E
$GPGGA,070139.00,4740.99736,N,00310.28978,W,1,05,1.42,16.9,M,49.4,M,,*7C
$BMMTA,23.6,C*0D
$GPGSA,A,3,10,27,18,07,23,,,,,,,,2.36,1.42,1.89*09
$BMMMB,30.0480,I,1.0174,B*7A
$GPGSV,2,1,08,07,09,329,34,08,,,31,10,20,145,33,16,,,27*78
$GPGSV,2,2,08,18,46,056,21,23,33,115,25,26,,,29,27,53,284,36*4E
$GPGLL,4740.99736,N,00310.28978,W,070139.00,A,A*7C
$GPRMC,070140.00,A,4740.99736,N,00310.28973,W,0.134,,040822,,,A*6A
$GPVTG,,T,,M,0.134,N,0.248,K,A*2B
$GPGGA,070140.00,4740.99736,N,00310.28973,W,1,05,1.42,16.9,M,49.4,M,,*79
$GPGSA,A,3,10,27,18,07,23,,,,,,,,2.36,1.42,1.89*09
$GPGSV,2,1,08,07,09,329,34,08,,,31,10,20,145,33,16,,,27*78
$GPGSV,2,2,08,18,46,056,22,23,33,115,24,26,,,28,27,53,284,36*4D
$GPGLL,4740.99736,N,00310.28973,W,070140.00,A,A*79
$BMXDR,H,66.8,P,0,C,23.6,C,1,P,101741,P,2*67
$BMMDA,30.044,I,1.017,B,23.6,C,,,66.8,,,,,,,,,,,*34
$BMMTA,23.6,C*0D
$BMMMB,30.0477,I,1.0174,B*72
$GPRMC,070141.00,A,4740.99729,N,00310.28976,W,0.295,,040822,,,A*68
$GPVTG,,T,,M,0.295,N,0.546,K,A*2A
$GPGGA,070141.00,4740.99729,N,00310.28976,W,1,05,1.42,16.8,M,49.4,M,,*72
$GPGSA,A,3,10,27,18,07,23,,,,,,,,2.36,1.42,1.89*09
$GPGSV,2,1,08,07,09,329,34,08,,,31,10,20,145,34,16,,,26*7E
$GPGSV,2,2,08,18,46,056,22,23,33,115,25,26,,,29,27,53,284,36*4D
$GPGLL,4740.99729,N,00310.28976,W,070141.00,A,A*73
$BMXDR,H,66.4,P,0,C,23.6,C,1,P,101732,P,2*6F
$BMMDA,30.041,I,1.017,B,23.6,C,,,66.4,,,,,,,,,,,*3D
$BMMTA,23.6,C*0D
$BMMMB,30.0448,I,1.0173,B*79
$GPRMC,070142.00,A,4740.99728,N,00310.28975,W,0.291,,040822,,,A*6D
$GPVTG,,T,,M,0.291,N,0.540,K,A*28
$GPGGA,070142.00,4740.99728,N,00310.28975,W,1,05,1.42,16.8,M,49.4,M,,*73
$GPGSA,A,3,10,27,18,07,23,,,,,,,,2.36,1.42,1.89*09
$GPGSV,2,1,08,07,09,329,34,08,,,31,10,20,145,29,16,,,25*71
$GPGSV,2,2,08,18,46,056,20,23,33,115,27,26,,,30,27,53,284,35*46
$GPGLL,4740.99728,N,00310.28975,W,070142.00,A,A*72
$BMXDR,H,66.0,P,0,C,23.6,C,1,P,101746,P,2*68
$BMMDA,30.046,I,1.017,B,23.6,C,,,66.0,,,,,,,,,,,*3E
$BMMTA,23.6,C*0D
$BMMMB,30.0490,I,1.0175,B*7A
$GPRMC,070143.00,A,4740.99730,N,00310.28974,W,0.101,,040822,,,A*6E
$GPVTG,,T,,M,0.101,N,0.186,K,A*2C
$GPGGA,070143.00,4740.99730,N,00310.28974,W,1,05,1.42,16.9,M,49.4,M,,*7B
$GPGSA,A,3,10,27,18,07,23,,,,,,,,2.37,1.42,1.89*08
$GPGSV,2,1,08,07,09,329,34,08,,,30,10,20,145,21,16,,,26*7B
$GPGSV,2,2,08,18,46,056,18,23,33,115,28,26,,,28,27,53,284,35*4B
$GPGLL,4740.99730,N,00310.28974,W,070143.00,A,A*7B
$BMXDR,H,65.9,P,0,C,23.6,C,1,P,101740,P,2*64
$BMMDA,30.044,I,1.017,B,23.6,C,,,65.9,,,,,,,,,,,*36
$BMMTA,23.6,C*0D
$BMMMB,30.0472,I,1.0174,B*77
$GPRMC,070144.00,A,4740.99730,N,00310.28974,W,0.106,,040822,,,A*6E
$GPVTG,,T,,M,0.106,N,0.196,K,A*2A
$GPGGA,070144.00,4740.99730,N,00310.28974,W,1,05,1.42,17.0,M,49.4,M,,*74
$GPGSA,A,3,10,27,18,07,23,,,,,,,,2.37,1.42,1.89*08
$GPGSV,2,1,08,07,09,329,34,08,,,30,10,20,145,21,16,,,26*7B
$GPGSV,2,2,08,18,46,056,16,23,33,115,30,26,,,28,27,53,284,35*4C
$GPGLL,4740.99730,N,00310.28974,W,070144.00,A,A*7C
$BMXDR,H,66.7,P,0,C,23.6,C,1,P,101740,P,2*69
$BMMDA,30.044,I,1.017,B,23.6,C,,,66.7,,,,,,,,,,,*3B
$BMMTA,23.6,C*0D
$BMMMB,30.0473,I,1.0174,B*76
$GPRMC,070145.00,A,4740.99706,N,00310.29004,W,0.609,,040822,,,A*6D
$GPVTG,,T,,M,0.609,N,1.129,K,A*27
$GPGGA,070145.00,4740.99706,N,00310.29004,W,1,05,1.42,16.6,M,49.4,M,,*78
$GPGSA,A,3,10,27,18,07,23,,,,,,,,2.37,1.42,1.89*08
$GPGSV,2,1,08,07,09,329,34,08,,,31,10,20,145,22,16,,,26*79
$GPGSV,2,2,08,18,46,056,17,23,33,115,31,26,,,28,27,53,284,36*4F
$GPGLL,4740.99706,N,00310.29004,W,070145.00,A,A*77
$BMXDR,H,66.0,P,0,C,23.6,C,1,P,101743,P,2*6D
$BMMDA,30.045,I,1.017,B,23.6,C,,,66.0,,,,,,,,,,,*3D
$BMMTA,23.6,C*0D
$BMMMB,30.0482,I,1.0174,B*78
$GPRMC,070146.00,A,4740.99719,N,00310.28991,W,0.042,,040822,,,A*6D
$GPVTG,,T,,M,0.042,N,0.078,K,A*2A
$GPGGA,070146.00,4740.99719,N,00310.28991,W,1,05,1.42,16.9,M,49.4,M,,*7E
$GPGSA,A,3,10,27,18,07,23,,,,,,,,2.37,1.42,1.89*08
$GPGSV,2,1,08,07,09,329,34,08,,,31,10,20,145,22,16,,,26*79
$GPGSV,2,2,08,18,46,056,17,23,33,115,32,26,,,28,27,53,284,36*4C
$GPGLL,4740.99719,N,00310.28991,W,070146.00,A,A*7E
$BMXDR,H,66.3,P,0,C,23.6,C,1,P,101743,P,2*6E
$BMMDA,30.045,I,1.017,B,23.6,C,,,66.3,,,,,,,,,,,*3E
$BMMTA,23.6,C*0D
$BMMMB,30.0481,I,1.0174,B*7B
$GPRMC,070147.00,A,4740.99743,N,00310.28969,W,0.224,,040822,,,A*66
$GPVTG,,T,,M,0.224,N,0.415,K,A*27
$GPGGA,070147.00,4740.99743,N,00310.28969,W,1,05,1.42,17.4,M,49.4,M,,*7B
$GPGSA,A,3,10,27,18,07,23,,,,,,,,2.37,1.42,1.89*08
$GPGSV,2,1,08,07,09,329,35,08,,,31,10,20,145,23,16,,,26*79
$GPGSV,2,2,08,18,46,056,17,23,33,115,32,26,,,28,27,53,284,36*4C
$GPGLL,4740.99743,N,00310.28969,W,070147.00,A,A*77
$GPRMC,070148.00,A,4740.99760,N,00310.28952,W,0.167,,040822,,,A*64
$BMXDR,H,67.6,P,0,C,23.6,C,1,P,101742,P,2*6B
$GPVTG,,T,,M,0.167,N,0.308,K,A*28
$BMMDA,30.044,I,1.017,B,23.6,C,,,67.6,,,,,,,,,,,*3B
$GPGGA,070148.00,4740.99760,N,00310.28952,W,1,05,1.42,17.8,M,49.4,M,,*71
$GPGSA,A,3,10,27,18,07,23,,,,,,,,2.37,1.42,1.89*08
$BMMTA,23.6,C*0D
$GPGSV,2,1,08,07,09,329,34,08,,,30,10,20,145,22,16,,,25*7B
$BMMMB,30.0478,I,1.0174,B*7D
$GPGSV,2,2,08,18,46,056,17,23,33,115,30,26,,,27,27,53,284,35*42
$GPGLL,4740.99760,N,00310.28952,W,070148.00,A,A*71
$GPRMC,070149.00,A,4740.99776,N,00310.28937,W,0.175,,040822,,,A*62
$GPVTG,,T,,M,0.175,N,0.324,K,A*25
$GPGGA,070149.00,4740.99776,N,00310.28937,W,1,05,1.42,18.1,M,49.4,M,,*72
$GPGSA,A,3,10,27,18,07,23,,,,,,,,2.37,1.42,1.89*08
$GPGSV,2,1,08,07,09,329,34,08,,,30,10,20,145,23,16,,,26*79
$GPGSV,2,2,08,18,46,056,18,23,33,115,31,26,,,27,27,53,284,36*4F
$GPGLL,4740.99776,N,00310.28937,W,070149.00,A,A*74
$BMXDR,H,67.2,P,0,C,23.7,C,1,P,101744,P,2*68
$BMMDA,30.045,I,1.017,B,23.7,C,,,67.2,,,,,,,,,,,*3F
$BMMTA,23.7,C*0C
$BMMMB,30.0485,I,1.0174,B*7F
$GPRMC,070150.00,A,4740.99774,N,00310.28931,W,0.082,,040822,,,A*67
$GPVTG,,T,,M,0.082,N,0.151,K,A*2C
$GPGGA,070150.00,4740.99774,N,00310.28931,W,1,05,1.42,18.0,M,49.4,M,,*7F
$GPGSA,A,3,10,27,18,07,23,,,,,,,,2.37,1.42,1.89*08
$GPGSV,2,1,08,07,09,329,34,08,,,30,10,20,145,23,16,,,26*79
$GPGSV,2,2,08,18,46,056,17,23,33,115,31,26,,,27,27,53,284,35*43
$GPGLL,4740.99774,N,00310.28931,W,070150.00,A,A*78
$BMXDR,H,66.7,P,0,C,23.7,C,1,P,101743,P,2*6B
$BMMDA,30.045,I,1.017,B,23.7,C,,,66.7,,,,,,,,,,,*3B
$BMMTA,23.7,C*0C
$BMMMB,30.0480,I,1.0174,B*7A
$GPRMC,070151.00,A,4740.99787,N,00310.28912,W,0.081,,040822,,,A*68
$GPVTG,,T,,M,0.081,N,0.151,K,A*2F
$GPGGA,070151.00,4740.99787,N,00310.28912,W,1,06,1.34,18.3,M,49.4,M,,*72
$GPGSA,A,3,10,27,18,07,26,23,,,,,,,2.13,1.34,1.66*0A
$GPGSV,2,1,08,07,09,329,34,08,,,30,10,20,145,21,16,,,26*7B
$GPGSV,2,2,08,18,46,056,15,23,33,115,30,26,62,165,28,27,53,284,35*79
$GPGLL,4740.99787,N,00310.28912,W,070151.00,A,A*74
$BMXDR,H,66.4,P,0,C,23.7,C,1,P,101743,P,2*68
$BMMDA,30.045,I,1.017,B,23.7,C,,,66.4,,,,,,,,,,,*38
$BMMTA,23.7,C*0C
$BMMMB,30.0481,I,1.0174,B*7B
$GPRMC,070152.00,A,4740.99815,N,00310.28885,W,0.303,,040822,,,A*69
$GPVTG,,T,,M,0.303,N,0.561,K,A*21
$GPGGA,070152.00,4740.99815,N,00310.28885,W,1,06,1.34,18.8,M,49.4,M,,*71
$GPGSA,A,3,10,27,18,07,26,23,,,,,,,2.13,1.34,1.66*0A
$GPGSV,2,1,08,07,09,329,34,08,,,30,10,20,145,20,16,,,25*79
$GPGSV,2,2,08,18,46,056,13,23,33,115,31,26,62,165,27,27,53,284,36*72
$GPGLL,4740.99815,N,00310.28885,W,070152.00,A,A*7C
$BMXDR,H,66.2,P,0,C,23.7,C,1,P,101745,P,2*68
$BMMDA,30.045,I,1.017,B,23.7,C,,,66.2,,,,,,,,,,,*3E
$BMMTA,23.7,C*0C
$BMMMB,30.0486,I,1.0174,B*7C
$GPRMC,070153.00,A,4740.99812,N,00310.28893,W,0.126,,040822,,,A*6D
$GPVTG,,T,,M,0.126,N,0.233,K,A*24
$GPGGA,070153.00,4740.99812,N,00310.28893,W,1,06,1.34,18.7,M,49.4,M,,*7F
$GPGSA,A,3,10,27,18,07,26,23,,,,,,,2.13,1.34,1.66*0A
$GPGSV,2,1,08,07,09,329,34,08,,,30,10,20,145,18,16,,,26*71
$GPGSV,2,2,08,18,46,056,15,23,33,115,31,26,62,165,27,27,53,284,35*77
$GPGLL,4740.99812,N,00310.28893,W,070153.00,A,A*7D
$BMXDR,H,66.0,P,0,C,23.7,C,1,P,101746,P,2*69
$BMMDA,30.046,I,1.017,B,23.7,C,,,66.0,,,,,,,,,,,*3F
$BMMTA,23.7,C*0C
$BMMMB,30.0490,I,1.0175,B*7A
$GPRMC,070154.00,A,4740.99827,N,00310.28887,W,0.263,,040822,,,A*6B
$GPVTG,,T,,M,0.263,N,0.488,K,A*20
$GPGGA,070154.00,4740.99827,N,00310.28887,W,1,06,1.34,18.9,M,49.4,M,,*75
$GPGSA,A,3,10,27,18,07,26,23,,,,,,,2.13,1.34,1.66*0A
$GPGSV,2,1,08,07,09,329,34,08,,,30,10,20,145,22,16,,,26*78
$GPGSV,2,2,08,18,46,056,17,23,33,115,31,26,62,165,26,27,53,284,35*74
$GPGLL,4740.99827,N,00310.28887,W,070154.00,A,A*79
$BMXDR,H,66.4,P,0,C,23.7,C,1,P,101741,P,2*6A
$BMMDA,30.044,I,1.017,B,23.7,C,,,66.4,,,,,,,,,,,*39
$BMMTA,23.7,C*0C
$BMMMB,30.0476,I,1.0174,B*73
$GPRMC,070155.00,A,4740.99843,N,00310.28875,W,0.254,,040822,,,A*61
$GPVTG,,T,,M,0.254,N,0.470,K,A*23
$GPGGA,070155.00,4740.99843,N,00310.28875,W,1,06,1.34,19.1,M,49.4,M,,*72
$GPGSA,A,3,10,27,18,07,26,23,,,,,,,2.13,1.34,1.66*0A
$GPGSV,2,1,08,07,09,328,34,08,,,31,10,20,145,34,16,,,25*7C
$GPGSV,2,2,08,18,46,056,19,23,33,115,29,26,62,165,27,27,53,284,36*71
$GPGLL,4740.99843,N,00310.28875,W,070155.00,A,A*77
$BMXDR,H,66.1,P,0,C,23.7,C,1,P,101743,P,2*6D
$BMMDA,30.045,I,1.017,B,23.7,C,,,66.1,,,,,,,,,,,*3D
$BMMTA,23.7,C*0C
$BMMMB,30.0482,I,1.0174,B*78
$GPRMC,070156.00,A,4740.99808,N,00310.28906,W,0.214,,040822,,,A*6C
$GPVTG,,T,,M,0.214,N,0.396,K,A*28
$GPGGA,070156.00,4740.99808,N,00310.28906,W,1,06,1.34,18.2,M,49.4,M,,*79
$GPGSA,A,3,10,27,18,07,26,23,,,,,,,2.13,1.34,1.66*0A
$GPGSV,2,1,08,07,09,328,34,08,,,31,10,21,145,32,16,,,25*7B
$GPGSV,2,2,08,18,46,056,21,23,33,115,29,26,62,165,28,27,53,284,36*75
$GPGLL,4740.99808,N,00310.28906,W,070156.00,A,A*7E
$GPRMC,070157.00,A,4740.99747,N,00310.28996,W,0.704,223.17,040822,,,A*7F
$BMXDR,H,66.4,P,0,C,23.7,C,1,P,101742,P,2*69
$GPVTG,223.17,T,,M,0.704,N,1.304,K,A*3D
$BMMDA,30.044,I,1.017,B,23.7,C,,,66.4,,,,,,,,,,,*39
$GPGGA,070157.00,4740.99747,N,00310.28996,W,1,08,1.11,17.1,M,49.4,M,,*70
$BMMTA,23.7,C*0C
$GPGSA,A,3,10,27,18,07,26,08,16,23,,,,,1.70,1.11,1.28*0E
$BMMMB,30.0477,I,1.0174,B*72
$GPGSV,2,1,08,07,09,328,34,08,16,275,32,10,21,145,34,16,81,261,31*70
$GPGSV,2,2,08,18,46,056,23,23,33,115,34,26,62,165,29,27,53,284,36*7A
$GPGLL,4740.99747,N,00310.28996,W,070157.00,A,A*72
$GPRMC,070158.00,A,4740.99688,N,00310.29078,W,0.798,227.72,040822,,,A*78
$GPVTG,227.72,T,,M,0.798,N,1.479,K,A*32
$GPGGA,070158.00,4740.99688,N,00310.29078,W,1,08,1.11,15.8,M,49.4,M,,*7E
$GPGSA,A,3,10,27,18,07,26,08,16,23,,,,,1.70,1.11,1.28*0E
$GPGSV,2,1,08,07,09,328,33,08,16,275,31,10,21,145,34,16,81,261,30*75
$GPGSV,2,2,08,18,46,056,25,23,33,115,29,26,62,165,30,27,53,284,33*7D
$GPGLL,4740.99688,N,00310.29078,W,070158.00,A,A*77
$BMXDR,H,67.0,P,0,C,23.7,C,1,P,101740,P,2*6E
$BMMDA,30.044,I,1.017,B,23.7,C,,,67.0,,,,,,,,,,,*3C
$BMMTA,23.7,C*0C
$BMMMB,30.0471,I,1.0174,B*74
$GPRMC,070159.00,A,4740.99632,N,00310.29142,W,1.399,221.03,040822,,,A*74
$GPVTG,221.03,T,,M,1.399,N,2.591,K,A*32
$GPGGA,070159.00,4740.99632,N,00310.29142,W,1,08,1.11,15.2,M,49.4,M,,*7C
$GPGSA,A,3,10,27,18,07,26,08,16,23,,,,,1.70,1.11,1.28*0E
$GPGSV,2,1,08,07,09,328,32,08,16,275,29,10,21,145,34,16,81,261,29*75
$GPGSV,2,2,08,18,46,056,28,23,33,115,29,26,62,165,29,27,53,284,32*79
$GPGLL,4740.99632,N,00310.29142,W,070159.00,A,A*7F
$BMXDR,H,66.9,P,0,C,23.7,C,1,P,101734,P,2*65
$BMMDA,30.042,I,1.017,B,23.7,C,,,66.9,,,,,,,,,,,*32
$BMMTA,23.7,C*0C
$BMMMB,30.0456,I,1.0173,B*76
$GPRMC,070200.00,A,4740.99584,N,00310.29197,W,1.539,218.44,040822,,,A*78
$GPVTG,218.44,T,,M,1.539,N,2.851,K,A*36
$GPGGA,070200.00,4740.99584,N,00310.29197,W,1,08,1.11,15.0,M,49.4,M,,*77
$GPGSA,A,3,10,27,18,07,26,08,16,23,,,,,1.70,1.11,1.29*0F
$GPGSV,2,1,08,07,09,328,31,08,16,275,29,10,21,145,34,16,81,261,30*7E
$GPGSV,2,2,08,18,46,056,29,23,33,115,30,26,62,165,33,27,53,284,35*7C
$GPGLL,4740.99584,N,00310.29197,W,070200.00,A,A*76
$BMXDR,H,67.2,P,0,C,23.7,C,1,P,101738,P,2*63
$BMMDA,30.043,I,1.017,B,23.7,C,,,67.2,,,,,,,,,,,*39
$BMMTA,23.7,C*0C
$BMMMB,30.0467,I,1.0174,B*73
$GPRMC,070201.00,A,4740.99548,N,00310.29236,W,0.538,,040822,,,A*64
$GPVTG,,T,,M,0.538,N,0.996,K,A*2B
$GPGGA,070201.00,4740.99548,N,00310.29236,W,1,08,1.11,14.6,M,49.4,M,,*79
$GPGSA,A,3,10,27,18,07,26,08,16,23,,,,,1.70,1.11,1.29*0F
$GPGSV,2,1,08,07,09,328,32,08,16,275,28,10,21,145,34,16,81,261,28*75
$GPGSV,2,2,08,18,46,056,28,23,33,115,28,26,62,165,29,27,53,284,32*78
$GPGLL,4740.99548,N,00310.29236,W,070201.00,A,A*7F
$BMXDR,H,66.9,P,0,C,23.7,C,1,P,101738,P,2*69
$BMMDA,30.043,I,1.017,B,23.7,C,,,66.9,,,,,,,,,,,*33
$BMMTA,23.7,C*0C
$BMMMB,30.0468,I,1.0174,B*7C
$GPRMC,070202.00,A,4740.99512,N,00310.29266,W,0.486,,040822,,,A*69
$GPVTG,,T,,M,0.486,N,0.900,K,A*20
$GPGGA,070202.00,4740.99512,N,00310.29266,W,1,08,1.11,14.3,M,49.4,M,,*75
$GPGSA,A,3,10,27,18,07,26,08,16,23,,,,,1.70,1.11,1.29*0F
$GPGSV,2,1,08,07,09,328,33,08,16,275,28,10,21,145,32,16,81,261,26*7C
$GPGSV,2,2,08,18,46,056,28,23,33,115,27,26,62,165,29,27,53,284,32*77
$GPGLL,4740.99512,N,00310.29266,W,070202.00,A,A*76
$BMXDR,H,67.8,P,0,C,23.7,C,1,P,101737,P,2*66
$BMMDA,30.043,I,1.017,B,23.7,C,,,67.8,,,,,,,,,,,*33
$BMMTA,23.7,C*0C
$BMMMB,30.0462,I,1.0174,B*76
$GPRMC,070203.00,A,4740.99473,N,00310.29277,W,1.075,211.04,040822,,,A*7F
$GPVTG,211.04,T,,M,1.075,N,1.991,K,A*38
$GPGGA,070203.00,4740.99473,N,00310.29277,W,1,08,1.11,14.0,M,49.4,M,,*71
$GPGSA,A,3,10,27,18,07,26,08,16,23,,,,,1.70,1.11,1.29*0F
$GPGSV,2,1,08,07,09,328,33,08,16,275,29,10,21,145,31,16,81,261,27*7F
$GPGSV,2,2,08,18,46,056,29,23,33,115,26,26,62,165,30,27,53,284,33*7E
$GPGLL,4740.99473,N,00310.29277,W,070203.00,A,A*71
$BMXDR,H,67.6,P,0,C,23.6,C,1,P,101736,P,2*68
$BMMDA,30.043,I,1.017,B,23.6,C,,,67.6,,,,,,,,,,,*3C
$BMMTA,23.6,C*0D
$BMMMB,30.0460,I,1.0174,B*74
$GPRMC,070204.00,A,4740.99396,N,00310.29337,W,1.146,196.35,040822,,,A*7E
$GPVTG,196.35,T,,M,1.146,N,2.123,K,A*35
$GPGGA,070204.00,4740.99396,N,00310.29337,W,1,08,1.11,13.1,M,49.4,M,,*79
$GPGSA,A,3,10,27,18,07,26,08,16,23,,,,,1.70,1.11,1.29*0F
$GPGSV,2,1,08,07,09,328,32,08,16,275,26,10,21,145,25,16,81,261,28*7B
$GPGSV,2,2,08,18,46,056,37,23,33,115,25,26,62,165,29,27,53,284,32*7B
$GPGLL,4740.99396,N,00310.29337,W,070204.00,A,A*7F
$BMXDR,H,69.0,P,0,C,23.6,C,1,P,101730,P,2*66
$BMMDA,30.041,I,1.017,B,23.6,C,,,69.0,,,,,,,,,,,*36
$BMMTA,23.6,C*0D
$BMMMB,30.0442,I,1.0173,B*73
$GPRMC,070205.00,A,4740.99343,N,00310.29371,W,1.156,197.70,040822,,,A*74
$GPVTG,197.70,T,,M,1.156,N,2.141,K,A*30
$GPGGA,070205.00,4740.99343,N,00310.29371,W,1,08,1.11,12.7,M,49.4,M,,*75
$GPGSA,A,3,10,27,18,07,26,08,16,23,,,,,1.70,1.11,1.29*0F
$GPGSV,2,1,08,07,09,328,25,08,16,275,27,10,21,145,27,16,81,261,29*7F
$GPGSV,2,2,08,18,46,056,34,23,33,115,33,26,62,165,33,27,54,285,26*77
$GPGLL,4740.99343,N,00310.29371,W,070205.00,A,A*74
$GPRMC,070206.00,A,4740.99331,N,00310.29386,W,1.216,214.99,040822,,,A*72
$BMXDR,H,69.4,P,0,C,23.6,C,1,P,101738,P,2*6A
$GPVTG,214.99,T,,M,1.216,N,2.252,K,A*39
$BMMDA,30.043,I,1.017,B,23.6,C,,,69.4,,,,,,,,,,,*30
$GPGGA,070206.00,4740.99331,N,00310.29386,W,1,08,1.11,12.8,M,49.4,M,,*74
$BMMTA,23.6,C*0D
$GPGSA,A,3,10,27,18,07,26,08,16,23,,,,,1.70,1.11,1.29*0F
$BMMMB,30.0466,I,1.0174,B*72
$GPGSV,2,1,08,07,09,328,26,08,16,275,31,10,21,145,28,16,81,261,29*74
$GPGSV,2,2,08,18,46,056,34,23,33,115,36,26,62,165,32,27,54,285,31*75
$GPGLL,4740.99331,N,00310.29386,W,070206.00,A,A*7A
$GPRMC,070207.00,A,4740.99302,N,00310.29455,W,1.011,226.17,040822,,,A*78
$GPVTG,226.17,T,,M,1.011,N,1.872,K,A*30
$GPGGA,070207.00,4740.99302,N,00310.29455,W,1,08,1.11,12.4,M,49.4,M,,*70
$GPGSA,A,3,10,27,18,07,26,08,16,23,,,,,1.70,1.11,1.29*0F
$GPGSV,2,1,08,07,09,328,32,08,16,275,31,10,21,145,29,16,81,261,29*70
$GPGSV,2,2,08,18,46,056,34,23,33,115,37,26,62,165,33,27,54,285,31*75
$GPGLL,4740.99302,N,00310.29455,W,070207.00,A,A*72
$BMXDR,H,69.1,P,0,C,23.7,C,1,P,101743,P,2*62
$BMMDA,30.045,I,1.017,B,23.7,C,,,69.1,,,,,,,,,,,*32
$BMMTA,23.7,C*0C
$BMMMB,30.0482,I,1.0174,B*78
$GPRMC,070208.00,A,4740.99293,N,00310.29480,W,0.943,246.22,040822,,,A*79
$GPVTG,246.22,T,,M,0.943,N,1.746,K,A*37
$GPGGA,070208.00,4740.99293,N,00310.29480,W,1,08,1.11,12.1,M,49.4,M,,*7B
$GPGSA,A,3,10,27,18,07,26,08,16,23,,,,,1.70,1.11,1.29*0F
$GPGSV,2,1,08,07,09,328,32,08,16,275,32,10,21,145,32,16,81,261,30*71
$GPGSV,2,2,08,18,46,056,34,23,33,115,36,26,62,165,36,27,54,285,31*71
$GPGLL,4740.99293,N,00310.29480,W,070208.00,A,A*7C
$BMXDR,H,68.8,P,0,C,23.7,C,1,P,101744,P,2*6D
$BMMDA,30.045,I,1.017,B,23.7,C,,,68.8,,,,,,,,,,,*3A
$BMMTA,23.7,C*0C
$BMMMB,30.0484,I,1.0174,B*7E
$GPRMC,070209.00,A,4740.99283,N,00310.29488,W,0.159,,040822,,,A*6C
$GPVTG,,T,,M,0.159,N,0.295,K,A*20
$GPGGA,070209.00,4740.99283,N,00310.29488,W,1,08,1.11,11.9,M,49.4,M,,*78
$GPGSA,A,3,10,27,18,07,26,08,16,23,,,,,1.70,1.11,1.29*0F
$GPGSV,2,1,08,07,09,328,31,08,16,275,31,10,21,145,31,16,81,261,29*7A
$GPGSV,2,2,08,18,46,056,30,23,33,115,35,26,62,165,35,27,54,285,33*77
$GPGLL,4740.99283,N,00310.29488,W,070209.00,A,A*74
$BMXDR,H,68.5,P,0,C,23.7,C,1,P,101743,P,2*67
$BMMDA,30.045,I,1.017,B,23.7,C,,,68.5,,,,,,,,,,,*37
$BMMTA,23.7,C*0C
$BMMMB,30.0481,I,1.0174,B*7B
$GPRMC,070210.00,A,4740.99274,N,00310.29481,W,0.040,,040822,,,A*6C
$GPVTG,,T,,M,0.040,N,0.073,K,A*23
$GPGGA,070210.00,4740.99274,N,00310.29481,W,1,08,1.11,11.8,M,49.4,M,,*70
$GPGSA,A,3,10,27,18,07,26,08,16,23,,,,,1.70,1.11,1.29*0F
$GPGSV,2,1,08,07,09,328,31,08,16,275,31,10,21,145,33,16,81,261,29*78
$GPGSV,2,2,08,18,46,056,30,23,33,115,35,26,62,165,35,27,54,285,35*71
$GPGLL,4740.99274,N,00310.29481,W,070210.00,A,A*7D
$BMXDR,H,68.2,P,0,C,23.7,C,1,P,101743,P,2*60
$BMMDA,30.045,I,1.017,B,23.7,C,,,68.2,,,,,,,,,,,*30
$BMMTA,23.7,C*0C
$BMMMB,30.0481,I,1.0174,B*7B
$GPRMC,070211.00,A,4740.99273,N,00310.29464,W,0.193,,040822,,,A*6E
$GPVTG,,T,,M,0.193,N,0.357,K,A*29
$GPGGA,070211.00,4740.99273,N,00310.29464,W,1,08,1.11,11.7,M,49.4,M,,*72
$GPGSA,A,3,10,27,18,07,26,08,16,23,,,,,1.70,1.11,1.29*0F
$GPGSV,2,1,08,07,09,328,31,08,16,275,31,10,21,145,33,16,81,261,28*79
$GPGSV,2,2,08,18,46,056,30,23,33,115,35,26,62,165,34,27,54,285,35*70
$GPGLL,4740.99273,N,00310.29464,W,070211.00,A,A*70
$BMXDR,H,68.6,P,0,C,23.7,C,1,P,101743,P,2*64
$BMMDA,30.045,I,1.017,B,23.7,C,,,68.6,,,,,,,,,,,*34
$BMMTA,23.7,C*0C
$BMMMB,30.0480,I,1.0174,B*7A
$GPRMC,070212.00,A,4740.99272,N,00310.29452,W,0.016,,040822,,,A*65
$GPVTG,,T,,M,0.016,N,0.031,K,A*26
$GPGGA,070212.00,4740.99272,N,00310.29452,W,1,08,1.11,11.6,M,49.4,M,,*74
$GPGSA,A,3,10,27,18,07,26,08,16,23,,,,,1.70,1.11,1.29*0F
$GPGSV,2,1,08,07,09,328,31,08,16,275,31,10,21,145,33,16,81,261,28*79
$GPGSV,2,2,08,18,46,056,30,23,33,115,36,26,62,165,34,27,54,285,35*73
$GPGLL,4740.99272,N,00310.29452,W,070212.00,A,A*77
$BMXDR,H,68.6,P,0,C,23.7,C,1,P,101743,P,2*64
$BMMDA,30.045,I,1.017,B,23.7,C,,,68.6,,,,,,,,,,,*34
$BMMTA,23.7,C*0C
$BMMMB,30.0481,I,1.0174,B*7B
$GPRMC,070213.00,A,4740.99270,N,00310.29438,W,0.017,,040822,,,A*6B
$GPVTG,,T,,M,0.017,N,0.031,K,A*27
$GPGGA,070213.00,4740.99270,N,00310.29438,W,1,08,1.11,11.4,M,49.4,M,,*79
$GPGSA,A,3,10,27,18,07,26,08,16,23,,,,,1.70,1.11,1.29*0F
$GPGSV,2,1,08,07,09,328,31,08,16,275,31,10,21,145,34,16,81,261,28*7E
$GPGSV,2,2,08,18,46,056,30,23,33,115,35,26,62,165,34,27,54,285,36*73
$GPGLL,4740.99270,N,00310.29438,W,070213.00,A,A*78
$BMXDR,H,68.4,P,0,C,23.7,C,1,P,101739,P,2*6B
$BMMDA,30.044,I,1.017,B,23.7,C,,,68.4,,,,,,,,,,,*37
$BMMTA,23.7,C*0C
$BMMMB,30.0470,I,1.0174,B*75
$GPRMC,070214.00,A,4740.99272,N,00310.29424,W,0.018,,040822,,,A*6C
$GPVTG,,T,,M,0.018,N,0.033,K,A*2A
$GPGGA,070214.00,4740.99272,N,00310.29424,W,1,08,1.11,11.4,M,49.4,M,,*71
$GPGSA,A,3,10,27,18,07,26,08,16,23,,,,,1.70,1.11,1.29*0F
$GPGSV,2,1,08,07,09,328,31,08,16,275,31,10,21,145,34,16,81,261,28*7E
$GPGSV,2,2,08,18,46,056,30,23,33,115,35,26,62,165,34,27,54,285,36*73
$GPGLL,4740.99272,N,00310.29424,W,070214.00,A,A*70
$GPRMC,070215.00,A,4740.99277,N,00310.29407,W,0.018,,040822,,,A*69
$BMXDR,H,68.7,P,0,C,23.7,C,1,P,101741,P,2*67
$GPVTG,,T,,M,0.018,N,0.034,K,A*2D
$BMMDA,30.044,I,1.017,B,23.7,C,,,68.7,,,,,,,,,,,*34
$GPGGA,070215.00,4740.99277,N,00310.29407,W,1,08,1.11,11.4,M,49.4,M,,*74
$GPGSA,A,3,10,27,18,07,26,08,16,23,,,,,1.70,1.11,1.29*0F
$BMMTA,23.7,C*0C
$GPGSV,2,1,08,07,09,328,30,08,16,275,31,10,21,145,34,16,81,261,28*7F
$BMMMB,30.0477,I,1.0174,B*72
$GPGSV,2,2,08,18,46,056,30,23,33,115,35,26,62,165,34,27,54,285,36*73
$GPGLL,4740.99277,N,00310.29407,W,070215.00,A,A*75
$GPRMC,070216.00,A,4740.99278,N,00310.29399,W,0.058,,040822,,,A*61
$GPVTG,,T,,M,0.058,N,0.107,K,A*28
$GPGGA,070216.00,4740.99278,N,00310.29399,W,1,08,1.11,11.3,M,49.4,M,,*7F
$GPGSA,A,3,10,27,18,07,26,08,16,23,,,,,1.70,1.11,1.29*0F
$GPGSV,2,1,08,07,09,328,30,08,16,275,30,10,21,145,34,16,81,261,28*7E
$GPGSV,2,2,08,18,46,056,29,23,33,115,35,26,62,165,34,27,54,285,36*7B
$GPGLL,4740.99278,N,00310.29399,W,070216.00,A,A*79
$BMXDR,H,68.8,P,0,C,23.8,C,1,P,101744,P,2*62
$BMMDA,30.045,I,1.017,B,23.8,C,,,68.8,,,,,,,,,,,*35
$BMMTA,23.8,C*03
$BMMMB,30.0484,I,1.0174,B*7E
$GPRMC,070217.00,A,4740.99281,N,00310.29389,W,0.024,,040822,,,A*6C
$GPVTG,,T,,M,0.024,N,0.045,K,A*24
$GPGGA,070217.00,4740.99281,N,00310.29389,W,1,08,1.11,11.2,M,49.4,M,,*78
$GPGSA,A,3,10,27,18,07,26,08,16,23,,,,,1.70,1.11,1.29*0F
$GPGSV,2,1,08,07,09,328,31,08,16,275,30,10,21,145,34,16,81,261,28*7F
$GPGSV,2,2,08,18,46,056,29,23,33,115,35,26,62,165,34,27,54,285,36*7B
$GPGLL,4740.99281,N,00310.29389,W,070217.00,A,A*7F
$BMXDR,H,69.0,P,0,C,23.8,C,1,P,101741,P,2*6E
$BMMDA,30.044,I,1.017,B,23.8,C,,,69.0,,,,,,,,,,,*3D
$BMMTA,23.8,C*03
$BMMMB,30.0476,I,1.0174,B*73
$GPRMC,070218.00,A,4740.99282,N,00310.29382,W,0.078,,040822,,,A*62
$GPVTG,,T,,M,0.078,N,0.144,K,A*2D
$GPGGA,070218.00,4740.99282,N,00310.29382,W,1,08,1.11,11.0,M,49.4,M,,*7D
$GPGSA,A,3,10,27,18,07,26,08,16,23,,,,,1.70,1.11,1.29*0F
$GPGSV,2,1,08,07,09,328,30,08,16,275,30,10,21,145,33,16,81,261,28*79
$GPGSV,2,2,08,18,46,056,29,23,33,115,35,26,62,165,34,27,54,285,36*7B
$GPGLL,4740.99282,N,00310.29382,W,070218.00,A,A*78
$BMXDR,H,69.2,P,0,C,23.7,C,1,P,101728,P,2*6C
$BMMDA,30.040,I,1.017,B,23.7,C,,,69.2,,,,,,,,,,,*34
$BMMTA,23.7,C*0C
$BMMMB,30.0438,I,1.0173,B*7E
$GPRMC,070219.00,A,4740.99285,N,00310.29367,W,0.086,,040822,,,A*6E
$GPVTG,,T,,M,0.086,N,0.160,K,A*2A
$GPGGA,070219.00,4740.99285,N,00310.29367,W,1,08,1.11,11.1,M,49.4,M,,*71
$GPGSA,A,3,10,27,18,07,26,08,16,23,,,,,1.70,1.11,1.29*0F
$GPGSV,2,1,08,07,09,328,31,08,16,275,30,10,21,145,30,16,81,261,28*7B
$GPGSV,2,2,08,18,46,056,29,23,33,115,38,26,62,165,35,27,54,285,36*77
$GPGLL,4740.99285,N,00310.29367,W,070219.00,A,A*75
$BMXDR,H,69.4,P,0,C,23.8,C,1,P,101745,P,2*6E
$BMMDA,30.045,I,1.017,B,23.8,C,,,69.4,,,,,,,,,,,*38
$BMMTA,23.8,C*03
$BMMMB,30.0488,I,1.0175,B*73
$GPRMC,070220.00,A,4740.99284,N,00310.29359,W,0.071,,040822,,,A*60
$GPVTG,,T,,M,0.071,N,0.132,K,A*25
$GPGGA,070220.00,4740.99284,N,00310.29359,W,1,08,1.11,10.9,M,49.4,M,,*7E
$GPGSA,A,3,10,27,18,07,26,08,16,23,,,,,1.70,1.11,1.29*0F
$GPGSV,2,1,08,07,09,328,31,08,16,275,31,10,21,145,34,16,81,261,28*7E
$GPGSV,2,2,08,18,46,056,29,23,33,115,35,26,62,165,35,27,54,285,36*7A
$GPGLL,4740.99284,N,00310.29359,W,070220.00,A,A*73
$BMXDR,H,69.4,P,0,C,23.7,C,1,P,101738,P,2*6B
$BMMDA,30.043,I,1.017,B,23.7,C,,,69.4,,,,,,,,,,,*31
$BMMTA,23.7,C*0C
$BMMMB,30.0468,I,1.0174,B*7C
$GPRMC,070221.00,A,4740.99283,N,00310.29350,W,0.069,,040822,,,A*66
$GPVTG,,T,,M,0.069,N,0.128,K,A*27
$GPGGA,070221.00,4740.99283,N,00310.29350,W,1,08,1.11,10.7,M,49.4,M,,*7F
$GPGSA,A,3,10,27,18,07,26,08,16,23,,,,,1.70,1.11,1.29*0F
$GPGSV,2,1,08,07,09,328,30,08,16,275,31,10,21,145,34,16,81,261,28*7F
$GPGSV,2,2,08,18,46,056,29,23,33,115,35,26,62,165,34,27,54,285,36*7B
$GPGLL,4740.99283,N,00310.29350,W,070221.00,A,A*7C
$BMXDR,H,69.6,P,0,C,23.8,C,1,P,101743,P,2*6A
$BMMDA,30.045,I,1.017,B,23.8,C,,,69.6,,,,,,,,,,,*3A
$BMMTA,23.8,C*03
$BMMMB,30.0480,I,1.0174,B*7A
$GPRMC,070222.00,A,4740.99276,N,00310.29348,W,0.070,,040822,,,A*6E
$GPVTG,,T,,M,0.070,N,0.130,K,A*26
$GPGGA,070222.00,4740.99276,N,00310.29348,W,1,08,1.11,10.5,M,49.4,M,,*7D
$GPGSA,A,3,10,27,18,07,26,08,16,23,,,,,1.70,1.11,1.29*0F
$GPGSV,2,1,08,07,09,328,30,08,16,275,31,10,21,145,34,16,81,261,28*7F
$GPGSV,2,2,08,18,46,056,29,23,33,115,35,26,62,165,34,27,54,285,36*7B
$GPGLL,4740.99276,N,00310.29348,W,070222.00,A,A*7C
$BMXDR,H,69.6,P,0,C,23.8,C,1,P,101744,P,2*6D
$BMMDA,30.045,I,1.017,B,23.8,C,,,69.6,,,,,,,,,,,*3A
$BMMTA,23.8,C*03
$BMMMB,30.0485,I,1.0174,B*7F
$GPRMC,070223.00,A,4740.99272,N,00310.29346,W,0.016,,040822,,,A*65
$GPVTG,,T,,M,0.016,N,0.029,K,A*2F
$GPGGA,070223.00,4740.99272,N,00310.29346,W,1,08,1.11,10.4,M,49.4,M,,*77
$GPGSA,A,3,10,27,18,07,26,08,16,23,,,,,1.70,1.11,1.29*0F
$GPGSV,2,1,08,07,09,328,30,08,16,275,31,10,21,145,34,16,81,261,28*7F
$GPGSV,2,2,08,18,46,056,30,23,33,115,35,26,62,165,34,27,54,285,36*73
$GPGLL,4740.99272,N,00310.29346,W,070223.00,A,A*77
$GPRMC,070224.00,A,4740.99272,N,00310.29343,W,0.028,,040822,,,A*6A
$BMXDR,H,69.3,P,0,C,23.8,C,1,P,101743,P,2*6F
$GPVTG,,T,,M,0.028,N,0.052,K,A*2E
$BMMDA,30.045,I,1.017,B,23.8,C,,,69.3,,,,,,,,,,,*3F
$GPGGA,070224.00,4740.99272,N,00310.29343,W,1,08,1.11,10.3,M,49.4,M,,*72
$BMMTA,23.8,C*03
$GPGSA,A,3,10,27,18,07,26,08,16,23,,,,,1.70,1.11,1.29*0F
$BMMMB,30.0482,I,1.0174,B*78
$GPGSV,2,1,08,07,09,328,30,08,16,275,31,10,21,145,33,16,81,261,28*78
$GPGSV,2,2,08,18,46,056,29,23,33,115,35,26,62,165,34,27,54,285,36*7B
$GPGLL,4740.99272,N,00310.29343,W,070224.00,A,A*75
$GPRMC,070225.00,A,4740.99268,N,00310.29341,W,0.053,,040822,,,A*6E
$GPVTG,,T,,M,0.053,N,0.097,K,A*2B
$GPGGA,070225.00,4740.99268,N,00310.29341,W,1,08,1.11,10.2,M,49.4,M,,*7B
$GPGSA,A,3,10,27,18,07,26,08,16,23,,,,,1.71,1.11,1.29*0E
$GPGSV,2,1,08,07,09,328,30,08,16,275,31,10,21,145,34,16,81,261,28*7F
$GPGSV,2,2,08,18,46,056,30,23,33,115,35,26,62,165,34,27,54,285,36*73
$GPGLL,4740.99268,N,00310.29341,W,070225.00,A,A*7D
$BMXDR,H,69.2,P,0,C,23.8,C,1,P,101745,P,2*68
$BMMDA,30.045,I,1.017,B,23.8,C,,,69.2,,,,,,,,,,,*3E
$BMMTA,23.8,C*03
$BMMMB,30.0488,I,1.0175,B*73
$GPRMC,070226.00,A,4740.99269,N,00310.29331,W,0.050,,040822,,,A*68
$GPVTG,,T,,M,0.050,N,0.093,K,A*2C
$GPGGA,070226.00,4740.99269,N,00310.29331,W,1,08,1.11,10.2,M,49.4,M,,*7E
$GPGSA,A,3,10,27,18,07,26,08,16,23,,,,,1.71,1.11,1.29*0E
$GPGSV,2,1,08,07,09,328,29,08,16,275,31,10,21,145,33,16,81,260,28*71
$GPGSV,2,2,08,18,46,056,30,23,33,115,36,26,62,165,34,27,54,285,36*70
$GPGLL,4740.99269,N,00310.29331,W,070226.00,A,A*78
$BMXDR,H,69.5,P,0,C,23.8,C,1,P,101749,P,2*63
$BMMDA,30.047,I,1.017,B,23.8,C,,,69.5,,,,,,,,,,,*3B
$BMMTA,23.8,C*03
$BMMMB,30.0501,I,1.0175,B*73
$GPRMC,070227.00,A,4740.99269,N,00310.29326,W,0.023,,040822,,,A*6B
$GPVTG,,T,,M,0.023,N,0.042,K,A*24
$GPGGA,070227.00,4740.99269,N,00310.29326,W,1,08,1.11,10.2,M,49.4,M,,*79
$GPGSA,A,3,10,27,18,07,26,08,16,23,,,,,1.71,1.11,1.29*0E
$GPGSV,2,1,08,07,09,328,30,08,16,275,31,10,21,145,33,16,81,260,28*79
$GPGSV,2,2,08,18,46,056,30,23,33,115,36,26,62,165,34,27,54,285,36*70
$GPGLL,4740.99269,N,00310.29326,W,070227.00,A,A*7F
$BMXDR,H,69.5,P,0,C,23.8,C,1,P,101736,P,2*6B
$BMMDA,30.043,I,1.017,B,23.8,C,,,69.5,,,,,,,,,,,*3F
$BMMTA,23.8,C*03
$BMMMB,30.0460,I,1.0174,B*74
$GPRMC,070228.00,A,4740.99274,N,00310.29318,W,0.019,,040822,,,A*6C
$GPVTG,,T,,M,0.019,N,0.035,K,A*2D
$GPGGA,070228.00,4740.99274,N,00310.29318,W,1,08,1.11,10.3,M,49.4,M,,*76
$GPGSA,A,3,10,27,18,07,26,08,16,23,,,,,1.71,1.11,1.29*0E
$GPGSV,2,1,08,07,09,328,29,08,16,275,31,10,21,145,33,16,81,260,27*7E
$GPGSV,2,2,08,18,46,056,30,23,34,114,35,26,62,165,34,27,54,285,36*75
$GPGLL,4740.99274,N,00310.29318,W,070228.00,A,A*71
$BMXDR,H,69.7,P,0,C,23.8,C,1,P,101743,P,2*6B
$BMMDA,30.045,I,1.017,B,23.8,C,,,69.7,,,,,,,,,,,*3B
$BMMTA,23.8,C*03
