





,10,E*18
$IIMTW,+28.5,C*37
$IIMWV,135,R,07.2,N,A*11
$IIMWV,151,T,10.7,N,A*16
$IIRMC,064110,A,1045.715,S,15614.403,W,04.8,320,060211,10,E,A*0A
$IIVHW,,,308,M,04.0,N,,*6B
$IIVLW,04279,N,362.3,N*5F
$IIVWR,135,R,07.2,N,,,,*63
$IIGLL,1045.715,S,15614.403,W,064110,A,A*5E
$IIHDG,308,,,10,E*18
$IIMTW,+28.5,C*37
$IIMWV,143,R,07.3,N,A*11
$IIMWV,151,T,10.5,N,A*14
$IIRMB,A,1.59,L,,TNGRVA  ,,,,,151.70,314,04.7,V,A*7B
$IIRMC,064112,A,1045.713,S,15614.404,W,04.8,320,060211,10,E,A*09
$IIVHW,,,308,M,04.0,N,,*6B
$IIVLW,04279,N,362.3,N*5F
$IIVWR,143,R,07.3,N,,,,*63
$IIGLL,1045.713,S,15614.404,W,064112,A,A*5D
$IIHDG,309,,,10,E*19
$IIMTW,+28.5,C*37
$IIMWV,143,R,07.8,N,A*1A
$IIMWV,157,T,10.7,N,A*10
$IIRMC,064112,A,1045.713,S,15614.404,W,04.8,320,060211,10,E,A*09
$IIVHW,,,309,M,04.0,N,,*6A
$IIVLW,04279,N,362.3,N*5F
$IIVWR,143,R,07.8,N,,,,*68
$IIGLL,1045.711,S,15614.405,W,064114,A,A*58
$IIHDG,308,,,10,E*18
$IIMTW,+28.5,C*37
$IIMWV,143,R,07.9,N,A*1B
$IIMWV,155,T,11.4,N,A*10
$IIRMB,A,1.59,L,,TNGRVA  ,,,,,151.70,314,04.6,V,A*7A
$IIRMC,064114,A,1045.711,S,15614.405,W,04.7,320,060211,10,E,A*03
$IIVHW,,,308,M,04.0,N,,*6B
$IIVLW,04279,N,362.3,N*5F
$IIVWR,143,R,08.0,N,,,,*6F
$IIGLL,1045.708,S,15614.406,W,064116,A,A*51
$IIHDG,308,,,10,E*18
$IIMTW,+28.5,C*37
$IIMWV,143,R,08.0,N,A*1D
$IIMWV,156,T,11.4,N,A*13
$IIRMB,A,1.59,L,,TNGRVA  ,,,,,151.70,314,04.5,V,A*79
$IIRMC,064116,A,1045.708,S,15614.406,W,04.5,322,060211,10,E,A*0A
$IIVHW,,,308,M,04.1,N,,*6A
$IIVLW,04279,N,362.3,N*5F
$IIVWR,143,R,07.8,N,,,,*68
$IIGLL,1045.708,S,15614.406,W,064116,A,A*51
$IIHDG,308,,,10,E*18
$IIMTW,+28.5,C*37
$IIMWV,143,R,07.8,N,A*1A
$IIMWV,155,T,11.5,N,A*11
$IIRMB,A,1.59,L,,TNGRVA  ,,,,,151.70,314,04.6,V,A*7A
$IIRMC,064118,A,1045.706,S,15614.409,W,04.6,321,060211,10,E,A*05
$IIVHW,,,309,M,04.0,N,,*6A
$IIVLW,04279,N,362.3,N*5F
$IIVWR,143,R,07.7,N,,,,*67
$IIGLL,1045.706,S,15614.409,W,064118,A,A*5E
$IIHDG,309,,,10,E*19
$IIMTW,+28.5,C*37
$IIMWV,143,R,08.1,N,A*1C
$IIMWV,156,T,11.1,N,A*16
$IIRMC,064118,A,1045.706,S,15614.409,W,04.6,321,060211,10,E,A*05
$IIVHW,,,310,M,04.0,N,,*62
$IIVLW,04279,N,362.3,N*5F
$IIVWR,143,R,08.1,N,,,,*6E
$IIGLL,1045.706,S,15614.409,W,064118,A,A*5E
$IIHDG,310,,,10,E*11
$IIMTW,+28.5,C*37
$IIMWV,143,R,08.2,N,A*1F
$IIMWV,155,T,11.5,N,A*11
$IIRMB,A,1.59,L,,TNGRVA  ,,,,,151.70,314,04.7,V,A*7B
$IIRMC,064120,A,1045.704,S,15614.411,W,04.7,320,060211,10,E,A*05
$IIVHW,,,310,M,04.0,N,,*62
$IIVLW,04279,N,362.3,N*5F
$IIVWR,143,R,08.2,N,,,,*6D
$IIGLL,1045.704,S,15614.411,W,064120,A,A*5E
$IIHDG,310,,,10,E*11
$IIMTW,+28.5,C*37
$IIMWV,143,R,07.9,N,A*1B
$IIMWV,155,T,11.6,N,A*12
$IIRMC,064120,A,1045.704,S,15614.411,W,04.7,320,060211,10,E,A*05
$IIVHW,,,310,M,04.0,N,,*62
$IIVLW,04279,N,362.3,N*5F
$IIVWR,143,R,07.9,N,,,,*69
$IIGLL,1045.703,S,15614.412,W,064122,A,A*58
$IIHDG,310,,,10,E*11
$IIMTW,+28.5,C*37
$IIMWV,143,R,07.4,N,A*16
$IIMWV,156,T,11.4,N,A*13
$IIRMB,A,1.59,L,,TNGRVA  ,,,,,151.70,314,04.7,V,A*7B
$IIRMC,064122,A,1045.703,S,15614.412,W,04.7,320,060211,10,E,A*03
$IIVHW,,,310,M,04.0,N,,*62
$IIVLW,04279,N,362.3,N*5F
$IIVWR,143,R,07.4,N,,,,*64
$IIGLL,1045.703,S,15614.412,W,064122,A,A*58
$IIHDG,310,,,10,E*11
$IIMTW,+28.5,C*37
$IIMWV,143,R,07.4,N,A*16
$IIMWV,156,T,10.8,N,A*1E
$IIRMC,064122,A,1045.703,S,15614.412,W,04.7,320,060211,10,E,A*03
$IIVHW,,,310,M,03.9,N,,*6C
$IIVLW,04279,N,362.3,N*5F
$IIVWR,143,R,07.7,N,,,,*67
$IIGLL,1045.702,S,15614.413,W,064124,A,A*5E
$IIHDG,310,,,10,E*11
$IIMTW,+28.5,C*37
$IIMWV,143,R,07.7,N,A*15
$IIMWV,156,T,10.8,N,A*1E
$IIRMB,A,1.59,L,,TNGRVA  ,,,,,151.70,314,04.5,V,A*79
$IIRMC,064124,A,1045.702,S,15614.413,W,04.5,319,060211,10,E,A*0D
$IIVHW,,,309,M,03.9,N,,*64
$IIVLW,04279,N,362.3,N*5F
$IIVWR,143,R,07.9,N,,,,*69
$IIGLL,1045.702,S,15614.413,W,064124,A,A*5E
$IIHDG,309,,,10,E*19
$IIMTW,+28.5,C*37
$IIMWV,143,R,07.9,N,A*1B
$IIMWV,155,T,11.0,N,A*14
$IIRMB,A,1.59,L,,TNGRVA  ,,,,,151.70,314,04.3,V,A*7F
$IIRMC,064126,A,1045.700,S,15614.415,W,04.3,320,060211,10,E,A*07
$IIVHW,,,309,M,03.9,N,,*64
$IIVLW,04279,N,362.3,N*5F
$IIVWR,143,R,07.6,N,,,,*66
$IIGLL,1045.700,S,15614.415,W,064126,A,A*58
$IIHDG,309,,,10,E*19
$IIMTW,+28.5,C*37
$IIMWV,143,R,07.4,N,A*16
$IIMWV,156,T,10.9,N,A*1F
$IIRMC,064126,A,1045.700,S,15614.415,W,04.3,320,060211,10,E,A*07
$IIVHW,,,310,M,04.0,N,,*62
$IIVLW,04279,N,362.3,N*5F
$IIVWR,143,R,07.4,N,,,,*64
$IIGLL,1045.700,S,15614.415,W,064126,A,A*58
$IIHDG,310,,,10,E*11
$IIMTW,+28.5,C*37
$IIMWV,143,R,07.3,N,A*11
$IIMWV,156,T,10.9,N,A*1F
$IIRMB,A,1.59,L,,TNGRVA  ,,,,,151.70,314,04.4,V,A*78
$IIRMC,064128,A,1045.698,S,15614.418,W,04.4,318,060211,10,E,A*08
$IIVHW,,,310,M,04.0,N,,*62
$IIVLW,04279,N,362.3,N*5F
$IIVWR,143,R,07.3,N,,,,*63
$IIGLL,1045.698,S,15614.418,W,064128,A,A*5B
$IIHDG,310,,,10,E*11
$IIMTW,+28.5,C*37
$IIMWV,143,R,07.5,N,A*17
$IIMWV,157,T,10.7,N,A*10
$IIRMC,064128,A,1045.698,S,15614.418,W,04.4,318,060211,10,E,A*08
$IIVHW,,,310,M,03.9,N,,*6C
$IIVLW,04279,N,362.3,N*5F
$IIVWR,143,R,07.5,N,,,,*65
$IIGLL,1045.695,S,15614.419,W,064130,A,A*5E
$IIHDG,309,,,10,E*19
$IIMTW,+28.5,C*37
$IIMWV,134,R,07.6,N,A*14
$IIMWV,156,T,10.9,N,A*1F
$IIRMB,A,1.59,L,,TNGRVA  ,,,,,151.70,314,04.5,V,A*79
$IIRMC,064130,A,1045.695,S,15614.419,W,04.5,320,060211,10,E,A*07
$IIVHW,,,309,M,03.9,N,,*64
$IIVLW,04279,N,362.3,N*5F
$IIVWR,134,R,07.5,N,,,,*65
$IIGLL,1045.695,S,15614.419,W,064130,A,A*5E
$IIHDG,308,,,10,E*18
$IIMTW,+28.5,C*37
$IIMWV,134,R,07.5,N,A*17
$IIMWV,149,T,10.6,N,A*1E
$IIRMC,064130,A,1045.695,S,15614.419,W,04.5,320,060211,10,E,A*07
$IIVHW,,,308,M,03.9,N,,*65
$IIVLW,04279,N,362.3,N*5F
$IIVWR,134,R,07.5,N,,,,*65
$IIGLL,1045.693,S,15614.420,W,064131,A,A*53
$IIHDG,309,,,10,E*19
$IIMTW,+28.5,C*37
$IIMWV,134,R,07.5,N,A*17
$IIMWV,149,T,10.5,N,A*1D
$IIRMB,A,1.60,L,,TNGRVA  ,,,,,151.70,314,04.4,V,A*72
$IIRMC,064132,A,1045.692,S,15614.421,W,04.5,323,060211,10,E,A*0A
$IIVHW,,,309,M,04.0,N,,*6A
$IIVLW,04279,N,362.3,N*5F
$IIVWR,134,R,07.9,N,,,,*69
$IIGLL,1045.692,S,15614.421,W,064132,A,A*50
$IIHDG,309,,,10,E*19
$IIMTW,+28.5,C*37
$IIMWV,134,R,07.9,N,A*1B
$IIMWV,149,T,10.5,N,A*1D
$IIRMB,A,1.60,L,,TNGRVA  ,,,,,151.70,314,04.5,V,A*73
$IIRMC,064134,A,1045.689,S,15614.423,W,04.5,322,060211,10,E,A*05
$IIVHW,,,309,M,03.9,N,,*64
$IIVLW,04279,N,362.3,N*5F
$IIVWR,134,R,07.9,N,,,,*69
$IIGLL,1045.689,S,15614.423,W,064134,A,A*5E
$IIHDG,309,,,10,E*19
$IIMTW,+28.5,C*37
$IIMWV,139,R,07.9,N,A*16
$IIMWV,149,T,10.9,N,A*11
$IIRMC,064134,A,1045.689,S,15614.423,W,04.5,322,060211,10,E,A*05
$IIVHW,,,309,M,03.8,N,,*65
$IIVLW,04279,N,362.3,N*5F
$IIVWR,139,R,07.9,N,,,,*64
$IIGLL,1045.689,S,15614.423,W,064134,A,A*5E
$IIHDG,309,,,10,E*19
$IIMTW,+28.5,C*37
$IIMWV,139,R,07.6,N,A*19
$IIMWV,152,T,11.0,N,A*13
$IIRMB,A,1.60,L,,TNGRVA  ,,,,,151.70,314,04.4,V,A*72
$IIRMC,064136,A,1045.688,S,15614.425,W,04.4,321,060211,10,E,A*02
$IIVHW,,,309,M,03.8,N,,*65
$IIVLW,04279,N,362.3,N*5F
$IIVWR,139,R,07.6,N,,,,*6B
$IIGLL,1045.688,S,15614.425,W,064136,A,A*5B
$IIHDG,309,,,10,E*19
$IIMTW,+28.5,C*37
$IIMWV,139,R,07.4,N,A*1B
$IIMWV,153,T,10.8,N,A*1B
$IIRMC,064136,A,1045.688,S,15614.425,W,04.4,321,060211,10,E,A*02
$IIVHW,,,309,M,03.8,N,,*65
$IIVLW,04279,N,362.3,N*5F
$IIVWR,139,R,07.4,N,,,,*69
$IIGLL,1045.686,S,15614.425,W,064137,A,A*54
$IIHDG,310,,,10,E*11
$IIMTW,+28.5,C*37
$IIMWV,139,R,07.4,N,A*1B
$IIMWV,153,T,10.5,N,A*16
$IIRMB,A,1.60,L,,TNGRVA  ,,,,,151.70,314,04.3,V,A*75
$IIRMC,064137,A,1045.686,S,15614.425,W,04.3,316,060211,10,E,A*0E
$IIVHW,,,310,M,03.8,N,,*6D
$IIVLW,04279,N,362.3,N*5F
$IIVWR,139,R,07.6,N,,,,*6B
$IIGLL,1045.686,S,15614.425,W,064137,A,A*54
$IIHDG,310,,,10,E*11
$IIMTW,+28.5,C*37
$IIMWV,139,R,07.6,N,A*19
$IIMWV,153,T,10.5,N,A*16
$IIRMC,064137,A,1045.686,S,15614.425,W,04.3,316,060211,10,E,A*0E
$IIVHW,,,310,M,03.9,N,,*6C
$IIVLW,04279,N,362.3,N*5F
$IIVWR,139,R,07.5,N,,,,*68
$IIGLL,1045.684,S,15614.427,W,064140,A,A*54
$IIHDG,310,,,10,E*11
$IIMTW,+28.5,C*37
$IIMWV,139,R,07.5,N,A*1A
$IIMWV,153,T,10.9,N,A*1A
$IIRMB,A,1.60,L,,TNGRVA  ,,,,,151.70,314,04.3,V,A*75
$IIRMC,064140,A,1045.684,S,15614.427,W,04.3,316,060211,10,E,A*0E
$IIVHW,,,310,M,03.8,N,,*6D
$IIVLW,04279,N,362.3,N*5F
$IIVWR,139,R,07.2,N,,,,*6F
$IIGLL,1045.684,S,15614.427,W,064140,A,A*54
$IIHDG,310,,,10,E*11
$IIMTW,+28.5,C*37
$IIMWV,139,R,07.2,N,A*1D
$IIMWV,153,T,10.6,N,A*15
$IIRMB,A,1.60,L,,TNGRVA  ,,,,,151.70,314,04.4,V,A*72
$IIRMC,064141,A,1045.682,S,15614.427,W,04.5,320,060211,10,E,A*0A
$IIVHW,,,310,M,03.8,N,,*6D
$IIVLW,04279,N,362.3,N*5F
$IIVWR,139,R,07.5,N,,,,*68
$IIGLL,1045.682,S,15614.427,W,064141,A,A*53
$IIHDG,310,,,10,E*11
$IIMTW,+28.5,C*37
$IIMWV,139,R,07.9,N,A*16
$IIMWV,153,T,10.6,N,A*15
$IIRMC,064142,A,1045.683,S,15614.428,W,04.5,320,060211,10,E,A*07
$IIVHW,,,310,M,03.8,N,,*6D
$IIVLW,04279,N,362.3,N*5F
$IIVWR,139,R,07.9,N,,,,*64
$IIGLL,1045.683,S,15614.428,W,064142,A,A*5E
$IIHDG,310,,,10,E*11
$IIMTW,+28.5,C*37
$IIMWV,139,R,08.0,N,A*10
$IIMWV,152,T,11.0,N,A*13
$IIRMB,A,1.60,L,,TNGRVA  ,,,,,151.70,314,04.4,V,A*72
$IIRMC,064143,A,1045.682,S,15614.429,W,04.4,321,060211,10,E,A*06
$IIVHW,,,309,M,03.8,N,,*65
$IIVLW,04279,N,362.3,N*5F
$IIVWR,139,R,08.0,N,,,,*62
$IIGLL,1045.681,S,15614.430,W,064144,A,A*53
$IIHDG,310,,,10,E*11
$IIMTW,+28.5,C*37
$IIMWV,139,R,07.8,N,A*17
$IIMWV,152,T,11.1,N,A*12
$IIRMC,064144,A,1045.681,S,15614.430,W,04.4,321,060211,10,E,A*0A
$IIVHW,,,310,M,03.9,N,,*6C
$IIVLW,04279,N,362.3,N*5F
$IIVWR,139,R,07.8,N,,,,*65
$IIGLL,1045.679,S,15614.430,W,064145,A,A*55
$IIHDG,310,,,10,E*11
$IIMTW,+28.5,C*37
$IIMWV,139,R,07.4,N,A*1B
$IIMWV,153,T,11.0,N,A*12
$IIRMB,A,1.60,L,,TNGRVA  ,,,,,151.70,314,04.4,V,A*72
$IIRMC,064145,A,1045.679,S,15614.430,W,04.4,321,060211,10,E,A*0C
$IIVHW,,,310,M,03.8,N,,*6D
$IIVLW,04279,N,362.3,N*5F
$IIVWR,139,R,07.5,N,,,,*68
$IIGLL,1045.679,S,15614.431,W,064146,A,A*57
$IIHDG,310,,,10,E*11
$IIMTW,+28.5,C*37
$IIMWV,139,R,07.5,N,A*1A
$IIMWV,153,T,10.5,N,A*16
$IIRMC,064146,A,1045.679,S,15614.431,W,04.4,321,060211,10,E,A*0E
$IIVHW,,,310,M,03.8,N,,*6D
$IIVLW,04279,N,362.3,N*5F
$IIVWR,139,R,07.8,N,,,,*65
$IIGLL,1045.677,S,15614.432,W,064147,A,A*5B
$IIHDG,310,,,10,E*11
$IIMTW,+28.5,C*37
$IIMWV,139,R,07.8,N,A*17
$IIMWV,153,T,10.6,N,A*15
$IIRMB,A,1.60,L,,TNGRVA  ,,,,,151.70,314,04.6,V,A*70
$IIRMC,064148,A,1045.676,S,15614.433,W,04.6,321,060211,10,E,A*0F
$IIVHW,,,310,M,03.8,N,,*6D
$IIVLW,04279,N,362.3,N*5F
$IIVWR,139,R,07.7,N,,,,*6A
$IIGLL,1045.676,S,15614.433,W,064148,A,A*54
$IIHDG,310,,,10,E*11
$IIMTW,+28.5,C*37
$IIMWV,139,R,07.7,N,A*18
$IIMWV,152,T,10.9,N,A*1B
$IIRMB,A,1.60,L,,TNGRVA  ,,,,,151.70,314,04.5,V,A*73
$IIRMC,064149,A,1045.675,S,15614.434,W,04.6,321,060211,10,E,A*0A
$IIVHW,,,310,M,03.8,N,,*6D
$IIVLW,04279,N,362.3,N*5F
$IIVWR,139,R,07.1,N,,,,*6C
$IIGLL,1045.675,S,15614.434,W,064149,A,A*51
$IIHDG,310,,,10,E*11
$IIMTW,+28.5,C*37
$IIMWV,139,R,06.6,N,A*18
$IIMWV,153,T,10.2,N,A*11
$IIRMC,064150,A,1045.674,S,15614.434,W,04.6,321,060211,10,E,A*03
$IIVHW,,,310,M,03.9,N,,*6C
$IIVLW,04279,N,362.3,N*5F
$IIVWR,139,R,06.6,N,,,,*6A
$IIGLL,1045.674,S,15614.434,W,064150,A,A*58
$IIHDG,310,,,10,E*11
$IIMTW,+28.5,C*37
$IIMWV,139,R,06.5,N,A*1B
$IIMWV,154,T,09.8,N,A*14
$IIRMB,A,1.60,L,,TNGRVA  ,,,,,151.70,314,04.4,V,A*72
$IIRMC,064151,A,1045.673,S,15614.436,W,04.4,319,060211,10,E,A*0E
$IIVHW,,,310,M,03.8,N,,*6D
$IIVLW,04279,N,362.3,N*5F
$IIVWR,139,R,06.5,N,,,,*69
$IIGLL,1045.672,S,15614.437,W,064152,A,A*5F
$IIHDG,309,,,10,E*19
$IIMTW,+28.5,C*37
$IIMWV,139,R,07.4,N,A*1B
$IIMWV,154,T,09.6,N,A*1A
$IIRMC,064152,A,1045.672,S,15614.437,W,04.4,319,060211,10,E,A*0D
$IIVHW,,,309,M,03.8,N,,*65
$IIVLW,04279,N,362.3,N*5F
$IIVWR,139,R,07.4,N,,,,*69
$IIGLL,1045.671,S,15614.437,W,064153,A,A*5D
$IIHDG,308,,,10,E*18
$IIMTW,+28.5,C*37
$IIMWV,139,R,07.6,N,A*19
$IIMWV,153,T,10.4,N,A*17
$IIRMB,A,1.60,L,,TNGRVA  ,,,,,151.70,314,04.2,V,A*74
$IIRMC,064153,A,1045.671,S,15614.437,W,04.2,320,060211,10,E,A*03
$IIVHW,,,308,M,03.8,N,,*64
$IIVLW,04279,N,362.3,N*5F
$IIVWR,139,R,07.5,N,,,,*68
$IIGLL,1045.670,S,15614.438,W,064154,A,A*54
$IIHDG,307,,,10,E*17
$IIMTW,+28.5,C*37
$IIMWV,139,R,07.5,N,A*1A
$IIMWV,153,T,10.8,N,A*1B
$IIRMC,064154,A,1045.670,S,15614.438,W,04.2,320,060211,10,E,A*0A
$IIVHW,,,307,M,03.7,N,,*64
$IIVLW,04279,N,362.3,N*5F
$IIVWR,139,R,07.0,N,,,,*6D
$IIGLL,1045.669,S,15614.439,W,064155,A,A*5C
$IIHDG,307,,,10,E*17
$IIMTW,+28.5,C*37
$IIMWV,139,R,07.0,N,A*1F
$IIMWV,153,T,10.6,N,A*15
$IIRMB,A,1.60,L,,TNGRVA  ,,,,,151.70,314,04.3,V,A*75
$IIRMC,064156,A,1045.668,S,15614.439,W,04.4,322,060211,10,E,A*04
$IIVHW,,,307,M,03.9,N,,*6A
$IIVLW,04279,N,362.3,N*5F
$IIVWR,139,R,06.9,N,,,,*65
$IIGLL,1045.668,S,15614.439,W,064156,A,A*5E
$IIHDG,307,,,10,E*17
$IIMTW,+28.5,C*37
$IIMWV,139,R,06.9,N,A*17
$IIMWV,153,T,10.1,N,A*12
$IIRMB,A,1.60,L,,TNGRVA  ,,,,,151.70,314,04.4,V,A*72
$IIRMC,064158,A,1045.667,S,15614.440,W,04.4,323,060211,10,E,A*0A
$IIVHW,,,307,M,03.9,N,,*6A
$IIVLW,04279,N,362.3,N*5F
$IIVWR,139,R,07.5,N,,,,*68
$IIGLL,1045.667,S,15614.440,W,064158,A,A*51
$IIHDG,307,,,10,E*17
$IIMTW,+28.5,C*37
$IIMWV,139,R,07.7,N,A*18
$IIMWV,153,T,10.7,N,A*14
$IIRMC,064158,A,1045.666,S,15614.441,W,04.4,323,060211,10,E,A*0A
$IIVHW,,,307,M,04.0,N,,*64
$IIVLW,04279,N,362.3,N*5F
$IIVWR,139,R,07.7,N,,,,*6A
$IIGLL,1045.666,S,15614.441,W,064158,A,A*51
$IIHDG,307,,,10,E*17
$IIMTW,+28.5,C*37
$IIMWV,139,R,07.5,N,A*1A
$IIMWV,153,T,10.9,N,A*1A
$IIRMB,A,1.60,L,,TNGRVA  ,,,,,151.70,314,04.4,V,A*72
$IIRMC,064200,A,1045.665,S,15614.442,W,04.4,322,060211,10,E,A*05
$IIVHW,,,307,M,04.0,N,,*64
$IIVLW,04279,N,362.3,N*5F
$IIVWR,139,R,07.5,N,,,,*68
$IIGLL,1045.665,S,15614.443,W,064200,A,A*5E
$IIHDG,307,,,10,E*17
$IIMTW,+28.5,C*37
$IIMWV,139,R,07.1,N,A*1E
$IIMWV,153,T,10.8,N,A*1B
$IIRMC,064200,A,1045.665,S,15614.443,W,04.4,322,060211,10,E,A*04
$IIVHW,,,307,M,04.1,N,,*65
$IIVLW,04279,N,362.3,N*5F
$IIVWR,139,R,07.1,N,,,,*6C
$IIGLL,1045.664,S,15614.444,W,064202,A,A*5A
$IIHDG,307,,,10,E*17
$IIMTW,+28.5,C*37
$IIMWV,139,R,06.9,N,A*17
$IIMWV,154,T,10.4,N,A*10
$IIRMB,A,1.60,L,,TNGRVA  ,,,,,151.70,314,04.4,V,A*72
$IIRMC,064202,A,1045.664,S,15614.444,W,04.4,319,060211,10,E,A*08
$IIVHW,,,307,M,03.9,N,,*6A
$IIVLW,04279,N,362.3,N*5F
$IIVWR,139,R,07.6,N,,,,*6B
$IIGLL,1045.663,S,15614.444,W,064202,A,A*5D
$IIHDG,308,,,10,E*18
$IIMTW,+28.5,C*37
$IIMWV,139,R,07.6,N,A*19
$IIMWV,154,T,10.1,N,A*15
$IIRMC,064202,A,1045.663,S,15614.444,W,04.4,319,060211,10,E,A*0F
$IIVHW,,,308,M,03.9,N,,*65
$IIVLW,04279,N,362.4,N*58
$IIVWR,139,R,07.9,N,,,,*64
$IIGLL,1045.664,S,15614.444,W,064204,A,A*5C
$IIHDG,308,,,10,E*18
$IIMTW,+28.5,C*37
$IIMWV,139,R,07.9,N,A*16
$IIMWV,153,T,10.9,N,A*1A
$IIRMB,A,1.60,L,,TNGRVA  ,,,,,151.70,314,04.2,V,A*74
$IIRMC,064206,A,1045.663,S,15614.446,W,04.1,317,060211,10,E,A*02
$IIVHW,,,309,M,03.9,N,,*64
$IIVLW,04279,N,362.4,N*58
$IIVWR,139,R,07.7,N,,,,*6A
$IIGLL,1045.663,S,15614.446,W,064206,A,A*5B
$IIHDG,309,,,10,E*19
$IIMTW,+28.5,C*37
$IIMWV,139,R,07.7,N,A*18
$IIMWV,153,T,11.0,N,A*12
$IIRMB,A,1.60,L,,TNGRVA  ,,,,,151.70,314,04.1,V,A*77
$IIRMC,064206,A,1045.663,S,15614.445,W,04.1,317,060211,10,E,A*01
$IIVHW,,,309,M,03.9,N,,*64
$IIVLW,04279,N,362.4,N*58
$IIVWR,139,R,07.9,N,,,,*64
$IIGLL,1045.663,S,15614.445,W,064206,A,A*58
$IIHDG,309,,,10,E*19
$IIMTW,+28.5,C*37
$IIMWV,139,R,07.8,N,A*17
$IIMWV,152,T,11.1,N,A*12
$IIRMB,A,1.60,L,,TNGRVA  ,,,,,151.70,314,04.0,V,A*76
$IIRMC,064208,A,1045.662,S,15614.446,W,04.0,317,060211,10,E,A*0C
$IIVHW,,,309,M,03.9,N,,*64
$IIVLW,04279,N,362.4,N*58
$IIVWR,139,R,07.8,N,,,,*65
$IIGLL,1045.661,S,15614.446,W,064208,A,A*57
$IIHDG,310,,,10,E*11
$IIMTW,+28.5,C*37
$IIMWV,139,R,07.7,N,A*18
$IIMWV,152,T,10.9,N,A*1B
$IIRMC,064208,A,1045.661,S,15614.446,W,04.0,317,060211,10,E,A*0F
$IIVHW,,,310,M,03.9,N,,*6C
$IIVLW,04279,N,362.4,N*58
$IIVWR,139,R,07.7,N,,,,*6A
$IIGLL,1045.659,S,15614.448,W,064210,A,A*5B
$IIHDG,311,,,10,E*10
$IIMTW,+28.5,C*37
$IIMWV,139,R,07.4,N,A*1B
$IIMWV,153,T,10.9,N,A*1A
$IIRMB,A,1.60,L,,TNGRVA  ,,,,,151.70,314,04.1,V,A*77
$IIRMC,064210,A,1045.659,S,15614.448,W,04.1,318,060211,10,E,A*0D
$IIVHW,,,311,M,03.9,N,,*6D
$IIVLW,04279,N,362.4,N*58
$IIVWR,139,R,07.4,N,,,,*69
$IIGLL,1045.659,S,15614.448,W,064210,A,A*5B
$IIHDG,311,,,10,E*10
$IIMTW,+28.5,C*37
$IIMWV,139,R,07.4,N,A*1B
$IIMWV,153,T,10.6,N,A*15
$IIRMC,064210,A,1045.659,S,15614.448,W,04.1,318,060211,10,E,A*0D
$IIVHW,,,311,M,03.9,N,,*6D
$IIVLW,04279,N,362.4,N*58
$IIVWR,139,R,07.6,N,,,,*6B
$IIGLL,1045.658,S,15614.450,W,064212,A,A*51
$IIHDG,311,,,10,E*10
$IIMTW,+28.5,C*37
$IIMWV,139,R,07.6,N,A*19
$IIMWV,153,T,10.5,N,A*16
$IIRMB,A,1.60,L,,TNGRVA  ,,,,,151.70,314,04.2,V,A*74
$IIRMC,064212,A,1045.657,S,15614.450,W,04.3,320,060211,10,E,A*01
$IIVHW,,,311,M,03.8,N,,*6C
$IIVLW,04279,N,362.4,N*58
$IIVWR,139,R,07.4,N,,,,*69
$IIGLL,1045.657,S,15614.450,W,064212,A,A*5E
$IIHDG,311,,,10,E*10
$IIMTW,+28.5,C*37
$IIMWV,139,R,07.4,N,A*1B
$IIMWV,153,T,10.9,N,A*1A
$IIRMB,A,1.60,L,,TNGRVA  ,,,,,151.70,314,04.4,V,A*72
$IIRMC,064214,A,1045.656,S,15614.451,W,04.4,322,060211,10,E,A*02
$IIVHW,,,311,M,03.8,N,,*6C
$IIVLW,04279,N,362.4,N*58
$IIVWR,139,R,07.3,N,,,,*6E
$IIGLL,1045.656,S,15614.451,W,064214,A,A*58
$IIHDG,311,,,10,E*10
$IIMTW,+28.5,C*37
$IIMWV,139,R,07.3,N,A*1C
$IIMWV,153,T,10.4,N,A*17
$IIRMC,064214,A,1045.655,S,15614.452,W,04.4,322,060211,10,E,A*02
$IIVHW,,,311,M,03.9,N,,*6D
$IIVLW,04279,N,362.4,N*58
$IIVWR,139,R,07.3,N,,,,*6E
$IIGLL,1045.655,S,15614.452,W,064214,A,A*58
$IIHDG,311,,,10,E*10
$IIMTW,+28.5,C*37
$IIMWV,124,R,07.4,N,A*17
$IIMWV,143,T,10.0,N,A*12
$IIRMB,A,1.60,L,,TNGRVA  ,,,,,151.70,314,04.6,V,A*70
$IIRMC,064216,A,1045.652,S,15614.454,W,04.6,322,060211,10,E,A*03
$IIVHW,,,312,M,03.8,N,,*6F
$IIVLW,04279,N,362.4,N*58
$IIVWR,124,R,07.4,N,,,,*65
$IIGLL,1045.651,S,15614.455,W,064218,A,A*57
$IIHDG,312,,,10,E*13
$IIMTW,+28.5,C*37
$IIMWV,124,R,07.3,N,A*10
$IIMWV,143,T,10.0,N,A*12
$IIRMB,A,1.60,L,,TNGRVA  ,,,,,151.70,314,04.3,V,A*75
$IIRMC,064218,A,1045.651,S,15614.455,W,04.4,321,060211,10,E,A*0E
$IIVHW,,,312,M,03.8,N,,*6F
$IIVLW,04279,N,362.4,N*58
$IIVWR,124,R,07.1,N,,,,*60
$IIGLL,1045.651,S,15614.455,W,064218,A,A*57
$IIHDG,312,,,10,E*13
$IIMTW,+28.5,C*37
$IIMWV,124,R,07.1,N,A*12
$IIMWV,143,T,09.9,N,A*13
$IIRMC,064218,A,1045.651,S,15614.455,W,04.4,321,060211,10,E,A*0E
$IIVHW,,,312,M,03.8,N,,*6F
$IIVLW,04279,N,362.4,N*58
$IIVWR,124,R,07.2,N,,,,*63
$IIGLL,1045.649,S,15614.457,W,064220,A,A*57
$IIHDG,312,,,10,E*13
$IIMTW,+28.5,C*37
$IIMWV,124,R,07.2,N,A*11
$IIMWV,143,T,09.7,N,A*1D
$IIRMB,A,1.60,L,,TNGRVA  ,,,,,151.70,314,04.2,V,A*74
$IIRMC,064220,A,1045.648,S,15614.457,W,04.2,320,060211,10,E,A*08
$IIVHW,,,312,M,03.8,N,,*6F
$IIVLW,04279,N,362.4,N*58
$IIVWR,124,R,07.7,N,,,,*66
$IIGLL,1045.648,S,15614.457,W,064220,A,A*56
$IIHDG,312,,,10,E*13
$IIMTW,+28.5,C*37
$IIMWV,124,R,07.7,N,A*14
$IIMWV,143,T,09.8,N,A*12
$IIRMB,A,1.60,L,,TNGRVA  ,,,,,151.70,314,04.0,V,A*76
$IIRMC,064222,A,1045.648,S,15614.459,W,04.0,320,060211,10,E,A*06
$IIVHW,,,313,M,03.9,N,,*6F
$IIVLW,04279,N,362.4,N*58
$IIVWR,124,R,07.9,N,,,,*68
$IIGLL,1045.648,S,15614.459,W,064222,A,A*5A
$IIHDG,313,,,10,E*12
$IIMTW,+28.5,C*37
$IIMWV,124,R,07.7,N,A*14
$IIMWV,142,T,10.5,N,A*16
$IIRMC,064222,A,1045.647,S,15614.459,W,04.0,320,060211,10,E,A*09
$IIVHW,,,312,M,03.8,N,,*6F
$IIVLW,04279,N,362.4,N*58
$IIVWR,124,R,07.7,N,,,,*66
$IIGLL,1045.647,S,15614.459,W,064222,A,A*55
$IIHDG,312,,,10,E*13
$IIMTW,+28.5,C*37
$IIMWV,124,R,07.4,N,A*17
$IIMWV,142,T,10.3,N,A*10
$IIRMB,A,1.60,L,,TNGRVA  ,,,,,151.70,314,03.9,V,A*78
$IIRMC,064224,A,1045.646,S,15614.460,W,04.0,320,060211,10,E,A*04
$IIVHW,,,311,M,03.8,N,,*6C
$IIVLW,04279,N,362.4,N*58
$IIVWR,124,R,07.4,N,,,,*65
$IIGLL,1045.646,S,15614.461,W,064224,A,A*59
$IIHDG,311,,,10,E*10
$IIMTW,+28.5,C*37
$IIMWV,124,R,07.4,N,A*17
$IIMWV,143,T,10.0,N,A*12
$IIRMC,064224,A,1045.646,S,15614.461,W,04.0,320,060211,10,E,A*05
$IIVHW,,,311,M,03.9,N,,*6D
$IIVLW,04279,N,362.4,N*58
$IIVWR,124,R,07.4,N,,,,*65
$IIGLL,1045.645,S,15614.462,W,064226,A,A*5B
$IIHDG,311,,,10,E*10
$IIMTW,+28.5,C*37
$IIMWV,124,R,07.7,N,A*14
$IIMWV,143,T,10.1,N,A*13
$IIRMB,A,1.60,L,,TNGRVA  ,,,,,151.60,314,05.5,V,A*73
$IIRMC,064226,A,1045.645,S,15614.462,W,05.7,329,060211,10,E,A*08
$IIVHW,,,311,M,03.9,N,,*6D
$IIVLW,04279,N,362.4,N*58
$IIVWR,124,R,07.5,N,,,,*64
$IIGLL,1045.644,S,15614.463,W,064226,A,A*5B
$IIHDG,312,,,10,E*13
$IIMTW,+28.5,C*37
$IIMWV,124,R,07.5,N,A*16
$IIMWV,143,T,10.4,N,A*16
$IIRMC,064226,A,1045.644,S,15614.463,W,05.7,329,060211,10,E,A*08
$IIVHW,,,312,M,03.9,N,,*6E
$IIVLW,04279,N,362.4,N*58
$IIVWR,124,R,07.5,N,,,,*64
$IIGLL,1045.642,S,15614.465,W,064228,A,A*55
$IIHDG,312,,,10,E*13
$IIMTW,+28.5,C*37
$IIMWV,124,R,07.5,N,A*16
$IIMWV,143,T,10.2,N,A*10
$IIRMB,A,1.60,L,,TNGRVA  ,,,,,151.60,314,05.7,V,A*71
$IIRMC,064228,A,1045.641,S,15614.465,W,05.8,325,060211,10,E,A*06
$IIVHW,,,311,M,03.9,N,,*6D
$IIVLW,04279,N,362.4,N*58
$IIVWR,124,R,07.4,N,,,,*65
$IIGLL,1045.641,S,15614.465,W,064228,A,A*56
$IIHDG,311,,,10,E*10
$IIMTW,+28.5,C*37
$IIMWV,124,R,07.4,N,A*17
$IIMWV,143,T,10.2,N,A*10
$IIRMB,A,1.60,L,,TNGRVA  ,,,,,151.60,314,03.6,V,A*76
$IIRMC,064230,A,1045.640,S,15614.467,W,03.7,328,060211,10,E,A*08
$IIVHW,,,310,M,03.8,N,,*6D
$IIVLW,04279,N,362.4,N*58
$IIVWR,124,R,07.2,N,,,,*63
$IIGLL,1045.640,S,15614.467,W,064230,A,A*5C
$IIHDG,310,,,10,E*11
$IIMTW,+28.5,C*37
$IIMWV,124,R,07.2,N,A*11
$IIMWV,143,T,09.8,N,A*12
$IIRMC,064230,A,1045.639,S,15614.467,W,03.7,328,060211,10,E,A*06
$IIVHW,,,310,M,03.9,N,,*6C
$IIVLW,04279,N,362.4,N*58
$IIVWR,124,R,07.2,N,,,,*63
$IIGLL,1045.639,S,15614.467,W,064230,A,A*52
$IIHDG,310,,,10,E*11
$IIMTW,+28.5,C*37
$IIMWV,124,R,07.7,N,A*14
$IIMWV,143,T,09.9,N,A*13
$IIRMB,A,1.60,L,,TNGRVA  ,,,,,151.60,314,04.0,V,A*77
$IIRMC,064232,A,1045.638,S,15614.468,W,04.0,315,060211,10,E,A*04
$IIVHW,,,311,M,04.0,N,,*63
$IIVLW,04279,N,362.4,N*58
$IIVWR,124,R,07.7,N,,,,*66
$IIGLL,1045.638,S,15614.468,W,064232,A,A*5E
$IIHDG,312,,,10,E*13
$IIMTW,+28.5,C*37
$IIMWV,124,R,07.5,N,A*16
$IIMWV,143,T,10.4,N,A*16
$IIRMC,064232,A,1045.638,S,15614.468,W,04.0,315,060211,10,E,A*04
$IIVHW,,,312,M,03.9,N,,*6E
$IIVLW,04279,N,362.4,N*58
$IIVWR,124,R,07.5,N,,,,*64
$IIGLL,1045.637,S,15614.469,W,064234,A,A*56
$IIHDG,311,,,10,E*10
$IIMTW,+28.5,C*37
$IIMWV,124,R,07.3,N,A*10
$IIMWV,143,T,10.2,N,A*10
$IIRMB,A,1.60,L,,TNGRVA  ,,,,,151.60,314,04.1,V,A*76
$IIRMC,064234,A,1045.637,S,15614.469,W,04.1,313,060211,10,E,A*0B
$IIVHW,,,311,M,03.8,N,,*6C
$IIVLW,04279,N,362.4,N*58
$IIVWR,124,R,07.5,N,,,,*64
$IIGLL,1045.636,S,15614.469,W,064234,A,A*57
$IIHDG,311,,,10,E*10
$IIMTW,+28.5,C*37
$IIMWV,124,R,07.5,N,A*16
$IIMWV,143,T,09.9,N,A*13
$IIRMC,064234,A,1045.636,S,15614.469,W,04.1,313,060211,10,E,A*0A
$IIVHW,,,311,M,03.8,N,,*6C
$IIVLW,04279,N,362.4,N*58
$IIVWR,137,R,07.6,N,,,,*65
$IIGLL,1045.635,S,15614.470,W,064236,A,A*5E
$IIHDG,312,,,10,E*13
$IIMTW,+28.5,C*37
$IIMWV,137,R,07.6,N,A*17
$IIMWV,143,T,10.2,N,A*10
$IIRMB,A,1.60,L,,TNGRVA  ,,,,,151.60,314,04.2,V,A*75
$IIRMC,064236,A,1045.635,S,15614.471,W,04.1,312,060211,10,E,A*03
$IIVHW,,,312,M,03.8,N,,*6F
$IIVLW,04279,N,362.4,N*58
$IIVWR,137,R,07.3,N,,,,*60
$IIGLL,1045.635,S,15614.471,W,064236,A,A*5F
$IIHDG,312,,,10,E*13
$IIMTW,+28.5,C*37
$IIMWV,137,R,07.3,N,A*12
$IIMWV,151,T,10.6,N,A*17
$IIRMB,A,1.60,L,,TNGRVA  ,,,,,151.60,314,04.4,V,A*73
$IIRMC,064238,A,1045.633,S,15614.471,W,04.4,318,060211,10,E,A*04
$IIVHW,,,311,M,03.9,N,,*6D
$IIVLW,04279,N,362.4,N*58
$IIVWR,137,R,07.0,N,,,,*63
$IIGLL,1045.633,S,15614.471,W,064238,A,A*57
$IIHDG,311,,,10,E*10
$IIMTW,+28.5,C*37
$IIMWV,137,R,07.3,N,A*12
$IIMWV,153,T,10.2,N,A*11
$IIRMC,064238,A,1045.632,S,15614.472,W,04.4,318,060211,10,E,A*06
$IIVHW,,,311,M,04.0,N,,*63
$IIVLW,04279,N,362.4,N*58
$IIVWR,137,R,07.3,N,,,,*60
$IIGLL,1045.632,S,15614.472,W,064238,A,A*55
$IIHDG,311,,,10,E*10
$IIMTW,+28.5,C*37
$IIMWV,137,R,07.6,N,A*17
$IIMWV,152,T,10.5,N,A*17
$IIRMB,A,1.60,L,,TNGRVA  ,,,,,151.60,314,04.4,V,A*73
$IIRMC,064240,A,1045.631,S,15614.472,W,04.5,323,060211,10,E,A*03
$IIVHW,,,311,M,03.9,N,,*6D
$IIVLW,04279,N,362.4,N*58
$IIVWR,137,R,07.6,N,,,,*65
$IIGLL,1045.630,S,15614.473,W,064240,A,A*59
$IIHDG,310,,,10,E*11
$IIMTW,+28.5,C*37
$IIMWV,137,R,07.8,N,A*19
$IIMWV,152,T,10.7,N,A*15
$IIRMC,064240,A,1045.630,S,15614.473,W,04.5,323,060211,10,E,A*03
$IIVHW,,,310,M,03.9,N,,*6C
$IIVLW,04279,N,362.4,N*58
$IIVWR,137,R,07.8,N,,,,*6B
$IIGLL,1045.628,S,15614.473,W,064242,A,A*52
$IIHDG,310,,,10,E*11
$IIMTW,+28.5,C*37
$IIMWV,137,R,08.0,N,A*1E
$IIMWV,151,T,10.8,N,A*19
$IIRMB,A,1.60,L,,TNGRVA  ,,,,,151.60,314,04.3,V,A*74
$IIRMC,064242,A,1045.628,S,15614.473,W,04.4,326,060211,10,E,A*0C
$IIVHW,,,310,M,03.9,N,,*6C
$IIVLW,04279,N,362.4,N*58
$IIVWR,137,R,07.9,N,,,,*6A
$IIGLL,1045.627,S,15614.474,W,064242,A,A*5A
$IIHDG,311,,,10,E*10
$IIMTW,+28.5,C*37
$IIMWV,137,R,07.9,N,A*18
$IIMWV,151,T,11.1,N,A*11
$IIRMC,064242,A,1045.627,S,15614.474,W,04.4,326,060211,10,E,A*04
$IIVHW,,,311,M,03.9,N,,*6D
$IIVLW,04279,N,362.4,N*58
$IIVWR,137,R,07.8,N,,,,*6B
$IIGLL,1045.626,S,15614.475,W,064244,A,A*5C
$IIHDG,311,,,10,E*10
$IIMTW,+28.5,C*37
$IIMWV,137,R,07.8,N,A*19
$IIMWV,151,T,11.0,N,A*10
$IIRMB,A,1.60,L,,TNGRVA  ,,,,,151.60,314,04.5,V,A*72
$IIRMC,064244,A,1045.625,S,15614.475,W,04.6,324,060211,10,E,A*01
$IIVHW,,,312,M,03.9,N,,*6E
$IIVLW,04279,N,362.4,N*58
$IIVWR,137,R,08.2,N,,,,*6E
$IIGLL,1045.625,S,15614.475,W,064244,A,A*5F
$IIHDG,312,,,10,E*13
$IIMTW,+28.5,C*37
$IIMWV,137,R,08.2,N,A*1C
$IIMWV,151,T,10.9,N,A*18
$IIRMB,A,1.60,L,,TNGRVA  ,,,,,151.60,314,04.5,V,A*72
$IIRMC,064246,A,1045.624,S,15614.476,W,04.5,322,060211,10,E,A*04
$IIVHW,,,312,M,03.8,N,,*6F
$IIVLW,04279,N,362.4,N*58
$IIVWR,137,R,08.5,N,,,,*69
$IIGLL,1045.624,S,15614.476,W,064246,A,A*5F
$IIHDG,312,,,10,E*13
$IIMTW,+28.5,C*37
$IIMWV,137,R,08.4,N,A*1A
$IIMWV,150,T,11.5,N,A*14
$IIRMC,064246,A,1045.623,S,15614.476,W,04.5,322,060211,10,E,A*03
$IIVHW,,,311,M,03.7,N,,*63
$IIVLW,04279,N,362.4,N*58
$IIVWR,137,R,08.4,N,,,,*68
$IIGLL,1045.623,S,15614.476,W,064246,A,A*58
$IIHDG,311,,,10,E*10
$IIMTW,+28.5,C*37
$IIMWV,137,R,07.8,N,A*19
$IIMWV,150,T,11.4,N,A*15
$IIRMB,A,1.61,L,,TNGRVA  ,,,,,151.60,314,04.3,V,A*75
$IIRMC,064248,A,1045.622,S,15614.477,W,04.3,322,060211,10,E,A*0B
$IIVHW,,,310,M,03.8,N,,*6D
$IIVLW,04279,N,362.4,N*58
$IIVWR,137,R,07.8,N,,,,*6B
$IIGLL,1045.621,S,15614.477,W,064248,A,A*55
$IIHDG,311,,,10,E*10
$IIMTW,+28.5,C*37
$IIMWV,137,R,07.3,N,A*12
$IIMWV,150,T,10.7,N,A*17
$IIRMC,064248,A,1045.621,S,15614.477,W,04.3,322,060211,10,E,A*08
$IIVHW,,,311,M,03.8,N,,*6C
$IIVLW,04279,N,362.4,N*58
$IIVWR,137,R,07.3,N,,,,*60
$IIGLL,1045.620,S,15614.478,W,064250,A,A*52
$IIHDG,312,,,10,E*13
$IIMTW,+28.5,C*37
$IIMWV,137,R,07.7,N,A*16
$IIMWV,152,T,10.3,N,A*11
$IIRMB,A,1.61,L,,TNGRVA  ,,,,,151.60,314,04.1,V,A*77
$IIRMC,064250,A,1045.620,S,15614.478,W,04.1,317,060211,10,E,A*0B
$IIVHW,,,312,M,03.8,N,,*6F
$IIVLW,04279,N,362.4,N*58
$IIVWR,137,R,08.6,N,,,,*6A
$IIGLL,1045.619,S,15614.479,W,064250,A,A*59
$IIHDG,312,,,10,E*13
$IIMTW,+28.5,C*37
$IIMWV,137,R,08.6,N,A*18
$IIMWV,151,T,10.8,N,A*19
$IIRMC,064250,A,1045.619,S,15614.479,W,04.1,317,060211,10,E,A*00
$IIVHW,,,312,M,03.9,N,,*6E
$IIVLW,04279,N,362.4,N*58
$IIVWR,137,R,08.7,N,,,,*6B
$IIGLL,1045.618,S,15614.481,W,064252,A,A*5D
$IIHDG,312,,,10,E*13
$IIMTW,+28.5,C*37
$IIMWV,137,R,08.7,N,A*19
$IIMWV,150,T,11.7,N,A*16
$IIRMB,A,1.61,L,,TNGRVA  ,,,,,151.60,314,04.2,V,A*74
$IIRMC,064252,A,1045.618,S,15614.481,W,04.2,319,060211,10,E,A*09
$IIVHW,,,312,M,04.0,N,,*60
$IIVLW,04279,N,362.4,N*58
$IIVWR,137,R,08.2,N,,,,*6E
$IIGLL,1045.618,S,15614.481,W,064252,A,A*5D
$IIHDG,312,,,10,E*13
$IIMTW,+28.5,C*37
$IIMWV,137,R,08.2,N,A*1C
$IIMWV,150,T,11.8,N,A*19
$IIRMB,A,1.61,L,,TNGRVA  ,,,,,151.60,314,04.4,V,A*72
$IIRMC,064252,A,1045.618,S,15614.481,W,04.2,319,060211,10,E,A*09
$IIVHW,,,312,M,04.0,N,,*60
$IIVLW,04279,N,362.4,N*58
$IIVWR,137,R,07.5,N,,,,*66
$IIGLL,1045.618,S,15614.481,W,064252,A,A*5D
$IIHDG,312,,,10,E*13
$IIMTW,+28.5,C*37
$IIMWV,137,R,08.0,N,A*1E
$IIMWV,152,T,10.7,N,A*15
$IIRMC,064254,A,1045.617,S,15614.483,W,04.2,319,060211,10,E,A*02
$IIVHW,,,312,M,04.0,N,,*60
$IIVLW,04279,N,362.4,N*58
$IIVWR,137,R,08.0,N,,,,*6C
$IIGLL,1045.617,S,15614.483,W,064254,A,A*56
$IIHDG,312,,,10,E*13
$IIMTW,+28.5,C*37
$IIMWV,137,R,08.7,N,A*19
$IIMWV,151,T,11.2,N,A*12
$IIRMB,A,1.61,L,,TNGRVA  ,,,,,151.60,314,04.4,V,A*72
$IIRMC,064256,A,1045.616,S,15614.483,W,04.5,321,060211,10,E,A*0D
$IIVHW,,,311,M,04.0,N,,*63
$IIVLW,04279,N,362.4,N*58
$IIVWR,137,R,08.7,N,,,,*6B
$IIDPT,001.5,+0.7,*44
$IIGLL,1045.616,S,15614.483,W,064256,A,A*55
$IIHDG,311,,,10,E*10
$IIMTW,+28.5,C*37
$IIMWV,137,R,08.7,N,A*19
$IIMWV,150,T,11.9,N,A*18
$IIRMC,064256,A,1045.616,S,15614.483,W,04.5,321,060211,10,E,A*0D
$IIVHW,,,311,M,04.0,N,,*63
$IIVLW,04279,N,362.4,N*58
$IIVWR,137,R,08.7,N,,,,*6B
$IIDPT,001.5,+0.7,*44
$IIGLL,1045.613,S,15614.486,W,064258,A,A*5B
$IIHDG,311,,,10,E*10
$IIMTW,+28.5,C*37
$IIMWV,137,R,08.1,N,A*1F
$IIMWV,150,T,11.9,N,A*18
$IIRMB,A,1.61,L,,TNGRVA  ,,,,,151.60,314,04.4,V,A*72
$IIRMC,064258,A,1045.613,S,15614.486,W,04.6,327,060211,10,E,A*06
$IIVHW,,,311,M,04.2,N,,*61
$IIVLW,04279,N,362.4,N*58
$IIVWR,137,R,07.4,N,,,,*67
$IIDPT,001.5,+0.7,*44
$IIGLL,1045.612,S,15614.486,W,064258,A,A*5A
$IIHDG,311,,,10,E*10
$IIMTW,+28.5,C*37
$IIMWV,137,R,07.4,N,A*15
$IIMWV,151,T,11.5,N,A*15
$IIRMC,064300,A,1045.610,S,15614.487,W,04.8,325,060211,10,E,A*04
$IIVHW,,,311,M,04.2,N,,*61
$IIVLW,04279,N,362.4,N*58
$IIVWR,137,R,07.8,N,,,,*6B
$IIDPT,001.5,+0.7,*44
$IIGLL,1045.610,S,15614.487,W,064300,A,A*55
$IIHDG,311,,,10,E*10
$IIMTW,+28.5,C*37
$IIMWV,137,R,07.8,N,A*19
$IIMWV,152,T,11.2,N,A*11
$IIRMB,A,1.61,L,,TNGRVA  ,,,,,151.60,314,04.7,V,A*71
$IIRMC,064300,A,1045.609,S,15614.487,W,04.8,325,060211,10,E,A*0C
$IIVHW,,,311,M,04.2,N,,*61
$IIVLW,04279,N,362.4,N*58
$IIVWR,137,R,08.3,N,,,,*6F
$IIDPT,001.5,+0.7,*44
$IIGLL,1045.609,S,15614.487,W,064300,A,A*5D
$IIHDG,311,,,10,E*10
$IIMTW,+28.5,C*37
$IIMWV,137,R,08.2,N,A*1C
$IIMWV,151,T,11.7,N,A*17
$IIRMB,A,1.61,L,,TNGRVA  ,,,,,151.60,314,04.7,V,A*71
$IIRMC,064302,A,1045.609,S,15614.488,W,04.7,325,060211,10,E,A*0E
$IIVHW,,,311,M,04.1,N,,*62
$IIVLW,04279,N,362.4,N*58
$IIVWR,137,R,08.2,N,,,,*6E
$IIDPT,001.5,+0.7,*44
$IIGLL,1045.608,S,15614.488,W,064302,A,A*51
$IIHDG,311,,,10,E*10
$IIMTW,+28.5,C*37
$IIMWV,137,R,07.7,N,A*16
$IIMWV,151,T,11.5,N,A*15
$IIRMC,064302,A,1045.608,S,15614.488,W,04.7,325,060211,10,E,A*0F
$IIVHW,,,311,M,04.0,N,,*63
$IIVLW,04279,N,362.4,N*58
$IIVWR,137,R,07.4,N,,,,*67
$IIDPT,001.5,+0.7,*44
$IIGLL,1045.607,S,15614.489,W,064304,A,A*59
$IIHDG,311,,,10,E*10
$IIMTW,+28.5,C*37
$IIMWV,137,R,07.4,N,A*15
$IIMWV,151,T,10.9,N,A*18
$IIRMB,A,1.61,L,,TNGRVA  ,,,,,151.60,314,04.6,V,A*70
$IIRMC,064304,A,1045.607,S,15614.490,W,04.6,323,060211,10,E,A*08
$IIVHW,,,312,M,03.9,N,,*6E
$IIVLW,04279,N,362.4,N*58
$IIVWR,137,R,07.4,N,,,,*67
$IIDPT,001.5,+0.7,*44
$IIGLL,1045.607,S,15614.490,W,064304,A,A*51
$IIHDG,312,,,10,E*13
$IIMTW,+28.5,C*37
$IIMWV,137,R,07.4,N,A*15
$IIMWV,152,T,10.6,N,A*14
$IIRMB,A,1.61,L,,TNGRVA  ,,,,,151.60,314,04.3,V,A*75
$IIRMC,064306,A,1045.607,S,15614.492,W,04.3,320,060211,10,E,A*0E
$IIVHW,,,311,M,03.9,N,,*6D
$IIVLW,04279,N,362.4,N*58
$IIVWR,137,R,07.2,N,,,,*61
$IIDPT,001.5,+0.7,*44
$IIGLL,1045.607,S,15614.492,W,064306,A,A*51
$IIHDG,311,,,10,E*10
$IIMTW,+28.5,C*37
$IIMWV,137,R,06.7,N,A*17
$IIMWV,153,T,10.3,N,A*10
$IIRMC,064306,A,1045.606,S,15614.492,W,04.3,320,060211,10,E,A*0F
$IIVHW,,,311,M,03.9,N,,*6D
$IIVLW,04279,N,362.4,N*58
$IIVWR,137,R,06.7,N,,,,*65
$IIDPT,001.5,+0.7,*44
$IIGLL,1045.605,S,15614.493,W,064308,A,A*5C
$IIHDG,311,,,10,E*10
$IIMTW,+28.5,C*37
$IIMWV,137,R,06.5,N,A*15
$IIMWV,153,T,09.8,N,A*13
$IIRMB,A,1.61,L,,TNGRVA  ,,,,,151.60,314,04.2,V,A*74
$IIRMC,064308,A,1045.605,S,15614.493,W,04.2,319,060211,10,E,A*08
$IIVHW,,,311,M,03.9,N,,*6D
$IIVLW,04279,N,362.4,N*58
$IIVWR,137,R,06.1,N,,,,*63
$IIDPT,001.5,+0.7,*44
$IIGLL,1045.604,S,15614.494,W,064308,A,A*5A
$IIHDG,310,,,10,E*11
$IIMTW,+28.5,C*37
$IIMWV,137,R,06.1,N,A*11
$IIMWV,153,T,09.7,N,A*1C
$IIRMC,064308,A,1045.604,S,15614.494,W,04.2,319,060211,10,E,A*0E
$IIVHW,,,310,M,04.0,N,,*62
$IIVLW,04279,N,362.4,N*58
$IIVWR,137,R,06.0,N,,,,*62
$IIDPT,001.5,+0.7,*44
$IIGLL,1045.603,S,15614.495,W,064310,A,A*55
$IIHDG,310,,,10,E*11
$IIMTW,+28.5,C*37
$IIMWV,137,R,06.0,N,A*10
$IIMWV,154,T,09.3,N,A*1F
$IIRMB,A,1.61,L,,TNGRVA  ,,,,,151.60,314,04.3,V,A*75
$IIRMC,064310,A,1045.600,S,15614.496,W,04.3,322,060211,10,E,A*08
$IIVHW,,,310,M,04.0,N,,*62
$IIVLW,04279,N,362.4,N*58
$IIVWR,137,R,06.1,N,,,,*63
$IIDPT,001.5,+0.7,*44
$IIGLL,1045.600,S,15614.496,W,064310,A,A*55
$IIHDG,310,,,10,E*11
$IIMTW,+28.5,C*37
$IIMWV,137,R,06.1,N,A*11
$IIMWV,154,T,09.3,N,A*1F
$IIRMB,A,1.61,L,,TNGRVA  ,,,,,151.60,314,05.1,V,A*76
$IIRMC,064312,A,1045.598,S,15614.498,W,05.4,333,060211,10,E,A*00
$IIVHW,,,309,M,04.0,N,,*6A
$IIVLW,04279,N,362.4,N*58
$IIVWR,137,R,06.6,N,,,,*64
$IIDPT,001.5,+0.7,*44
$IIGLL,1045.598,S,15614.498,W,064312,A,A*5B
$IIHDG,309,,,10,E*19
$IIMTW,+28.5,C*37
$IIMWV,137,R,06.9,N,A*19
$IIMWV,153,T,09.8,N,A*13
$IIRMC,064312,A,1045.598,S,15614.498,W,05.4,333,060211,10,E,A*00
$IIVHW,,,309,M,04.0,N,,*6A
$IIVLW,04279,N,362.4,N*58
$IIVWR,137,R,06.9,N,,,,*6B
$IIDPT,001.5,+0.7,*44
$IIGLL,1045.596,S,15614.499,W,064314,A,A*52
$IIHDG,308,,,10,E*18
$IIMTW,+28.5,C*37
$IIMWV,137,R,06.6,N,A*16
$IIMWV,153,T,10.1,N,A*12
$IIRMB,A,1.61,L,,TNGRVA  ,,,,,151.60,314,04.3,V,A*75
$IIRMC,064314,A,1045.596,S,15614.499,W,04.4,328,060211,10,E,A*02
$IIVHW,,,308,M,04.0,N,,*6B
$IIVLW,04279,N,362.4,N*58
$IIVWR,137,R,06.5,N,,,,*67
$IIGLL,1045.595,S,15614.499,W,064314,A,A*51
$IIHDG,308,,,10,E*18
$IIMTW,+28.5,C*37
$IIMWV,137,R,06.5,N,A*15
$IIMWV,153,T,09.8,N,A*13
$IIRMC,064314,A,1045.595,S,15614.499,W,04.4,328,060211,10,E,A*01
$IIVHW,,,308,M,03.9,N,,*65
$IIVLW,04279,N,362.4,N*58
$IIVWR,137,R,06.5,N,,,,*67
$IIGLL,1045.594,S,15614.501,W,064316,A,A*52
$IIHDG,309,,,10,E*19
$IIMTW,+28.5,C*37
$IIMWV,137,R,06.5,N,A*15
$IIMWV,153,T,09.7,N,A*1C
$IIRMB,A,1.61,L,,TNGRVA  ,,,,,151.60,314,04.3,V,A*75
$IIRMC,064316,A,1045.593,S,15614.501,W,04.3,320,060211,10,E,A*0A
$IIVHW,,,310,M,03.9,N,,*6C
$IIVLW,04279,N,362.4,N*58
$IIVWR,137,R,07.0,N,,,,*63
$IIGLL,1045.593,S,15614.501,W,064316,A,A*55
$IIHDG,310,,,10,E*11
$IIMTW,+28.5,C*37
$IIMWV,137,R,07.0,N,A*11
$IIMWV,153,T,09.7,N,A*1C
$IIRMB,A,1.61,L,,TNGRVA  ,,,,,151.60,314,04.2,V,A*74
$IIRMC,064318,A,1045.592,S,15614.502,W,04.2,316,060211,10,E,A*02
$IIVHW,,,310,M,03.9,N,,*6C
$IIVLW,04279,N,362.4,N*58
$IIVWR,137,R,07.2,N,,,,*61
$IIGLL,1045.592,S,15614.502,W,064318,A,A*59
$IIHDG,310,,,10,E*11
$IIMTW,+28.5,C*37
$IIMWV,137,R,07.2,N,A*13
$IIMWV,153,T,10.3,N,A*10
$IIRMC,064318,A,1045.592,S,15614.502,W,04.2,316,060211,10,E,A*02
$IIVHW,,,309,M,03.9,N,,*64
$IIVLW,04279,N,362.4,N*58
$IIVWR,137,R,07.2,N,,,,*61
$IIGLL,1045.592,S,15614.502,W,064318,A,A*59
$IIHDG,309,,,10,E*19
$IIMTW,+28.5,C*37
$IIMWV,137,R,07.1,N,A*10
$IIMWV,153,T,10.3,N,A*10
$IIRMB,A,1.61,L,,TNGRVA  ,,,,,151.60,314,04.0,V,A*76
$IIRMC,064320,A,1045.591,S,15614.503,W,04.0,315,060211,10,E,A*0A
$IIVHW,,,308,M,03.8,N,,*64
$IIVLW,04279,N,362.4,N*58
$IIVWR,137,R,07.1,N,,,,*62
$IIGLL,1045.590,S,15614.504,W,064320,A,A*56
$IIHDG,309,,,10,E*19
$IIMTW,+28.5,C*37
$IIMWV,137,R,06.4,N,A*14
$IIMWV,152,T,10.2,N,A*10
$IIRMC,064320,A,1045.590,S,15614.504,W,04.0,315,060211,10,E,A*0C
$IIVHW,,,309,M,03.8,N,,*65
$IIVLW,04279,N,362.4,N*58
$IIVWR,137,R,06.4,N,,,,*66
$IIGLL,1045.589,S,15614.505,W,064322,A,A*5D
$IIHDG,309,,,10,E*19
$IIMTW,+28.5,C*37
$IIMWV,137,R,06.7,N,A*17
$IIMWV,153,T,09.5,N,A*1E
$IIRMB,A,1.61,L,,TNGRVA  ,,,,,151.60,314,04.1,V,A*77
$IIRMC,064322,A,1045.589,S,15614.505,W,04.1,314,060211,10,E,A*07
$IIVHW,,,309,M,03.8,N,,*65
$IIVLW,04279,N,362.4,N*58
$IIVWR,137,R,07.3,N,,,,*60
$IIGLL,1045.589,S,15614.506,W,064322,A,A*5E
$IIHDG,308,,,10,E*18
$IIMTW,+28.5,C*37
$IIMWV,137,R,07.3,N,A*12
$IIMWV,153,T,09.7,N,A*1C
$IIRMC,064322,A,1045.589,S,15614.506,W,04.1,314,060211,10,E,A*04
$IIVHW,,,308,M,03.9,N,,*65
$IIVLW,04279,N,362.4,N*58
$IIVWR,137,R,07.6,N,,,,*65
$IIGLL,1045.588,S,15614.507,W,064324,A,A*58
$IIHDG,308,,,10,E*18
$IIMTW,+28.5,C*37
$IIMWV,137,R,07.6,N,A*17
$IIMWV,152,T,10.5,N,A*17
$IIRMB,A,1.61,L,,TNGRVA  ,,,,,151.60,314,04.5,V,A*73
$IIRMC,064324,A,1045.587,S,15614.508,W,04.2,313,060211,10,E,A*06
$IIVHW,,,307,M,04.0,N,,*64
$IIVLW,04279,N,362.4,N*58
$IIVWR,137,R,07.3,N,,,,*60
$IIGLL,1045.587,S,15614.508,W,064324,A,A*58
$IIHDG,307,,,10,E*17
$IIMTW,+28.5,C*37
$IIMWV,137,R,07.3,N,A*12
$IIMWV,152,T,10.7,N,A*15
$IIRMB,A,1.61,L,,TNGRVA  ,,,,,151.60,314,04.7,V,A*71
$IIRMC,064326,A,1045.586,S,15614.510,W,04.7,319,060211,10,E,A*03
$IIVHW,,,307,M,04.0,N,,*64
$IIVLW,04279,N,362.4,N*58
$IIVWR,137,R,06.7,N,,,,*65
$IIGLL,1045.586,S,15614.510,W,064326,A,A*52
$IIHDG,307,,,10,E*17
$IIMTW,+28.5,C*37
$IIMWV,137,R,06.6,N,A*16
$IIMWV,153,T,09.8,N,A*13
$IIRMC,064326,A,1045.585,S,15614.511,W,04.7,319,060211,10,E,A*01
$IIVHW,,,307,M,03.9,N,,*6A
$IIVLW,04279,N,362.4,N*58
$IIVWR,137,R,06.6,N,,,,*64
$IIGLL,1045.585,S,15614.511,W,064326,A,A*50
$IIHDG,307,,,10,E*17
$IIMTW,+28.5,C*37
$IIMWV,137,R,07.0,N,A*11
$IIMWV,153,T,09.8,N,A*13
$IIRMB,A,1.61,L,,TNGRVA  ,,,,,151.60,314,04.6,V,A*70
$IIRMC,064328,A,1045.584,S,15614.512,W,04.6,319,060211,10,E,A*0C
$IIVHW,,,307,M,03.9,N,,*6A
$IIVLW,04279,N,362.4,N*58
$IIVWR,137,R,07.0,N,,,,*63
$IIGLL,1045.583,S,15614.512,W,064328,A,A*5B
$IIHDG,308,,,10,E*18
$IIMTW,+28.5,C*37
$IIMWV,137,R,07.3,N,A*12
$IIMWV,153,T,10.2,N,A*11
$IIRMC,064328,A,1045.583,S,15614.512,W,04.6,319,060211,10,E,A*0B
$IIVHW,,,308,M,03.9,N,,*65
$IIVLW,04279,N,362.4,N*58
$IIVWR,137,R,07.3,N,,,,*60
$IIGLL,1045.581,S,15614.513,W,064330,A,A*51
$IIHDG,307,,,10,E*17
$IIMTW,+28.5,C*37
$IIMWV,137,R,07.2,N,A*13
$IIMWV,152,T,10.5,N,A*17
$IIRMC,064330,A,1045.581,S,15614.513,W,04.7,319,060211,10,E,A*00
$IIVHW,,,307,M,03.9,N,,*6A
$IIVLW,04279,N,362.4,N*58
$IIVWR,137,R,07.2,N,,,,*61
$IIGLL,1045.581,S,15614.514,W,064330,A,A*56
$IIHDG,307,,,10,E*17
$IIMTW,+28.5,C*37
$IIMWV,137,R,06.7,N,A*17
$IIMWV,153,T,10.3,N,A*10
$IIRMC,064330,A,1045.581,S,15614.514,W,04.7,319,060211,10,E,A*07
$IIVHW,,,307,M,04.0,N,,*64
$IIVLW,04279,N,362.4,N*58
$IIVWR,137,R,06.7,N,,,,*65
$IIGLL,1045.579,S,15614.515,W,064332,A,A*52
$IIHDG,308,,,10,E*18
$IIMTW,+28.5,C*37
$IIMWV,137,R,06.6,N,A*16
$IIMWV,153,T,09.8,N,A*13
$IIRMB,A,1.61,L,,TNGRVA  ,,,,,151.60,314,04.7,V,A*71
$IIRMC,064332,A,1045.579,S,15614.515,W,04.7,319,060211,10,E,A*03
$IIVHW,,,308,M,03.9,N,,*65
$IIVLW,04279,N,362.4,N*58
$IIVWR,137,R,06.8,N,,,,*6A
$IIGLL,1045.578,S,15614.515,W,064332,A,A*53
$IIHDG,308,,,10,E*18
$IIMTW,+28.5,C*37
$IIMWV,137,R,06.8,N,A*18
$IIMWV,153,T,09.8,N,A*13
$IIRMC,064332,A,1045.578,S,15614.515,W,04.7,319,060211,10,E,A*02
$IIVHW,,,308,M,03.8,N,,*64
$IIVLW,04279,N,362.4,N*58
$IIVWR,137,R,07.0,N,,,,*63
$IIGLL,1045.577,S,15614.516,W,064334,A,A*59
$IIHDG,308,,,10,E*18
$IIMTW,+28.5,C*37
$IIMWV,137,R,07.0,N,A*11
$IIMWV,153,T,09.9,N,A*12
$IIRMB,A,1.61,L,,TNGRVA  ,,,,,151.60,314,04.5,V,A*73
$IIRMC,064334,A,1045.577,S,15614.516,W,04.6,320,060211,10,E,A*03
$IIVHW,,,308,M,04.0,N,,*6B
$IIVLW,04279,N,362.4,N*58
$IIVWR,137,R,06.9,N,,,,*6B
$IIGLL,1045.577,S,15614.516,W,064334,A,A*59
$IIHDG,308,,,10,E*18
$IIMTW,+28.5,C*37
$IIMWV,137,R,06.9,N,A*19
$IIMWV,153,T,10.2,N,A*11
$IIRMB,A,1.61,L,,TNGRVA  ,,,,,151.60,314,04.4,V,A*72
$IIRMC,064336,A,1045.576,S,15614.517,W,04.4,318,060211,10,E,A*08
$IIVHW,,,308,M,03.9,N,,*65
$IIVLW,04279,N,362.4,N*58
$IIVWR,137,R,06.8,N,,,,*6A
$IIGLL,1045.576,S,15614.517,W,064336,A,A*5B
$IIHDG,308,,,10,E*18
$IIMTW,+28.5,C*37
$IIMWV,137,R,07.1,N,A*10
$IIMWV,153,T,10.0,N,A*13
$IIRMC,064336,A,1045.575,S,15614.518,W,04.4,318,060211,10,E,A*04
$IIVHW,,,309,M,03.9,N,,*64
$IIVLW,04279,N,362.4,N*58
$IIVWR,137,R,07.1,N,,,,*62
$IIGLL,1045.575,S,15614.518,W,064336,A,A*57
$IIHDG,309,,,10,E*19
$IIMTW,+28.5,C*37
$IIMWV,137,R,07.0,N,A*11
$IIMWV,152,T,10.2,N,A*10
$IIRMB,A,1.61,L,,TNGRVA  ,,,,,151.60,314,04.3,V,A*75
$IIRMC,064338,A,1045.574,S,15614.520,W,04.3,318,060211,10,E,A*07
$IIVHW,,,309,M,03.8,N,,*65
$IIVLW,04279,N,362.4,N*58
$IIVWR,137,R,07.0,N,,,,*63
$IIGLL,1045.573,S,15614.520,W,064338,A,A*54
$IIHDG,310,,,10,E*11
$IIMTW,+28.5,C*37
$IIMWV,137,R,06.6,N,A*16
$IIMWV,153,T,10.1,N,A*12
$IIRMC,064338,A,1045.573,S,15614.520,W,04.3,318,060211,10,E,A*00
$IIVHW,,,310,M,03.7,N,,*62
$IIVLW,04279,N,362.4,N*58
$IIVWR,137,R,06.6,N,,,,*64
$IIGLL,1045.571,S,15614.521,W,064340,A,A*58
$IIHDG,310,,,10,E*11
$IIMTW,+28.5,C*37
$IIMWV,137,R,06.9,N,A*19
$IIMWV,153,T,09.6,N,A*1D
$IIRMB,A,1.61,L,,TNGRVA  ,,,,,151.60,314,04.5,V,A*73
$IIRMC,064340,A,1045.571,S,15614.521,W,04.5,319,060211,10,E,A*0B
$IIVHW,,,310,M,03.8,N,,*6D
$IIVLW,04279,N,362.4,N*58
$IIVWR,137,R,07.0,N,,,,*63
$IIGLL,1045.571,S,15614.521,W,064340,A,A*58
$IIHDG,310,,,10,E*11
$IIMTW,+28.5,C*37
$IIMWV,137,R,07.0,N,A*11
$IIMWV,153,T,09.9,N,A*12
$IIRMC,064340,A,1045.571,S,15614.521,W,04.5,319,060211,10,E,A*0B
$IIVHW,,,310,M,03.9,N,,*6C
$IIVLW,04279,N,362.4,N*58
$IIVWR,137,R,07.0,N,,,,*63
$IIGLL,1045.570,S,15614.522,W,064342,A,A*58
$IIHDG,310,,,10,E*11
$IIMTW,+28.5,C*37
$IIMWV,137,R,07.0,N,A*11
$IIMWV,153,T,10.1,N,A*12
$IIRMB,A,1.61,L,,TNGRVA  ,,,,,151.60,314,04.5,V,A*73
$IIRMC,064342,A,1045.569,S,15614.523,W,04.5,321,060211,10,E,A*09
$IIVHW,,,311,M,03.8,N,,*6C
$IIVLW,04279,N,362.4,N*58
$IIVWR,137,R,06.7,N,,,,*65
$IIGLL,1045.569,S,15614.523,W,064342,A,A*51
$IIHDG,311,,,10,E*10
$IIMTW,+28.5,C*37
$IIMWV,137,R,06.7,N,A*17
$IIMWV,153,T,10.1,N,A*12
$IIRMB,A,1.61,L,,TNGRVA  ,,,,,151.60,314,04.6,V,A*70
$IIRMC,064344,A,1045.567,S,15614.524,W,04.6,321,060211,10,E,A*05
$IIVHW,,,311,M,03.7,N,,*63
$IIVLW,04279,N,362.4,N*58
$IIVWR,137,R,07.0,N,,,,*63
$IIGLL,1045.567,S,15614.524,W,064344,A,A*5E
$IIHDG,311,,,10,E*10
$IIMTW,+28.5,C*37
$IIMWV,137,R,07.3,N,A*12
$IIMWV,152,T,10.0,N,A*12
$IIRMC,064344,A,1045.567,S,15614.524,W,04.6,321,060211,10,E,A*05
$IIVHW,,,311,M,03.6,N,,*62
$IIVLW,04279,N,362.4,N*58
$IIVWR,137,R,07.3,N,,,,*60
$IIGLL,1045.567,S,15614.524,W,064344,A,A*5E
$IIHDG,311,,,10,E*10
$IIMTW,+28.5,C*37
$IIMWV,137,R,07.4,N,A*15
$IIMWV,151,T,10.2,N,A*13
$IIRMB,A,1.61,L,,TNGRVA  ,,,,,151.50,314,04.3,V,A*76
$IIRMC,064346,A,1045.566,S,15614.525,W,04.3,321,060211,10,E,A*02
$IIVHW,,,310,M,03.6,N,,*63
$IIVLW,04279,N,362.4,N*58
$IIVWR,137,R,07.4,N,,,,*67
$IIGLL,1045.565,S,15614.525,W,064346,A,A*5F
$IIHDG,310,,,10,E*11
$IIMTW,+28.5,C*37
$IIMWV,137,R,07.2,N,A*13
$IIMWV,151,T,10.2,N,A*13
$IIRMC,064346,A,1045.565,S,15614.525,W,04.3,321,060211,10,E,A*01
$IIVHW,,,310,M,03.7,N,,*62
$IIVLW,04279,N,362.4,N*58
$IIVWR,137,R,07.2,N,,,,*61
$IIGLL,1045.564,S,15614.527,W,064348,A,A*52
$IIHDG,310,,,10,E*11
$IIMTW,+28.5,C*37
$IIMWV,137,R,07.1,N,A*10
$IIMWV,152,T,10.1,N,A*13
$IIRMB,A,1.61,L,,TNGRVA  ,,,,,151.50,314,04.2,V,A*77
$IIRMC,064348,A,1045.564,S,15614.527,W,04.2,321,060211,10,E,A*0D
$IIVHW,,,310,M,03.7,N,,*62
$IIVLW,04279,N,362.4,N*58
$IIVWR,137,R,07.3,N,,,,*60
$IIGLL,1045.563,S,15614.527,W,064348,A,A*55
$IIHDG,311,,,10,E*10
$IIMTW,+28.5,C*37
$IIMWV,137,R,07.3,N,A*12
$IIMWV,151,T,10.0,N,A*11
$IIRMC,064348,A,1045.563,S,15614.527,W,04.2,321,060211,10,E,A*0A
$IIVHW,,,311,M,03.7,N,,*63
$IIVLW,04279,N,362.4,N*58
$IIVWR,137,R,07.8,N,,,,*6B
$IIGLL,1045.562,S,15614.529,W,064350,A,A*53
$IIHDG,311,,,10,E*10
$IIMTW,+28.5,C*37
$IIMWV,137,R,07.8,N,A*19
$IIMWV,152,T,10.3,N,A*11
$IIRMB,A,1.61,L,,TNGRVA  ,,,,,151.50,314,04.3,V,A*76
$IIRMC,064350,A,1045.562,S,15614.529,W,04.3,321,060211,10,E,A*0D
$IIVHW,,,311,M,03.7,N,,*63
$IIVLW,04279,N,362.4,N*58
$IIVWR,137,R,07.6,N,,,,*65
$IIGLL,1045.562,S,15614.529,W,064350,A,A*53
$IIHDG,311,,,10,E*10
$IIMTW,+28.5,C*37
$IIMWV,137,R,07.6,N,A*17
$IIMWV,150,T,10.7,N,A*17
$IIRMB,A,1.61,L,,TNGRVA  ,,,,,151.50,314,04.3,V,A*76
$IIRMC,064352,A,1045.561,S,15614.530,W,04.3,320,060211,10,E,A*05
$IIVHW,,,310,M,03.7,N,,*62
$IIVLW,04279,N,362.4,N*58
$IIVWR,137,R,07.3,N,,,,*60
$IIGLL,1045.561,S,15614.530,W,064352,A,A*5A
$IIHDG,310,,,10,E*11
$IIMTW,+28.5,C*37
$IIMWV,137,R,06.8,N,A*18
$IIMWV,151,T,10.2,N,A*13
$IIRMC,064352,A,1045.560,S,15614.530,W,04.3,320,060211,10,E,A*04
$IIVHW,,,310,M,03.7,N,,*62
$IIVLW,04279,N,362.4,N*58
$IIVWR,137,R,06.8,N,,,,*6A
$IIGLL,1045.560,S,15614.530,W,064352,A,A*5B
$IIHDG,310,,,10,E*11
$IIMTW,+28.5,C*37
$IIMWV,137,R,06.6,N,A*16
$IIMWV,152,T,09.7,N,A*1D
$IIRMB,A,1.61,L,,TNGRVA  ,,,,,151.50,314,04.1,V,A*74
$IIRMC,064354,A,1045.559,S,15614.531,W,04.1,315,060211,10,E,A*0D
$IIVHW,,,310,M,03.6,N,,*63
$IIVLW,04279,N,362.5,N*59
$IIVWR,137,R,06.6,N,,,,*64
$IIGLL,1045.559,S,15614.532,W,064354,A,A*55
$IIHDG,311,,,10,E*10
$IIMTW,+28.5,C*37
$IIMWV,137,R,07.1,N,A*10
$IIMWV,152,T,09.4,N,A*1E
$IIRMC,064354,A,1045.559,S,15614.532,W,04.1,315,060211,10,E,A*0E
$IIVHW,,,311,M,03.6,N,,*62
$IIVLW,04279,N,362.5,N*59
$IIVWR,137,R,07.1,N,,,,*62
$IIGLL,1045.558,S,15614.533,W,064356,A,A*57
$IIHDG,310,,,10,E*11
$IIMTW,+28.5,C*37
$IIMWV,137,R,07.4,N,A*15
$IIMWV,151,T,10.0,N,A*11
$IIRMB,A,1.61,L,,TNGRVA  ,,,,,151.50,314,04.0,V,A*75
$IIRMC,064356,A,1045.558,S,15614.533,W,04.0,318,060211,10,E,A*00
$IIVHW,,,310,M,03.6,N,,*63
$IIVLW,04279,N,362.5,N*59
$IIVWR,137,R,07.4,N,,,,*67
$IIGLL,1045.558,S,15614.534,W,064356,A,A*50
$IIHDG,310,,,10,E*11
$IIMTW,+28.5,C*37
$IIMWV,137,R,07.4,N,A*15
$IIMWV,151,T,10.3,N,A*12
$IIRMC,064356,A,1045.558,S,15614.534,W,04.0,318,060211,10,E,A*07
$IIVHW,,,310,M,03.6,N,,*63
$IIVLW,04279,N,362.5,N*59
$IIVWR,137,R,07.1,N,,,,*62
$IIGLL,1045.557,S,15614.534,W,064358,A,A*51
$IIHDG,310,,,10,E*11
$IIMTW,+28.5,C*37
$IIMWV,137,R,07.1,N,A*10
$IIMWV,151,T,10.3,N,A*12
$IIRMB,A,1.61,L,,TNGRVA  ,,,,,151.50,314,04.1,V,A*74
$IIRMC,064358,A,1045.556,S,15614.534,W,04.1,321,060211,10,E,A*0C
$IIVHW,,,310,M,03.7,N,,*62
$IIVLW,04279,N,362.5,N*59
$IIVWR,145,R,06.9,N,,,,*6E
$IIGLL,1045.556,S,15614.534,W,064358,A,A*50
$IIHDG,310,,,10,E*11
$IIMTW,+28.5,C*37
$IIMWV,145,R,06.9,N,A*1C
$IIMWV,151,T,10.0,N,A*11
$IIRMB,A,1.61,L,,TNGRVA  ,,,,,151.50,314,04.1,V,A*74
$IIRMC,064400,A,1045.556,S,15614.534,W,04.2,323,060211,10,E,A*07
$IIVHW,,,310,M,03.7,N,,*62
$IIVLW,04279,N,362.5,N*59
$IIVWR,137,R,07.3,N,,,,*60
$IIGLL,1045.556,S,15614.534,W,064400,A,A*5A
$IIHDG,310,,,10,E*11
$IIMTW,+28.5,C*37
$IIMWV,137,R,08.1,N,A*1F
$IIMWV,152,T,10.3,N,A*11
$IIRMC,064400,A,1045.555,S,15614.535,W,04.2,323,060211,10,E,A*05
$IIVHW,,,311,M,03.7,N,,*63
$IIVLW,04279,N,362.5,N*59
$IIVWR,137,R,08.1,N,,,,*6D
$IIGLL,1045.555,S,15614.535,W,064400,A,A*58
$IIHDG,311,,,10,E*10
$IIMTW,+28.5,C*37
$IIMWV,137,R,08.2,N,A*1C
$IIMWV,150,T,11.1,N,A*10
$IIRMB,A,1.61,L,,TNGRVA  ,,,,,151.50,314,04.0,V,A*75
$IIRMC,064402,A,1045.553,S,15614.536,W,04.1,323,060211,10,E,A*01
$IIVHW,,,311,M,03.6,N,,*62
$IIVLW,04279,N,362.5,N*59
$IIVWR,137,R,08.2,N,,,,*6E
$IIGLL,1045.552,S,15614.536,W,064402,A,A*5E
$IIHDG,311,,,10,E*10
$IIMTW,+28.5,C*37
$IIMWV,137,R,07.8,N,A*19
$IIMWV,150,T,11.0,N,A*11
$IIRMC,064402,A,1045.552,S,15614.536,W,04.1,323,060211,10,E,A*00
$IIVHW,,,311,M,03.6,N,,*62
$IIVLW,04279,N,362.5,N*59
$IIVWR,137,R,07.8,N,,,,*6B
$IIGLL,1045.551,S,15614.537,W,064404,A,A*5A
$IIHDG,310,,,10,E*11
$IIMTW,+28.5,C*37
$IIMWV,137,R,07.1,N,A*10
$IIMWV,150,T,10.6,N,A*16
$IIRMB,A,1.61,L,,TNGRVA  ,,,,,151.50,314,03.9,V,A*7B
$IIRMC,064404,A,1045.551,S,15614.537,W,04.0,322,060211,10,E,A*04
$IIVHW,,,310,M,03.6,N,,*63
$IIVLW,04279,N,362.5,N*59
$IIVWR,137,R,06.8,N,,,,*6A
$IIGLL,1045.550,S,15614.538,W,064404,A,A*54
$IIHDG,311,,,10,E*10
$IIMTW,+28.5,C*37
$IIMWV,137,R,06.8,N,A*18
$IIMWV,151,T,09.9,N,A*10
$IIRMC,064404,A,1045.550,S,15614.538,W,04.0,322,060211,10,E,A*0A
$IIVHW,,,311,M,03.6,N,,*62
$IIVLW,04279,N,362.5,N*59
$IIVWR,137,R,07.1,N,,,,*62
$IIGLL,1045.549,S,15614.539,W,064406,A,A*5F
$IIHDG,312,,,10,E*13
$IIMTW,+28.5,C*37
$IIMWV,137,R,07.1,N,A*10
$IIMWV,151,T,09.6,N,A*1F
$IIRMB,A,1.61,L,,TNGRVA  ,,,,,151.50,314,04.1,V,A*74
$IIRMC,064406,A,1045.549,S,15614.539,W,04.0,322,060211,10,E,A*01
$IIVHW,,,311,M,03.6,N,,*62
$IIVLW,04279,N,362.5,N*59
$IIVWR,137,R,07.1,N,,,,*62
$IIGLL,1045.549,S,15614.539,W,064406,A,A*5F
$IIHDG,311,,,10,E*10
$IIMTW,+28.5,C*37
$IIMWV,137,R,07.1,N,A*10
$IIMWV,151,T,09.9,N,A*10
$IIRMB,A,1.61,L,,TNGRVA  ,,,,,151.50,314,04.1,V,A*74
$IIRMC,064408,A,1045.548,S,15614.540,W,04.1,320,060211,10,E,A*03
$IIVHW,,,311,M,03.6,N,,*62
$IIVLW,04279,N,362.5,N*59
$IIVWR,137,R,06.9,N,,,,*6B
$IIGLL,1045.548,S,15614.540,W,064408,A,A*5E
$IIHDG,311,,,10,E*10
$IIMTW,+28.5,C*37
$IIMWV,137,R,06.5,N,A*15
$IIMWV,152,T,09.8,N,A*12
$IIRMC,064408,A,1045.548,S,15614.541,W,04.1,320,060211,10,E,A*02
$IIVHW,,,311,M,03.6,N,,*62
$IIVLW,04279,N,362.5,N*59
$IIVWR,137,R,06.5,N,,,,*67
$IIGLL,1045.548,S,15614.541,W,064408,A,A*5F
$IIHDG,311,,,10,E*10
$IIMTW,+28.5,C*37
$IIMWV,137,R,06.2,N,A*12
$IIMWV,152,T,09.3,N,A*19
$IIRMB,A,1.61,L,,TNGRVA  ,,,,,151.50,314,04.2,V,A*77
$IIRMC,064410,A,1045.547,S,15614.542,W,04.2,318,060211,10,E,A*0F
$IIVHW,,,311,M,03.6,N,,*62
$IIVLW,04279,N,362.5,N*59
$IIVWR,137,R,06.2,N,,,,*60
$IIGLL,1045.547,S,15614.542,W,064410,A,A*5A
$IIHDG,311,,,10,E*10
$IIMTW,+28.5,C*37
$IIMWV,137,R,06.3,N,A*13
$IIMWV,153,T,09.1,N,A*1A
$IIRMC,064410,A,1045.547,S,15614.542,W,04.2,318,060211,10,E,A*0F
$IIVHW,,,311,M,03.5,N,,*61
$IIVLW,04279,N,362.5,N*59
$IIVWR,137,R,06.3,N,,,,*61
$IIGLL,1045.545,S,15614.543,W,064412,A,A*5B
$IIHDG,310,,,10,E*11
$IIMTW,+28.5,C*37
$IIMWV,137,R,06.9,N,A*19
$IIMWV,153,T,09.1,N,A*1A
$IIRMB,A,1.61,L,,TNGRVA  ,,,,,151.50,314,04.0,V,A*75
$IIRMC,064412,A,1045.545,S,15614.543,W,04.0,321,060211,10,E,A*06
$IIVHW,,,310,M,03.5,N,,*60
$IIVLW,04279,N,362.5,N*59
$IIVWR,137,R,07.3,N,,,,*60
$IIGLL,1045.545,S,15614.543,W,064412,A,A*5B
$IIHDG,309,,,10,E*19
$IIMTW,+28.5,C*37
$IIMWV,137,R,07.3,N,A*12
$IIMWV,152,T,09.7,N,A*1D
$IIRMC,064412,A,1045.545,S,15614.543,W,04.0,321,060211,10,E,A*06
$IIVHW,,,309,M,03.5,N,,*68
$IIVLW,04279,N,362.5,N*59
$IIVWR,137,R,07.2,N,,,,*61
$IIGLL,1045.544,S,15614.544,W,064414,A,A*5B
$IIHDG,309,,,10,E*19
$IIMTW,+28.5,C*37
$IIMWV,137,R,07.2,N,A*13
$IIMWV,151,T,10.1,N,A*10
$IIRMB,A,1.62,L,,TNGRVA  ,,,,,151.50,314,03.9,V,A*78
$IIRMC,064415,A,1045.543,S,15614.544,W,04.0,322,060211,10,E,A*03
$IIVHW,,,310,M,03.6,N,,*63
$IIVLW,04279,N,362.5,N*59
$IIVWR,137,R,07.4,N,,,,*67
$IIGLL,1045.543,S,15614.544,W,064415,A,A*5D
$IIHDG,310,,,10,E*11
$IIMTW,+28.5,C*37
$IIMWV,137,R,07.4,N,A*15
$IIMWV,151,T,10.0,N,A*11
$IIRMB,A,1.62,L,,TNGRVA  ,,,,,151.50,314,04.1,V,A*77
$IIRMC,064416,A,1045.541,S,15614.545,W,04.1,322,060211,10,E,A*02
$IIVHW,,,310,M,03.7,N,,*62
$IIVLW,04279,N,362.5,N*59
$IIVWR,137,R,07.9,N,,,,*6A
$IIGLL,1045.541,S,15614.545,W,064416,A,A*5D
$IIHDG,310,,,10,E*11
$IIMTW,+28.5,C*37
$IIMWV,137,R,07.9,N,A*18
$IIMWV,151,T,10.8,N,A*19
$IIRMC,064417,A,1045.541,S,15614.545,W,04.1,322,060211,10,E,A*03
$IIVHW,,,311,M,03.7,N,,*63
$IIVLW,04279,N,362.5,N*59
$IIVWR,137,R,07.9,N,,,,*6A
$IIGLL,1045.541,S,15614.545,W,064417,A,A*5C
$IIHDG,311,,,10,E*10
$IIMTW,+28.5,C*37
$IIMWV,137,R,07.6,N,A*17
$IIMWV,150,T,10.7,N,A*17
$IIRMB,A,1.62,L,,TNGRVA  ,,,,,151.50,314,04.1,V,A*77
$IIRMC,064418,A,1045.540,S,15614.546,W,04.2,324,060211,10,E,A*0B
$IIVHW,,,311,M,03.6,N,,*62
$IIVLW,04279,N,362.5,N*59
$IIVWR,137,R,07.6,N,,,,*65
$IIGLL,1045.539,S,15614.547,W,064419,A,A*5F
$IIHDG,310,,,10,E*11
$IIMTW,+28.5,C*37
$IIMWV,137,R,07.2,N,A*13
$IIMWV,151,T,10.5,N,A*14
$IIRMC,064419,A,1045.539,S,15614.547,W,04.2,324,060211,10,E,A*05
$IIVHW,,,310,M,03.6,N,,*63
$IIVLW,04279,N,362.5,N*59
$IIVWR,137,R,07.2,N,,,,*61
$IIGLL,1045.538,S,15614.548,W,064420,A,A*5B
$IIHDG,310,,,10,E*11
$IIMTW,+28.5,C*37
$IIMWV,137,R,07.0,N,A*11
$IIMWV,152,T,10.1,N,A*13
$IIRMB,A,1.62,L,,TNGRVA  ,,,,,151.50,314,04.1,V,A*77
$IIRMC,064420,A,1045.538,S,15614.548,W,04.1,322,060211,10,E,A*04
$IIVHW,,,310,M,03.7,N,,*62
$IIVLW,04279,N,362.5,N*59
$IIVWR,137,R,07.0,N,,,,*63
$IIGLL,1045.537,S,15614.548,W,064421,A,A*55
$IIHDG,311,,,10,E*10
$IIMTW,+28.5,C*37
$IIMWV,137,R,07.0,N,A*11
$IIMWV,152,T,09.9,N,A*13
$IIRMC,064421,A,1045.537,S,15614.548,W,04.1,322,060211,10,E,A*0A
$IIVHW,,,311,M,03.6,N,,*62
$IIVLW,04279,N,362.5,N*59
$IIVWR,137,R,07.4,N,,,,*67
$IIGLL,1045.536,S,15614.549,W,064422,A,A*56
$IIHDG,311,,,10,E*10
$IIMTW,+28.5,C*37
$IIMWV,137,R,07.4,N,A*15
$IIMWV,152,T,09.9,N,A*13
$IIRMB,A,1.62,L,,TNGRVA  ,,,,,151.50,314,04.0,V,A*76
$IIRMC,064423,A,1045.535,S,15614.550,W,04.0,319,060211,10,E,A*0A
$IIVHW,,,310,M,03.6,N,,*63
$IIVLW,04279,N,362.5,N*59
$IIVWR,137,R,07.3,N,,,,*60
$IIGLL,1045.535,S,15614.550,W,064423,A,A*5C
$IIHDG,310,,,10,E*11
$IIMTW,+28.5,C*37
$IIMWV,137,R,07.3,N,A*12
$IIMWV,151,T,10.3,N,A*12
$IIRMB,A,1.62,L,,TNGRVA  ,,,,,151.50,314,03.9,V,A*78
$IIRMC,064424,A,1045.533,S,15614.551,W,03.9,319,060211,10,E,A*04
$IIVHW,,,310,M,03.6,N,,*63
$IIVLW,04279,N,362.5,N*59
$IIVWR,137,R,07.1,N,,,,*62
$IIGLL,1045.533,S,15614.551,W,064424,A,A*5C
$IIHDG,310,,,10,E*11
$IIMTW,+28.5,C*37
$IIMWV,137,R,07.0,N,A*11
$IIMWV,151,T,09.9,N,A*10
$IIRMC,064425,A,1045.533,S,15614.550,W,03.9,319,060211,10,E,A*04
$IIVHW,,,311,M,03.6,N,,*62
$IIVLW,04279,N,362.5,N*59
$IIVWR,137,R,07.0,N,,,,*63
$IIGLL,1045.533,S,15614.550,W,064425,A,A*5C
$IIHDG,311,,,10,E*10
$IIMTW,+28.5,C*37
$IIMWV,137,R,07.5,N,A*14
$IIMWV,151,T,09.8,N,A*11
$IIRMB,A,1.62,L,,TNGRVA  ,,,,,151.50,314,04.0,V,A*76
$IIRMC,064426,A,1045.532,S,15614.551,W,04.0,319,060211,10,E,A*09
$IIVHW,,,311,M,03.6,N,,*62
$IIVLW,04279,N,362.5,N*59
$IIVWR,137,R,07.5,N,,,,*66
$IIGLL,1045.531,S,15614.552,W,064427,A,A*5E
$IIHDG,311,,,10,E*10
$IIMTW,+28.5,C*37
$IIMWV,137,R,07.9,N,A*18
$IIMWV,151,T,10.4,N,A*15
$IIRMC,064427,A,1045.531,S,15614.552,W,04.0,319,060211,10,E,A*08
$IIVHW,,,311,M,03.7,N,,*63
$IIVLW,04279,N,362.5,N*59
$IIVWR,137,R,07.9,N,,,,*6A
$IIGLL,1045.529,S,15614.553,W,064428,A,A*59
$IIHDG,310,,,10,E*11
$IIMTW,+28.5,C*37
$IIMWV,137,R,07.7,N,A*16
$IIMWV,150,T,10.7,N,A*17
$IIRMB,A,1.62,L,,TNGRVA  ,,,,,151.50,314,04.0,V,A*76
$IIRMC,064428,A,1045.529,S,15614.553,W,04.1,325,060211,10,E,A*01
$IIVHW,,,310,M,03.6,N,,*63
$IIVLW,04279,N,362.5,N*59
$IIVWR,137,R,07.5,N,,,,*66
$IIGLL,1045.529,S,15614.553,W,064429,A,A*58
$IIHDG,310,,,10,E*11
$IIMTW,+28.5,C*37
$IIMWV,137,R,07.5,N,A*14
$IIMWV,151,T,10.6,N,A*17
$IIRMC,064429,A,1045.529,S,15614.553,W,04.1,325,060211,10,E,A*00
$IIVHW,,,310,M,03.6,N,,*63
$IIVLW,04279,N,362.5,N*59
$IIVWR,137,R,07.6,N,,,,*65
$IIGLL,1045.527,S,15614.554,W,064430,A,A*59
$IIHDG,311,,,10,E*10
$IIMTW,+28.5,C*37
$IIMWV,137,R,07.6,N,A*17
$IIMWV,151,T,10.4,N,A*15
$IIRMB,A,1.62,L,,TNGRVA  ,,,,,151.50,314,04.1,V,A*77
$IIRMC,064431,A,1045.527,S,15614.555,W,04.1,324,060211,10,E,A*00
$IIVHW,,,312,M,03.7,N,,*60
$IIVLW,04279,N,362.5,N*59
$IIVWR,137,R,07.8,N,,,,*6B
$IIGLL,1045.527,S,15614.555,W,064431,A,A*59
$IIHDG,312,,,10,E*13
$IIMTW,+28.5,C*37
$IIMWV,137,R,07.8,N,A*19
$IIMWV,151,T,10.5,N,A*14
$IIRMB,A,1.62,L,,TNGRVA  ,,,,,151.50,314,04.2,V,A*74
$IIRMC,064432,A,1045.525,S,15614.556,W,04.3,324,060211,10,E,A*00
$IIVHW,,,312,M,03.7,N,,*60
$IIVLW,04279,N,362.5,N*59
$IIVWR,137,R,07.7,N,,,,*64
$IIGLL,1045.525,S,15614.556,W,064432,A,A*5B
$IIHDG,312,,,10,E*13
$IIMTW,+28.5,C*37
$IIMWV,137,R,07.2,N,A*13
$IIMWV,151,T,10.7,N,A*16
$IIRMC,064433,A,1045.525,S,15614.557,W,04.3,324,060211,10,E,A*00
$IIVHW,,,311,M,03.7,N,,*63
$IIVLW,04279,N,362.5,N*59
$IIVWR,137,R,07.2,N,,,,*61
$IIGLL,1045.525,S,15614.557,W,064433,A,A*5B
$IIHDG,311,,,10,E*10
$IIMTW,+28.5,C*37
$IIMWV,137,R,06.7,N,A*17
$IIMWV,152,T,10.1,N,A*13
$IIRMB,A,1.62,L,,TNGRVA  ,,,,,151.50,314,04.2,V,A*74
$IIRMC,064434,A,1045.523,S,15614.558,W,04.3,324,060211,10,E,A*0E
$IIVHW,,,311,M,03.5,N,,*61
$IIVLW,04279,N,362.5,N*59
$IIVWR,137,R,06.7,N,,,,*65
$IIGLL,1045.523,S,15614.558,W,064435,A,A*54
$IIHDG,311,,,10,E*10
$IIMTW,+28.5,C*37
$IIMWV,137,R,06.8,N,A*18
$IIMWV,152,T,09.5,N,A*1F
$IIRMC,064435,A,1045.523,S,15614.558,W,04.3,324,060211,10,E,A*0F
$IIVHW,,,311,M,03.6,N,,*62
$IIVLW,04279,N,362.5,N*59
$IIVWR,137,R,06.8,N,,,,*6A
$IIGLL,1045.522,S,15614.560,W,064436,A,A*5D
$IIHDG,311,,,10,E*10
$IIMTW,+28.5,C*37
$IIMWV,137,R,07.2,N,A*13
$IIMWV,151,T,09.6,N,A*1F
$IIRMB,A,1.62,L,,TNGRVA  ,,,,,151.50,314,04.2,V,A*74
$IIRMC,064436,A,1045.522,S,15614.560,W,04.3,324,060211,10,E,A*06
$IIVHW,,,311,M,03.6,N,,*62
$IIVLW,04279,N,362.5,N*59
$IIVWR,137,R,07.1,N,,,,*62
$IIGLL,1045.521,S,15614.560,W,064437,A,A*5F
$IIHDG,311,,,10,E*10
$IIMTW,+28.5,C*37
$IIMWV,137,R,07.1,N,A*10
$IIMWV,151,T,10.0,N,A*11
$IIRMC,064437,A,1045.521,S,15614.560,W,04.3,324,060211,10,E,A*04
$IIVHW,,,311,M,03.5,N,,*61
$IIVLW,04279,N,362.5,N*59
$IIVWR,137,R,06.9,N,,,,*6B
$IIGLL,1045.520,S,15614.560,W,064438,A,A*51
$IIHDG,311,,,10,E*10
$IIMTW,+28.5,C*37
$IIMWV,137,R,06.9,N,A*19
$IIMWV,151,T,09.9,N,A*10
$IIRMB,A,1.62,L,,TNGRVA  ,,,,,151.50,314,04.1,V,A*77
$IIRMC,064439,A,1045.520,S,15614.561,W,04.1,322,060211,10,E,A*0E
$IIVHW,,,311,M,03.6,N,,*62
$IIVLW,04279,N,362.5,N*59
$IIVWR,137,R,07.1,N,,,,*62
$IIGLL,1045.520,S,15614.561,W,064439,A,A*51
$IIHDG,311,,,10,E*10
$IIMTW,+28.5,C*37
$IIMWV,137,R,07.1,N,A*10
$IIMWV,151,T,09.6,N,A*1F
$IIRMB,A,1.62,L,,TNGRVA  ,,,,,151.50,314,04.1,V,A*77
$IIRMC,064440,A,1045.518,S,15614.562,W,04.1,322,060211,10,E,A*08
$IIVHW,,,311,M,03.5,N,,*61
$IIVLW,04279,N,362.5,N*59
$IIVWR,137,R,07.1,N,,,,*62
$IIGLL,1045.518,S,15614.562,W,064440,A,A*57
$IIHDG,311,,,10,E*10
$IIMTW,+28.5,C*37
$IIMWV,137,R,07.3,N,A*12
$IIMWV,151,T,09.9,N,A*10
$IIRMC,064441,A,1045.518,S,15614.563,W,04.1,322,060211,10,E,A*08
$IIVHW,,,311,M,03.5,N,,*61
$IIVLW,04279,N,362.5,N*59
$IIVWR,137,R,07.3,N,,,,*60
$IIGLL,1045.518,S,15614.563,W,064441,A,A*57
$IIHDG,311,,,10,E*10
$IIMTW,+28.5,C*37
$IIMWV,137,R,07.4,N,A*15
$IIMWV,151,T,10.1,N,A*10
$IIRMB,A,1.62,L,,TNGRVA  ,,,,,151.50,314,04.1,V,A*77
$IIRMC,064442,A,1045.518,S,15614.564,W,04.2,322,060211,10,E,A*0F
$IIVHW,,,311,M,03.6,N,,*62
$IIVLW,04279,N,362.5,N*59
$IIVWR,137,R,07.4,N,,,,*67
$IIGLL,1045.517,S,15614.564,W,064443,A,A*5D
$IIHDG,311,,,10,E*10
$IIMTW,+28.5,C*37
$IIMWV,137,R,07.6,N,A*17
$IIMWV,151,T,10.2,N,A*13
$IIRMC,064443,A,1045.517,S,15614.564,W,04.2,322,060211,10,E,A*01
$IIVHW,,,311,M,03.6,N,,*62
$IIVLW,04279,N,362.5,N*59
$IIVWR,137,R,07.6,N,,,,*65
$IIGLL,1045.516,S,15614.565,W,064444,A,A*5A
$IIHDG,311,,,10,E*10
$IIMTW,+28.5,C*37
$IIMWV,137,R,07.7,N,A*16
$IIMWV,151,T,10.5,N,A*14
$IIRMB,A,1.62,L,,TNGRVA  ,,,,,151.50,314,04.2,V,A*74
$IIRMC,064444,A,1045.516,S,15614.565,W,04.2,323,060211,10,E,A*07
$IIVHW,,,311,M,03.7,N,,*63
$IIVLW,04279,N,362.5,N*59
$IIVWR,137,R,07.4,N,,,,*67
$IIGLL,1045.516,S,15614.566,W,064445,A,A*58
$IIHDG,311,,,10,E*10
$IIMTW,+28.5,C*37
$IIMWV,137,R,07.4,N,A*15
$IIMWV,151,T,10.6,N,A*17
$IIRMC,064445,A,1045.516,S,15614.566,W,04.2,323,060211,10,E,A*05
$IIVHW,,,311,M,03.6,N,,*62
$IIVLW,04279,N,362.5,N*59
$IIVWR,137,R,07.2,N,,,,*61
$IIGLL,1045.515,S,15614.567,W,064446,A,A*59
$IIHDG,312,,,10,E*13
$IIMTW,+28.5,C*37
$IIMWV,137,R,07.2,N,A*13
$IIMWV,151,T,10.2,N,A*13
$IIRMB,A,1.62,L,,TNGRVA  ,,,,,151.50,314,04.1,V,A*77
$IIRMC,064447,A,1045.515,S,15614.567,W,04.2,323,060211,10,E,A*05
$IIVHW,,,313,M,03.5,N,,*63
$IIVLW,04279,N,362.5,N*59
$IIVWR,137,R,07.7,N,,,,*64
$IIGLL,1045.515,S,15614.567,W,064447,A,A*58
$IIHDG,313,,,10,E*12
$IIMTW,+28.5,C*37
$IIMWV,137,R,07.7,N,A*16
$IIMWV,151,T,09.9,N,A*10
$IIRMB,A,1.62,L,,TNGRVA  ,,,,,151.50,314,04.0,V,A*76
$IIRMC,064448,A,1045.513,S,15614.569,W,04.0,321,060211,10,E,A*02
$IIVHW,,,313,M,03.5,N,,*63
$IIVLW,04279,N,362.5,N*59
$IIVWR,137,R,08.1,N,,,,*6D
$IIGLL,1045.513,S,15614.569,W,064448,A,A*5F
$IIHDG,313,,,10,E*12
$IIMTW,+28.5,C*37
$IIMWV,137,R,07.8,N,A*19
$IIMWV,150,T,10.8,N,A*18
$IIRMC,064449,A,1045.512,S,15614.569,W,04.0,321,060211,10,E,A*02
$IIVHW,,,312,M,03.4,N,,*63
$IIVLW,04279,N,362.5,N*59
$IIVWR,137,R,07.8,N,,,,*6B
$IIGLL,1045.512,S,15614.569,W,064449,A,A*5F
$IIHDG,312,,,10,E*13
$IIMTW,+28.5,C*37
$IIMWV,137,R,07.5,N,A*14
$IIMWV,150,T,10.5,N,A*15
$IIRMB,A,1.62,L,,TNGRVA  ,,,,,151.50,314,03.8,V,A*79
$IIRMC,064450,A,1045.511,S,15614.571,W,03.9,322,060211,10,E,A*0D
$IIVHW,,,312,M,03.5,N,,*62
$IIVLW,04279,N,362.5,N*59
$IIVWR,137,R,07.5,N,,,,*66
$IIGLL,1045.510,S,15614.571,W,064451,A,A*5D
$IIHDG,313,,,10,E*12
$IIMTW,+28.5,C*37
$IIMWV,137,R,07.5,N,A*14
$IIMWV,150,T,10.3,N,A*13
$IIRMC,064451,A,1045.510,S,15614.571,W,03.9,322,060211,10,E,A*0D
$IIVHW,,,313,M,03.6,N,,*60
$IIVLW,04279,N,362.5,N*59
$IIVWR,137,R,07.5,N,,,,*66
$IIGLL,1045.509,S,15614.571,W,064452,A,A*56
$IIHDG,313,,,10,E*12
$IIMTW,+28.5,C*37
$IIMWV,137,R,07.8,N,A*19
$IIMWV,151,T,10.4,N,A*15
$IIRMB,A,1.62,L,,TNGRVA  ,,,,,151.50,314,03.7,V,A*76
$IIRMC,064452,A,1045.509,S,15614.571,W,03.8,323,060211,10,E,A*06
$IIVHW,,,313,M,03.5,N,,*63
$IIVLW,04279,N,362.5,N*59
$IIVWR,137,R,07.9,N,,,,*6A
$IIGLL,1045.509,S,15614.571,W,064453,A,A*57
$IIHDG,312,,,10,E*13
$IIMTW,+28.5,C*37
$IIMWV,137,R,07.9,N,A*18
$IIMWV,150,T,10.6,N,A*16
$IIRMC,064453,A,1045.509,S,15614.571,W,03.8,323,060211,10,E,A*07
$IIVHW,,,312,M,03.6,N,,*61
$IIVLW,04279,N,362.5,N*59
$IIVWR,137,R,07.9,N,,,,*6A
$IIGLL,1045.507,S,15614.572,W,064454,A,A*5D
$IIHDG,312,,,10,E*13
$IIMTW,+28.5,C*37
$IIMWV,137,R,07.9,N,A*18
$IIMWV,150,T,10.7,N,A*17
$IIRMB,A,1.62,L,,TNGRVA  ,,,,,151.50,314,03.9,V,A*78
$IIRMC,064455,A,1045.507,S,15614.572,W,04.0,324,060211,10,E,A*04
$IIVHW,,,312,M,03.6,N,,*61
$IIVLW,04279,N,362.5,N*59
$IIVWR,137,R,07.4,N,,,,*67
$IIGLL,1045.507,S,15614.572,W,064455,A,A*5C
$IIHDG,312,,,10,E*13
$IIMTW,+28.5,C*37
$IIMWV,137,R,07.4,N,A*15
$IIMWV,150,T,10.7,N,A*17
