$GPGGA,225243.000,3725.5093,N,12208.3172,W,1,06,1.8,-8.9,M,,,,0000*3C
$GPGSA,A,3,24,12,19,17,06,02,,,,,,,3.4,1.8,2.9*38
$GPGSV,3,1,11,24,53,243,28,12,57,326,33,19,36,052,27,17,18,061,29*7E
$GPGSV,3,2,11,06,58,065,29,02,63,180,31,25,16,308,,29,02,254,*76
$GPGSV,3,3,11,05,01,165,,32,00,312,,03,00,029,*46
$GPRMC,225243.000,A,3725.5093,N,12208.3172,W,000.0,168.5,310517,,,A*75
$GPGGA,225244.000,3725.5093,N,12208.3171,W,1,06,1.8,-9.1,M,,,,0000*31
$GPGSA,A,3,24,12,19,17,06,02,,,,,,,3.4,1.8,2.9*38
$GPRMC,225244.000,A,3725.5093,N,12208.3171,W,000.0,168.5,310517,,,A*71
$GPGGA,225245.000,3725.5093,N,12208.3170,W,1,06,1.8,-9.2,M,,,,0000*32
$GPGSA,A,3,24,12,19,17,06,02,,,,,,,3.4,1.8,2.9*38
$GPRMC,225245.000,A,3725.5093,N,12208.3170,W,000.0,168.5,310517,,,A*71
$GPGGA,225246.000,3725.5093,N,12208.3170,W,1,06,1.8,-9.3,M,,,,0000*30
$GPGSA,A,3,24,12,19,17,06,02,,,,,,,3.4,1.8,2.9*38
$GPGSV,3,1,11,24,53,243,29,12,57,326,35,19,36,052,28,17,18,061,32*7C
$GPGSV,3,2,11,06,58,065,32,02,63,180,32,25,16,308,,29,02,254,*7F
$GPGSV,3,3,11,05,01,165,,32,00,312,,03,00,029,*46
$GPRMC,225246.000,A,3725.5093,N,12208.3170,W,000.0,168.5,310517,,,A*72
$GPGGA,225247.000,3725.5093,N,12208.3169,W,1,06,1.8,-9.4,M,,,,0000*3E
$GPGSA,A,3,24,12,19,17,06,02,,,,,,,3.4,1.8,2.9*38
$GPRMC,225247.000,A,3725.5093,N,12208.3169,W,000.0,168.5,310517,,,A*7B
$GPGGA,225248.000,3725.5093,N,12208.3169,W,1,06,1.8,-9.5,M,,,,0000*30
$GPGSA,A,3,24,12,19,17,06,02,,,,,,,3.4,1.8,2.9*38
$GPRMC,225248.000,A,3725.5093,N,12208.3169,W,000.0,168.5,310517,,,A*74
$GPGGA,225249.000,3725.5093,N,12208.3169,W,1,06,1.8,-9.5,M,,,,0000*31
$GPGSA,A,3,24,12,19,17,06,02,,,,,,,3.4,1.8,2.9*38
$GPGSV,3,1,11,24,53,242,29,12,57,326,35,19,36,052,29,17,18,061,33*7D
$GPGSV,3,2,11,06,58,065,31,02,63,180,34,25,16,308,,29,02,254,*7A
$GPGSV,3,3,11,05,01,165,,32,00,312,,03,00,029,*46
$GPRMC,225249.000,A,3725.5093,N,12208.3169,W,000.0,168.5,310517,,,A*75
$GPGGA,225250.000,3725.5093,N,12208.3170,W,1,06,1.8,-9.5,M,,,,0000*31
$GPGSA,A,3,24,12,19,17,06,02,,,,,,,3.4,1.8,2.9*38
$GPRMC,225250.000,A,3725.5093,N,12208.3170,W,000.0,168.5,310517,,,A*75
$GPGGA,225251.000,3725.5093,N,12208.3170,W,1,06,1.8,-9.5,M,,,,0000*30
$GPGSA,A,3,24,12,19,17,06,02,,,,,,,3.4,1.8,2.9*38
$GPRMC,225251.000,A,3725.5093,N,12208.3170,W,000.0,168.5,310517,,,A*74
$GPGGA,225252.000,3725.5093,N,12208.3171,W,1,06,1.8,-9.5,M,,,,0000*32
$GPGSA,A,3,24,12,19,17,06,02,,,,,,,3.4,1.8,2.9*38
$GPGSV,3,1,11,24,53,242,32,12,57,326,37,19,36,052,28,17,18,061,34*73
$GPGSV,3,2,11,06,58,065,32,02,63,180,33,25,16,308,,29,02,254,*7E
$GPGSV,3,3,11,05,01,165,,32,00,312,,03,00,029,*46
$GPRMC,225252.000,A,3725.5093,N,12208.3171,W,000.0,168.5,310517,,,A*76
$GPGGA,225253.000,3725.5093,N,12208.3171,W,1,06,1.8,-9.5,M,,,,0000*33
$GPGSA,A,3,24,12,19,17,06,02,,,,,,,3.4,1.8,2.9*38
$GPRMC,225253.000,A,3725.5093,N,12208.3171,W,000.0,168.5,310517,,,A*77
$GPGGA,225254.000,3725.5093,N,12208.3172,W,1,06,1.8,-9.5,M,,,,0000*37
$GPGSA,A,3,24,12,19,17,06,02,,,,,,,3.4,1.8,2.9*38
$GPRMC,225254.000,A,3725.5093,N,12208.3172,W,000.0,168.5,310517,,,A*73
$GPGGA,225255.000,3725.5092,N,12208.3172,W,1,06,1.8,-9.5,M,,,,0000*37
$GPGSA,A,3,24,12,19,17,06,02,,,,,,,3.4,1.8,2.9*38
$GPGSV,3,1,11,24,53,242,32,12,57,326,38,19,36,052,26,17,18,061,33*75
$GPGSV,3,2,11,06,58,065,25,02,63,180,32,25,16,308,,29,02,254,*79
$GPGSV,3,3,11,05,01,165,,32,00,312,,03,00,029,*46
$GPRMC,225255.000,A,3725.5092,N,12208.3172,W,000.0,168.5,310517,,,A*73
$GPGGA,225256.000,3725.5092,N,12208.3172,W,1,06,1.8,-9.5,M,,,,0000*34
$GPGSA,A,3,24,12,19,17,06,02,,,,,,,3.4,1.8,2.9*38
$GPRMC,225256.000,A,3725.5092,N,12208.3172,W,000.0,168.5,310517,,,A*70
$GPGGA,225257.000,3725.5091,N,12208.3171,W,1,06,1.8,-9.5,M,,,,0000*35
$GPGSA,A,3,24,12,19,17,06,02,,,,,,,3.4,1.8,2.9*38
$GPRMC,225257.000,A,3725.5091,N,12208.3171,W,000.0,168.5,310517,,,A*71
$GPGGA,225258.000,3725.5090,N,12208.3171,W,1,05,2.3,-9.5,M,,,,0000*30
$GPGSA,A,3,12,19,17,06,02,,,,,,,,4.2,2.3,3.6*39
$GPGSV,3,1,11,24,53,242,28,12,57,326,34,19,36,052,25,17,18,061,31*73
$GPGSV,3,2,11,06,58,065,27,02,63,180,33,25,16,308,,29,02,254,*7A
$GPGSV,3,3,11,05,01,165,,32,00,312,,03,00,029,*46
$GPRMC,225258.000,A,3725.5090,N,12208.3171,W,000.0,168.5,310517,,,A*7F
$GPGGA,225259.000,3725.5090,N,12208.3171,W,1,06,1.8,-9.5,M,,,,0000*3A
$GPGSA,A,3,24,12,19,17,06,02,,,,,,,3.4,1.8,2.9*38
$GPRMC,225259.000,A,3725.5090,N,12208.3171,W,000.0,168.5,310517,,,A*7E
$GPGGA,225300.000,3725.5090,N,12208.3171,W,1,03,20.0,-9.8,M,,,,0000*04
$GPGSA,A,2,24,12,02,,,,,,,,,,20.0,20.0,20.0*06
$GPRMC,225300.000,A,3725.5090,N,12208.3171,W,000.0,168.5,310517,,,A*73
$GPGGA,225301.000,3725.5091,N,12208.3171,W,1,05,2.1,-9.7,M,,,,0000*3C
$GPGSA,A,3,24,12,19,17,02,,,,,,,,4.6,2.1,4.1*3F
$GPGSV,3,1,11,24,53,242,34,12,57,326,38,19,36,052,25,17,18,061,34*77
$GPGSV,3,2,11,06,58,065,25,02,63,180,34,25,16,308,,29,02,254,*7F
$GPGSV,3,3,11,05,01,165,,32,00,312,,03,00,029,*46
$GPRMC,225301.000,A,3725.5091,N,12208.3171,W,000.0,168.5,310517,,,A*73
$GPGGA,225302.000,3725.5091,N,12208.3170,W,1,06,1.8,-9.7,M,,,,0000*37
$GPGSA,A,3,24,12,19,17,06,02,,,,,,,3.4,1.8,2.9*38
$GPRMC,225302.000,A,3725.5091,N,12208.3170,W,000.0,168.5,310517,,,A*71
$GPGGA,225303.000,3725.5091,N,12208.3170,W,1,06,1.8,-9.7,M,,,,0000*36
$GPGSA,A,3,24,12,19,17,06,02,,,,,,,3.4,1.8,2.9*38
$GPRMC,225303.000,A,3725.5091,N,12208.3170,W,000.0,168.5,310517,,,A*70
$GPGGA,225304.000,3725.5090,N,12208.3170,W,1,06,1.8,-9.8,M,,,,0000*3F
$GPGSA,A,3,24,12,19,17,06,02,,,,,,,3.4,1.8,2.9*38
$GPGSV,3,1,11,24,53,242,34,12,57,326,40,19,36,052,31,17,18,061,33*7A
$GPGSV,3,2,11,06,58,065,29,02,63,180,33,25,16,308,,29,02,254,*74
$GPGSV,3,3,11,05,01,165,,32,00,312,,03,00,029,*46
$GPRMC,225304.000,A,3725.5090,N,12208.3170,W,000.9,138.1,310517,,,A*7E
$GPGGA,225305.000,3725.5090,N,12208.3170,W,1,05,2.3,-9.8,M,,,,0000*35
$GPGSA,A,3,12,19,17,06,02,,,,,,,,4.2,2.3,3.6*39
$GPRMC,225305.000,A,3725.5090,N,12208.3170,W,001.3,135.0,310517,,,A*78
$GPGGA,225306.000,3725.5090,N,12208.3167,W,1,06,1.8,-9.7,M,,,,0000*34
$GPGSA,A,3,24,12,19,17,06,02,,,,,,,3.4,1.8,2.9*38
$GPRMC,225306.000,A,3725.5090,N,12208.3167,W,001.3,135.2,310517,,,A*7F
$GPGGA,225307.000,3725.5087,N,12208.3164,W,1,05,1.9,-9.6,M,,,,0000*33
$GPGSA,A,3,24,12,17,06,02,,,,,,,,3.5,1.9,2.9*30
$GPGSV,3,1,11,24,53,242,30,12,57,326,32,19,36,052,25,17,18,061,32*7F
$GPGSV,3,2,11,06,58,065,34,02,63,180,27,25,16,308,,29,02,254,*7D
$GPGSV,3,3,11,05,01,165,,32,00,312,,03,00,029,*46
$GPRMC,225307.000,A,3725.5087,N,12208.3164,W,001.3,142.2,310517,,,A*7B
$GPGGA,225308.000,3725.5083,N,12208.3162,W,1,06,1.8,-9.5,M,,,,0000*3F
$GPGSA,A,3,24,12,19,17,06,02,,,,,,,3.4,1.8,2.9*38
$GPRMC,225308.000,A,3725.5083,N,12208.3162,W,001.5,154.9,310517,,,A*7C
$GPGGA,225309.000,3725.5079,N,12208.3162,W,1,05,1.9,-9.6,M,,,,0000*3A
$GPGSA,A,3,24,12,19,06,02,,,,,,,,5.6,1.9,5.3*36
$GPRMC,225309.000,A,3725.5079,N,12208.3162,W,001.3,164.8,310517,,,A*7C
$GPGGA,225310.000,3725.5075,N,12208.3160,W,1,06,1.8,-9.5,M,,,,0000*3D
$GPGSA,A,3,24,12,19,17,06,02,,,,,,,3.4,1.8,2.9*38
$GPGSV,3,1,11,24,53,242,26,12,57,326,31,19,36,052,27,17,18,061,29*73
$GPGSV,3,2,11,06,58,065,25,02,63,180,24,25,16,308,,29,02,254,*7E
$GPGSV,3,3,11,05,01,165,,32,00,312,,03,00,029,*46
$GPRMC,225310.000,A,3725.5075,N,12208.3160,W,001.4,166.9,310517,,,A*7E
$GPGGA,225311.000,3725.5075,N,12208.3156,W,1,06,1.8,-9.0,M,,,,0000*3C
$GPGSA,A,3,24,12,19,17,06,02,,,,,,,3.4,1.8,2.9*38
$GPRMC,225311.000,A,3725.5075,N,12208.3156,W,001.1,143.4,310517,,,A*75
$GPGGA,225312.000,3725.5082,N,12208.3152,W,1,06,1.8,-9.7,M,,,,0000*34
$GPGSA,A,3,24,12,19,17,06,02,,,,,,,3.4,1.8,2.9*38
$GPRMC,225312.000,A,3725.5082,N,12208.3152,W,001.4,074.8,310517,,,A*76
$GPGGA,225313.000,3725.5086,N,12208.3145,W,1,05,1.9,-9.5,M,,,,0000*37
$GPGSA,A,3,24,12,17,06,02,,,,,,,,3.4,1.9,2.9*31
$GPGSV,3,1,11,24,53,242,25,12,57,326,27,19,36,052,30,17,18,061,25*7D
$GPGSV,3,2,11,06,58,065,32,02,63,180,34,25,16,308,,29,02,254,*79
$GPGSV,3,3,11,05,01,165,,32,00,312,,03,00,029,*46
$GPRMC,225313.000,A,3725.5086,N,12208.3145,W,001.9,063.9,310517,,,A*7F
$GPGGA,225314.000,3725.5099,N,12208.3131,W,1,06,1.8,-10.8,M,,,,0000*0A
$GPGSA,A,3,24,12,19,17,06,02,,,,,,,3.4,1.8,2.9*38
$GPRMC,225314.000,A,3725.5099,N,12208.3131,W,003.7,054.0,310517,,,A*74
$GPGGA,225315.000,3725.5109,N,12208.3113,W,1,06,1.8,-10.9,M,,,,0000*02
$GPGSA,A,3,24,12,19,17,06,02,,,,,,,3.4,1.8,2.9*38
$GPRMC,225315.000,A,3725.5109,N,12208.3113,W,004.9,053.2,310517,,,A*71
$GPGGA,225316.000,3725.5120,N,12208.3097,W,1,04,3.6,-11.2,M,,,,0000*03
$GPGSA,A,3,24,17,06,02,,,,,,,,,4.8,3.6,3.2*3E
$GPGSV,3,1,11,24,53,242,26,12,57,326,27,19,36,052,27,17,18,061,29*74
$GPGSV,3,2,11,06,58,065,35,02,63,180,32,25,16,308,,29,02,254,*78
$GPGSV,3,3,11,05,01,165,,32,00,312,,03,00,029,*46
$GPRMC,225316.000,A,3725.5120,N,12208.3097,W,005.5,051.7,310517,,,A*7E
$GPGGA,225317.000,3725.5133,N,12208.3083,W,1,05,2.3,-11.0,M,,,,0000*02
$GPGSA,A,3,12,19,17,06,02,,,,,,,,4.3,2.3,3.6*38
$GPRMC,225317.000,A,3725.5133,N,12208.3083,W,005.4,047.1,310517,,,A*78
$GPGGA,225318.000,3725.5149,N,12208.3081,W,1,06,1.8,-10.6,M,,,,0000*0E
$GPGSA,A,3,24,12,19,17,06,02,,,,,,,3.4,1.8,2.9*38
$GPRMC,225318.000,A,3725.5149,N,12208.3081,W,004.9,032.7,310517,,,A*70
$GPGGA,225319.000,3725.5167,N,12208.3113,W,1,06,1.8,-10.9,M,,,,0000*06
$GPGSA,A,3,24,12,19,17,06,02,,,,,,,3.4,1.8,2.9*38
$GPGSV,3,1,11,24,53,242,34,12,57,326,40,19,36,052,32,17,18,061,37*7D
$GPGSV,3,2,11,06,58,065,39,02,63,180,33,25,16,308,,29,02,254,*75
$GPGSV,3,3,11,05,01,165,,32,00,312,,03,00,029,*46
$GPRMC,225319.000,A,3725.5167,N,12208.3113,W,004.2,349.5,310517,,,A*71
$GPGGA,225320.000,3725.5176,N,12208.3120,W,1,06,1.8,-11.9,M,,,,0000*0D
$GPGSA,A,3,24,12,19,17,06,02,,,,,,,3.4,1.8,2.9*38
$GPRMC,225320.000,A,3725.5176,N,12208.3120,W,004.0,338.7,310517,,,A*7D
$GPGGA,225321.000,3725.5188,N,12208.3127,W,1,05,1.9,-11.8,M,,,,0000*09
$GPGSA,A,3,24,12,19,06,02,,,,,,,,5.6,1.9,5.2*37
$GPRMC,225321.000,A,3725.5188,N,12208.3127,W,003.9,338.2,310517,,,A*71
$GPGGA,225322.000,3725.5196,N,12208.3130,W,1,06,1.8,-11.3,M,,,,0000*0A
$GPGSA,A,3,24,12,19,17,06,02,,,,,,,3.4,1.8,2.9*38
$GPGSV,3,1,11,24,53,242,27,12,57,326,37,19,36,052,25,17,18,061,27*78
$GPGSV,3,2,11,06,58,065,33,02,63,180,30,25,16,308,,29,02,254,*7C
$GPGSV,3,3,11,05,01,165,,32,00,312,,03,00,029,*46
$GPRMC,225322.000,A,3725.5196,N,12208.3130,W,003.9,341.1,310517,,,A*76
$GPGGA,225323.000,3725.5209,N,12208.3131,W,1,06,1.8,-11.6,M,,,,0000*0A
$GPGSA,A,3,24,12,19,17,06,02,,,,,,,3.4,1.8,2.9*38
$GPRMC,225323.000,A,3725.5209,N,12208.3131,W,004.3,352.4,310517,,,A*79
$GPGGA,225324.000,3725.5226,N,12208.3125,W,1,06,1.8,-12.7,M,,,,0000*07
$GPGSA,A,3,24,12,19,17,06,02,,,,,,,3.4,1.8,2.9*38
$GPRMC,225324.000,A,3725.5226,N,12208.3125,W,005.1,008.0,310517,,,A*7D
$GPGGA,225325.000,3725.5239,N,12208.3106,W,1,06,1.8,-11.8,M,,,,0000*05
$GPGSA,A,3,24,12,19,17,06,02,,,,,,,3.4,1.8,2.9*38
$GPGSV,3,1,11,24,53,242,32,12,57,326,39,19,36,052,33,17,18,061,26*74
$GPGSV,3,2,11,06,58,065,34,02,63,180,32,25,16,308,,29,02,254,*79
$GPGSV,3,3,11,05,01,165,,32,00,312,,03,00,029,*46
$GPRMC,225325.000,A,3725.5239,N,12208.3106,W,005.7,020.7,310517,,,A*78
$GPGGA,225326.000,3725.5255,N,12208.3089,W,1,06,1.8,-11.4,M,,,,0000*06
$GPGSA,A,3,24,12,19,17,06,02,,,,,,,3.4,1.8,2.9*38
$GPRMC,225326.000,A,3725.5255,N,12208.3089,W,006.3,027.5,310517,,,A*75
$GPGGA,225327.000,3725.5270,N,12208.3073,W,1,06,1.8,-10.5,M,,,,0000*05
$GPGSA,A,3,24,12,19,17,06,02,,,,,,,3.4,1.8,2.9*38
$GPRMC,225327.000,A,3725.5270,N,12208.3073,W,006.5,030.4,310517,,,A*77
$GPGGA,225328.000,3725.5284,N,12208.3059,W,1,06,1.8,-11.3,M,,,,0000*0E
$GPGSA,A,3,24,12,19,17,06,02,,,,,,,3.4,1.8,2.9*38
$GPGSV,3,1,11,24,53,242,30,12,57,326,40,19,36,052,34,17,18,061,26*7F
$GPGSV,3,2,11,06,58,065,34,02,63,180,32,25,16,308,,29,02,254,*79
$GPGSV,3,3,11,05,01,165,,32,00,312,,03,00,029,*46
$GPRMC,225328.000,A,3725.5284,N,12208.3059,W,006.5,031.7,310517,,,A*79
$GPGGA,225329.000,3725.5294,N,12208.3048,W,1,06,1.8,-11.5,M,,,,0000*08
$GPGSA,A,3,24,12,19,17,06,02,,,,,,,3.4,1.8,2.9*38
$GPRMC,225329.000,A,3725.5294,N,12208.3048,W,005.9,032.1,310517,,,A*73
$GPGGA,225330.000,3725.5310,N,12208.3035,W,1,06,1.8,-11.3,M,,,,0000*01
$GPGSA,A,3,24,12,19,17,06,02,,,,,,,3.4,1.8,2.9*38
$GPRMC,225330.000,A,3725.5310,N,12208.3035,W,005.7,032.9,310517,,,A*7A
$GPGGA,225331.000,3725.5324,N,12208.3022,W,1,06,1.8,-9.4,M,,,,0000*3F
$GPGSA,A,3,24,12,19,17,06,02,,,,,,,3.4,1.8,2.9*38
$GPGSV,3,1,10,24,53,242,28,12,57,326,34,19,36,052,35,17,18,061,24*77
$GPGSV,3,2,10,06,58,065,31,02,63,180,32,25,16,308,,29,02,254,*7D
$GPGSV,3,3,10,05,01,165,,32,00,312,*7F
$GPRMC,225331.000,A,3725.5324,N,12208.3022,W,005.8,033.7,310517,,,A*7A
$GPGGA,225332.000,3725.5341,N,12208.3007,W,1,06,1.8,-8.8,M,,,,0000*35
$GPGSA,A,3,24,12,19,17,06,02,,,,,,,3.4,1.8,2.9*38
$GPRMC,225332.000,A,3725.5341,N,12208.3007,W,006.6,036.0,310517,,,A*72
$GPGGA,225333.000,3725.5362,N,12208.2986,W,1,06,1.8,-6.7,M,,,,0000*35
$GPGSA,A,3,24,12,19,17,06,02,,,,,,,3.4,1.8,2.9*38
$GPRMC,225333.000,A,3725.5362,N,12208.2986,W,007.7,037.2,310517,,,A*70
$GPGGA,225334.000,3725.5386,N,12208.2963,W,1,06,1.8,-7.2,M,,,,0000*37
$GPGSA,A,3,24,12,19,17,06,02,,,,,,,3.4,1.8,2.9*38
$GPGSV,3,1,10,24,53,242,28,12,57,326,31,19,36,052,34,17,18,061,24*73
$GPGSV,3,2,10,06,58,065,29,02,63,180,33,25,16,308,,29,02,254,*75
$GPGSV,3,3,10,05,01,165,,32,00,312,*7F
$GPRMC,225334.000,A,3725.5386,N,12208.2963,W,008.7,038.1,310517,,,A*75
$GPGGA,225335.000,3725.5411,N,12208.2944,W,1,06,1.8,-5.5,M,,,,0000*3F
$GPGSA,A,3,24,12,19,17,06,02,,,,,,,3.4,1.8,2.9*38
$GPRMC,225335.000,A,3725.5411,N,12208.2944,W,009.1,035.3,310517,,,A*70
$GPGGA,225336.000,3725.5426,N,12208.2927,W,1,05,1.9,-7.1,M,,,,0000*39
$GPGSA,A,3,24,12,19,06,02,,,,,,,,5.5,1.9,5.2*34
$GPRMC,225336.000,A,3725.5426,N,12208.2927,W,008.6,034.9,310517,,,A*7F
$GPGGA,225337.000,3725.5435,N,12208.2914,W,1,05,1.9,-7.3,M,,,,0000*38
$GPGSA,A,3,24,12,19,06,02,,,,,,,,5.5,1.9,5.2*34
$GPGSV,3,1,10,24,53,242,26,12,57,326,40,19,36,052,33,17,18,061,22*7A
$GPGSV,3,2,10,06,58,065,30,02,63,180,32,25,16,308,,29,02,254,*7C
$GPGSV,3,3,10,05,01,165,,32,00,312,*7F
$GPRMC,225337.000,A,3725.5435,N,12208.2914,W,007.0,034.8,310517,,,A*74
$GPGGA,225338.000,3725.5438,N,12208.2908,W,1,06,1.8,-6.2,M,,,,0000*35
$GPGSA,A,3,24,12,19,17,06,02,,,,,,,3.4,1.8,2.9*38
$GPRMC,225338.000,A,3725.5438,N,12208.2908,W,004.7,032.4,310517,,,A*75
$GPGGA,225339.000,3725.5438,N,12208.2905,W,1,06,1.8,-5.5,M,,,,0000*3D
$GPGSA,A,3,24,12,19,17,06,02,,,,,,,3.4,1.8,2.9*38
$GPRMC,225339.000,A,3725.5438,N,12208.2905,W,003.2,031.0,310517,,,A*7C
$GPGGA,225340.000,3725.5440,N,12208.2904,W,1,06,1.8,-5.6,M,,,,0000*3E
$GPGSA,A,3,24,12,19,17,06,02,,,,,,,3.4,1.8,2.9*38
$GPGSV,3,1,10,24,53,242,29,12,57,326,38,19,36,052,29,17,18,061,23*70
$GPGSV,3,2,10,06,58,065,31,02,63,180,33,25,16,308,,29,02,254,*7C
$GPGSV,3,3,10,05,01,165,,32,00,312,*7F
$GPRMC,225340.000,A,3725.5440,N,12208.2904,W,002.2,028.8,310517,,,A*7D
$GPGGA,225341.000,3725.5444,N,12208.2903,W,1,05,2.1,-4.3,M,,,,0000*31
$GPGSA,A,3,24,12,19,17,02,,,,,,,,4.6,2.1,4.0*3E
$GPRMC,225341.000,A,3725.5444,N,12208.2903,W,001.7,027.7,310517,,,A*79
$GPGGA,225342.000,3725.5449,N,12208.2899,W,1,06,1.8,-3.9,M,,,,0000*39
$GPGSA,A,3,24,12,19,17,06,02,,,,,,,3.4,1.8,2.9*38
$GPRMC,225342.000,A,3725.5449,N,12208.2899,W,001.8,026.6,310517,,,A*7A
$GPGGA,225343.000,3725.5460,N,12208.2890,W,1,05,3.2,-1.1,M,,,,0000*3B
$GPGSA,A,3,24,19,17,06,02,,,,,,,,4.4,3.2,3.0*3C
$GPGSV,3,1,10,24,53,242,25,12,57,326,29,19,36,052,26,17,18,061,23*73
$GPGSV,3,2,10,06,58,065,35,02,63,180,31,25,16,308,,29,02,254,*7A
$GPGSV,3,3,10,05,01,165,,32,00,312,*7F
$GPRMC,225343.000,A,3725.5460,N,12208.2890,W,002.7,029.9,310517,,,A*75
$GPGGA,225344.000,3725.5473,N,12208.2889,W,1,04,2.5,2.3,M,,,,0000*1D
$GPGSA,A,3,24,12,17,06,,,,,,,,,3.9,2.5,3.0*39
$GPRMC,225344.000,A,3725.5473,N,12208.2889,W,003.0,017.2,310517,,,A*78
$GPGGA,225345.000,3725.5495,N,12208.2900,W,1,06,1.8,5.1,M,,,,0000*1D
$GPGSA,A,3,24,12,19,17,06,02,,,,,,,3.4,1.8,2.9*38
$GPRMC,225345.000,A,3725.5495,N,12208.2900,W,004.3,348.5,310517,,,A*7B
$GPGGA,225346.000,3725.5521,N,12208.2917,W,1,06,1.8,6.2,M,,,,0000*16
$GPGSA,A,3,24,12,19,17,06,02,,,,,,,3.4,1.8,2.9*38
$GPGSV,3,1,10,24,53,242,25,12,57,326,36,19,36,052,28,17,17,061,22*7D
$GPGSV,3,2,10,06,58,065,28,02,63,180,37,25,16,308,,29,02,254,*70
$GPGSV,3,3,10,05,01,165,,32,00,312,*7F
$GPRMC,225346.000,A,3725.5521,N,12208.2917,W,005.8,336.3,310517,,,A*75
$GPGGA,225347.000,3725.5535,N,12208.2948,W,1,06,1.8,3.7,M,,,,0000*18
$GPGSA,A,3,24,12,19,17,06,02,,,,,,,3.4,1.8,2.9*38
$GPRMC,225347.000,A,3725.5535,N,12208.2948,W,006.9,320.5,310517,,,A*78
$GPGGA,225348.000,3725.5552,N,12208.2988,W,1,06,1.8,1.6,M,,,,0000*19
$GPGSA,A,3,24,12,19,17,06,02,,,,,,,3.4,1.8,2.9*38
$GPRMC,225348.000,A,3725.5552,N,12208.2988,W,008.7,309.5,310517,,,A*71
$GPGGA,225349.000,3725.5575,N,12208.3033,W,1,06,1.8,0.6,M,,,,0000*14
$GPGSA,A,3,24,12,19,17,06,02,,,,,,,3.4,1.8,2.9*38
$GPGSV,3,1,10,24,53,242,31,12,57,326,32,19,36,052,25,17,17,061,21*72
$GPGSV,3,2,10,06,58,065,30,02,63,180,32,25,16,308,,29,02,254,*7C
$GPGSV,3,3,10,05,01,165,,32,00,312,*7F
$GPRMC,225349.000,A,3725.5575,N,12208.3033,W,010.7,305.7,310517,,,A*7A
$GPGGA,225350.000,3725.5602,N,12208.3083,W,1,06,1.8,-2.2,M,,,,0000*3F
$GPGSA,A,3,24,12,19,17,06,02,,,,,,,3.4,1.8,2.9*38
$GPRMC,225350.000,A,3725.5602,N,12208.3083,W,012.5,306.3,310517,,,A*7D
$GPGGA,225351.000,3725.5629,N,12208.3131,W,1,05,2.1,-1.9,M,,,,0000*3E
$GPGSA,A,3,24,12,19,17,02,,,,,,,,4.5,2.1,4.0*3D
$GPRMC,225351.000,A,3725.5629,N,12208.3131,W,013.8,305.9,310517,,,A*78
$GPGGA,225352.000,3725.5658,N,12208.3180,W,1,06,1.8,-3.5,M,,,,0000*36
$GPGSA,A,3,24,12,19,17,06,02,,,,,,,3.4,1.8,2.8*39
$GPGSV,3,1,10,24,52,241,26,12,57,326,38,19,36,052,24,17,17,061,20*7C
$GPGSV,3,2,10,06,58,065,25,02,63,180,28,25,17,308,,29,02,254,*72
$GPGSV,3,3,10,05,01,165,,32,00,312,*7F
$GPRMC,225352.000,A,3725.5658,N,12208.3180,W,014.7,306.9,310517,,,A*7C
$GPGGA,225353.000,3725.5696,N,12208.3236,W,1,06,1.8,-6.6,M,,,,0000*3D
$GPGSA,A,3,24,12,19,17,06,02,,,,,,,3.4,1.8,2.8*39
$GPRMC,225353.000,A,3725.5696,N,12208.3236,W,015.5,308.1,310517,,,A*74
$GPGGA,225354.000,3725.5732,N,12208.3298,W,1,06,1.8,-7.8,M,,,,0000*3E
$GPGSA,A,3,24,12,19,17,06,02,,,,,,,3.4,1.8,2.8*39
$GPRMC,225354.000,A,3725.5732,N,12208.3298,W,016.9,307.1,310517,,,A*78
$GPGGA,225355.000,3725.5769,N,12208.3353,W,1,05,1.9,-7.0,M,,,,0000*3D
$GPGSA,A,3,24,12,17,06,02,,,,,,,,3.4,1.9,2.9*31
$GPGSV,3,1,10,24,52,241,26,12,57,326,40,19,36,052,23,17,17,061,22*76
$GPGSV,3,2,10,06,58,065,30,02,63,180,35,25,17,308,,29,02,254,*7A
$GPGSV,3,3,10,05,01,165,,32,00,312,*7F
$GPRMC,225355.000,A,3725.5769,N,12208.3353,W,017.8,307.9,310517,,,A*79
$GPGGA,225356.000,3725.5805,N,12208.3407,W,1,05,1.9,-7.1,M,,,,0000*3C
$GPGSA,A,3,24,12,17,06,02,,,,,,,,3.4,1.9,2.9*31
$GPRMC,225356.000,A,3725.5805,N,12208.3407,W,018.3,308.5,310517,,,A*7E
$GPGGA,225357.000,3725.5840,N,12208.3466,W,1,06,1.8,-7.3,M,,,,0000*3B
$GPGSA,A,3,24,12,19,17,06,02,,,,,,,3.4,1.8,2.8*39
$GPRMC,225357.000,A,3725.5840,N,12208.3466,W,018.9,307.1,310517,,,A*78
$GPGGA,225358.000,3725.5874,N,12208.3524,W,1,06,1.8,-8.9,M,,,,0000*31
$GPGSA,A,3,24,12,19,17,06,02,,,,,,,3.4,1.8,2.8*39
$GPGSV,3,1,10,24,52,241,25,12,57,326,40,19,36,052,34,17,17,061,23*72
$GPGSV,3,2,10,06,58,065,25,02,63,180,35,25,17,308,,29,02,255,*7F
$GPGSV,3,3,10,05,01,165,,32,00,312,*7F
$GPRMC,225358.000,A,3725.5874,N,12208.3524,W,019.4,306.8,310517,,,A*73
$GPGGA,225359.000,3725.5906,N,12208.3585,W,1,06,1.8,-10.9,M,,,,0000*06
$GPGSA,A,3,24,12,19,17,06,02,,,,,,,3.4,1.8,2.8*39
$GPRMC,225359.000,A,3725.5906,N,12208.3585,W,019.8,305.9,310517,,,A*73
$GPGGA,225400.000,3725.5941,N,12208.3650,W,1,06,1.8,-9.1,M,,,,0000*35
$GPGSA,A,3,24,12,19,17,06,02,,,,,,,3.4,1.8,2.8*39
$GPRMC,225400.000,A,3725.5941,N,12208.3650,W,020.3,304.6,310517,,,A*7F
$GPGGA,225401.000,3725.5973,N,12208.3710,W,1,06,1.8,-8.0,M,,,,0000*30
$GPGSA,A,3,24,12,19,17,06,02,,,,,,,3.4,1.8,2.8*39
$GPGSV,3,1,10,24,52,241,28,12,57,326,38,19,36,052,30,17,17,061,25*72
$GPGSV,3,2,10,06,58,065,28,02,64,180,29,25,17,308,,29,02,255,*78
$GPGSV,3,3,10,05,01,165,,32,00,312,*7F
$GPRMC,225401.000,A,3725.5973,N,12208.3710,W,020.3,304.0,310517,,,A*7C
$GPGGA,225402.000,3725.6002,N,12208.3772,W,1,06,1.8,-9.2,M,,,,0000*38
$GPGSA,A,3,24,12,19,17,06,02,,,,,,,3.4,1.8,2.8*39
$GPRMC,225402.000,A,3725.6002,N,12208.3772,W,020.4,303.3,310517,,,A*74
$GPGGA,225403.000,3725.6033,N,12208.3836,W,1,06,1.8,-10.8,M,,,,0000*06
$GPGSA,A,3,24,12,19,17,06,02,,,,,,,3.4,1.8,2.8*39
$GPRMC,225403.000,A,3725.6033,N,12208.3836,W,020.6,302.8,310517,,,A*70
$GPGGA,225404.000,3725.6065,N,12208.3895,W,1,06,1.8,-9.5,M,,,,0000*3E
$GPGSA,A,3,24,12,19,17,06,02,,,,,,,3.4,1.8,2.8*39
$GPGSV,3,1,10,24,52,241,25,12,57,326,40,19,36,052,29,17,17,061,29*74
$GPGSV,3,2,10,06,58,065,25,02,64,180,31,25,17,308,,29,02,255,*7C
$GPGSV,3,3,10,05,01,165,,32,00,312,*7F
$GPRMC,225404.000,A,3725.6065,N,12208.3895,W,020.4,303.1,310517,,,A*77
$GPGGA,225405.000,3725.6095,N,12208.3956,W,1,06,1.8,-10.3,M,,,,0000*00
$GPGSA,A,3,24,12,19,17,06,02,,,,,,,3.4,1.8,2.8*39
$GPRMC,225405.000,A,3725.6095,N,12208.3956,W,020.2,303.3,310517,,,A*73
$GPGGA,225406.000,3725.6122,N,12208.4012,W,1,06,1.8,-11.1,M,,,,0000*03
$GPGSA,A,3,24,12,19,17,06,02,,,,,,,3.4,1.8,2.8*39
$GPRMC,225406.000,A,3725.6122,N,12208.4012,W,019.5,303.0,310517,,,A*7D
$GPGGA,225407.000,3725.6142,N,12208.4055,W,1,06,1.8,-8.6,M,,,,0000*38
$GPGSA,A,3,24,12,19,17,06,02,,,,,,,3.4,1.8,2.8*39
$GPGSV,3,1,10,24,52,241,28,12,57,326,37,19,36,052,34,17,17,061,26*7A
$GPGSV,3,2,10,06,58,064,31,02,64,180,35,25,17,308,,29,02,255,*7C
$GPGSV,3,3,10,05,01,165,,32,00,312,*7F
$GPRMC,225407.000,A,3725.6142,N,12208.4055,W,018.0,300.9,310517,,,A*77
$GPGGA,225408.000,3725.6165,N,12208.4105,W,1,04,8.2,-9.3,M,,,,0000*33
$GPGSA,A,3,12,19,17,06,,,,,,,,,9.9,8.2,5.4*32
$GPRMC,225408.000,A,3725.6165,N,12208.4105,W,017.3,301.0,310517,,,A*7D
$GPGGA,225409.000,3725.6145,N,12208.4146,W,1,06,1.8,-11.6,M,,,,0000*0A
$GPGSA,A,3,24,12,19,17,06,02,,,,,,,3.4,1.8,2.8*39
$GPRMC,225409.000,A,3725.6145,N,12208.4146,W,014.0,285.0,310517,,,A*74
$GPGGA,225410.000,3725.6135,N,12208.4172,W,1,06,1.8,-9.2,M,,,,0000*3F
$GPGSA,A,3,24,12,19,17,06,02,,,,,,,3.4,1.8,2.8*39
$GPGSV,3,1,10,24,52,241,25,12,57,326,33,19,36,052,25,17,17,061,31*75
$GPGSV,3,2,10,06,58,064,31,02,64,180,32,25,17,308,,29,02,255,*7B
$GPGSV,3,3,10,05,01,165,,32,00,312,*7F
$GPRMC,225410.000,A,3725.6135,N,12208.4172,W,012.2,275.1,310517,,,A*76
$GPGGA,225411.000,3725.6120,N,12208.4202,W,1,06,1.8,-9.0,M,,,,0000*3C
$GPGSA,A,3,24,12,19,17,06,02,,,,,,,3.4,1.8,2.8*39
$GPRMC,225411.000,A,3725.6120,N,12208.4202,W,011.0,264.8,310517,,,A*7F
$GPGGA,225412.000,3725.6101,N,12208.4237,W,1,06,1.8,-9.5,M,,,,0000*3F
$GPGSA,A,3,24,12,19,17,06,02,,,,,,,3.4,1.8,2.8*39
$GPRMC,225412.000,A,3725.6101,N,12208.4237,W,010.9,255.6,310517,,,A*7D
$GPGGA,225413.000,3725.6077,N,12208.4267,W,1,06,1.8,-9.1,M,,,,0000*3F
$GPGSA,A,3,24,12,19,17,06,02,,,,,,,3.4,1.8,2.8*39
$GPGSV,3,1,10,24,52,241,27,12,57,326,28,19,36,052,27,17,17,061,26*79
$GPGSV,3,2,10,06,58,064,32,02,64,180,31,25,17,308,,29,02,255,*7B
$GPGSV,3,3,10,05,01,165,,32,00,312,*7F
$GPRMC,225413.000,A,3725.6077,N,12208.4267,W,011.4,245.9,310517,,,A*7B
$GPGGA,225414.000,3725.6054,N,12208.4304,W,1,06,1.8,-9.2,M,,,,0000*3E
$GPGSA,A,3,24,12,19,17,06,02,,,,,,,3.4,1.8,2.8*39
$GPRMC,225414.000,A,3725.6054,N,12208.4304,W,012.1,242.1,310517,,,A*70
$GPGGA,225415.000,3725.6015,N,12208.4336,W,1,06,1.8,-11.4,M,,,,0000*04
$GPGSA,A,3,24,12,19,17,06,02,,,,,,,3.4,1.8,2.8*39
$GPRMC,225415.000,A,3725.6015,N,12208.4336,W,012.9,233.0,310517,,,A*7A
$GPGGA,225416.000,3725.5977,N,12208.4368,W,1,06,1.8,-12.0,M,,,,0000*05
$GPGSA,A,3,24,12,19,17,06,02,,,,,,,3.4,1.8,2.8*39
$GPGSV,3,1,10,24,52,241,25,12,57,326,33,19,36,052,26,17,17,061,25*73
$GPGSV,3,2,10,06,58,064,31,02,64,180,29,25,17,308,,29,02,255,*71
$GPGSV,3,3,10,05,01,165,,32,00,312,*7F
$GPRMC,225416.000,A,3725.5977,N,12208.4368,W,013.8,227.6,310517,,,A*7F
$GPGGA,225417.000,3725.5940,N,12208.4406,W,1,06,1.8,-12.1,M,,,,0000*0E
$GPGSA,A,3,24,12,19,17,06,02,,,,,,,3.4,1.8,2.8*39
$GPRMC,225417.000,A,3725.5940,N,12208.4406,W,015.0,225.2,310517,,,A*7D
$GPGGA,225418.000,3725.5900,N,12208.4443,W,1,06,1.8,-13.8,M,,,,0000*0C
$GPGSA,A,3,24,12,19,17,06,02,,,,,,,3.4,1.8,2.8*39
$GPRMC,225418.000,A,3725.5900,N,12208.4443,W,015.5,222.8,310517,,,A*7F
$GPGGA,225419.000,3725.5867,N,12208.4480,W,1,06,1.8,-14.3,M,,,,0000*0E
$GPGSA,A,3,24,12,19,17,06,02,,,,,,,3.4,1.8,2.8*39
$GPGSV,3,1,10,24,52,241,31,12,57,326,25,19,35,052,24,17,17,061,24*71
$GPGSV,3,2,10,06,58,064,28,02,64,180,28,25,17,308,,29,02,255,*78
$GPGSV,3,3,10,05,01,165,,32,00,312,*7F
$GPRMC,225419.000,A,3725.5867,N,12208.4480,W,015.5,222.7,310517,,,A*7E
$GPGGA,225420.000,3725.5834,N,12208.4520,W,1,06,1.8,-15.6,M,,,,0000*0D
$GPGSA,A,3,24,12,19,17,06,02,,,,,,,3.4,1.8,2.8*39
$GPRMC,225420.000,A,3725.5834,N,12208.4520,W,015.6,222.9,310517,,,A*74
$GPGGA,225421.000,3725.5802,N,12208.4556,W,1,05,2.3,-16.4,M,,,,0000*02
$GPGSA,A,3,12,19,17,06,02,,,,,,,,4.3,2.3,3.6*38
$GPRMC,225421.000,A,3725.5802,N,12208.4556,W,015.2,222.6,310517,,,A*7A
$GPGGA,225422.000,3725.5780,N,12208.4586,W,1,06,1.8,-13.8,M,,,,0000*0B
$GPGSA,A,3,24,12,19,17,06,02,,,,,,,3.4,1.8,2.8*39
$GPGSV,3,1,10,24,52,241,25,12,57,326,24,19,35,052,24,17,17,061,25*74
$GPGSV,3,2,10,06,58,064,28,02,64,180,29,25,17,308,,29,02,255,*79
$GPGSV,3,3,10,05,01,165,,32,00,312,*7F
$GPRMC,225422.000,A,3725.5780,N,12208.4586,W,013.9,223.5,310517,,,A*7E
$GPGGA,225423.000,3725.5752,N,12208.4606,W,1,06,1.8,-12.9,M,,,,0000*0E
$GPGSA,A,3,24,12,19,17,06,02,,,,,,,3.4,1.8,2.8*39
$GPRMC,225423.000,A,3725.5752,N,12208.4606,W,012.6,221.2,310517,,,A*70
$GPGGA,225424.000,3725.5731,N,12208.4622,W,1,05,1.9,-11.1,M,,,,0000*03
$GPGSA,A,3,24,12,19,06,02,,,,,,,,5.4,1.9,5.1*36
$GPRMC,225424.000,A,3725.5731,N,12208.4622,W,010.9,220.5,310517,,,A*7F
$GPGGA,225425.000,3725.5713,N,12208.4625,W,1,06,1.8,-12.6,M,,,,0000*03
$GPGSA,A,3,24,12,19,17,06,02,,,,,,,3.4,1.8,2.8*39
$GPGSV,3,1,10,24,52,241,26,12,57,326,33,19,35,052,24,17,17,061,24*70
$GPGSV,3,2,10,06,58,064,29,02,64,180,30,25,17,308,,29,02,255,*70
$GPGSV,3,3,10,05,01,165,,32,00,312,*7F
$GPRMC,225425.000,A,3725.5713,N,12208.4625,W,008.3,215.7,310517,,,A*7E
$GPGGA,225426.000,3725.5706,N,12208.4630,W,1,06,1.8,-12.8,M,,,,0000*0E
$GPGSA,A,3,24,12,19,17,06,02,,,,,,,3.4,1.8,2.8*39
$GPRMC,225426.000,A,3725.5706,N,12208.4630,W,005.8,211.9,310517,,,A*71
$GPGGA,225427.000,3725.5696,N,12208.4636,W,1,06,1.8,-13.3,M,,,,0000*0B
$GPGSA,A,3,24,12,19,17,06,02,,,,,,,3.4,1.8,2.8*39
$GPRMC,225427.000,A,3725.5696,N,12208.4636,W,004.8,209.7,310517,,,A*78
$GPGGA,225428.000,3725.5666,N,12208.4645,W,1,06,1.8,-15.8,M,,,,0000*02
$GPGSA,A,3,24,12,19,17,06,02,,,,,,,3.4,1.8,2.8*39
$GPGSV,3,1,10,24,52,241,33,12,57,326,33,19,35,052,25,17,17,061,27*76
$GPGSV,3,2,10,06,58,064,34,02,64,180,33,25,17,308,,29,03,255,*7E
$GPGSV,3,3,10,05,01,165,,32,00,312,*7F
$GPRMC,225428.000,A,3725.5666,N,12208.4645,W,005.4,210.5,310517,,,A*7B
$GPGGA,225429.000,3725.5635,N,12208.4642,W,1,04,2.5,-16.1,M,,,,0000*04
$GPGSA,A,3,12,17,06,02,,,,,,,,,4.4,2.5,3.7*30
$GPRMC,225429.000,A,3725.5635,N,12208.4642,W,006.1,204.1,310517,,,A*7C
$GPGGA,225430.000,3725.5609,N,12208.4645,W,1,05,1.9,-16.9,M,,,,0000*02
$GPGSA,A,3,24,12,17,06,02,,,,,,,,3.4,1.9,2.8*30
$GPRMC,225430.000,A,3725.5609,N,12208.4645,W,006.5,196.2,310517,,,A*73
$GPGGA,225431.000,3725.5590,N,12208.4635,W,1,06,1.8,-15.6,M,,,,0000*09
$GPGSA,A,3,24,12,19,17,06,02,,,,,,,3.4,1.8,2.8*39
$GPGSV,3,1,10,24,52,241,27,12,57,326,30,19,35,052,28,17,17,061,28*72
$GPGSV,3,2,10,06,58,064,32,02,64,180,27,25,17,308,,29,03,255,*7D
$GPGSV,3,3,10,05,01,165,,32,00,311,*7C
$GPRMC,225431.000,A,3725.5590,N,12208.4635,W,006.3,180.9,310517,,,A*7C
$GPGGA,225432.000,3725.5570,N,12208.4619,W,1,06,1.8,-17.1,M,,,,0000*0F
$GPGSA,A,3,24,12,19,17,06,02,,,,,,,3.4,1.8,2.8*39
$GPRMC,225432.000,A,3725.5570,N,12208.4619,W,006.1,160.0,310517,,,A*7A
$GPGGA,225433.000,3725.5548,N,12208.4586,W,1,05,1.9,-19.9,M,,,,0000*04
$GPGSA,A,3,24,12,17,06,02,,,,,,,,3.4,1.9,2.8*30
$GPRMC,225433.000,A,3725.5548,N,12208.4586,W,007.7,138.4,310517,,,A*7B
$GPGGA,225434.000,3725.5528,N,12208.4542,W,1,06,1.8,-19.5,M,,,,0000*03
$GPGSA,A,3,24,12,19,17,06,02,,,,,,,3.4,1.8,2.8*39
$GPGSV,3,1,10,24,52,241,27,12,57,326,27,19,35,052,25,17,17,061,34*74
$GPGSV,3,2,10,06,58,064,33,02,64,180,24,25,17,308,,29,03,255,*7F
$GPGSV,3,3,10,05,01,165,,32,00,311,*7C
$GPRMC,225434.000,A,3725.5528,N,12208.4542,W,009.5,125.9,310517,,,A*7F
$GPGGA,225435.000,3725.5507,N,12208.4496,W,1,05,2.5,-20.5,M,,,,0000*00
$GPGSA,A,3,24,12,19,17,06,,,,,,,,3.9,2.5,3.0*31
$GPRMC,225435.000,A,3725.5507,N,12208.4496,W,011.3,121.0,310517,,,A*79
$GPGGA,225436.000,3725.5491,N,12208.4452,W,1,04,2.5,-21.8,M,,,,0000*08
$GPGSA,A,3,24,12,17,06,,,,,,,,,3.9,2.5,3.0*39
$GPRMC,225436.000,A,3725.5491,N,12208.4452,W,012.0,117.4,310517,,,A*7D
$GPGGA,225437.000,3725.5465,N,12208.4400,W,1,06,1.6,-19.8,M,,,,0000*0C
$GPGSA,A,3,24,12,17,06,25,02,,,,,,,2.6,1.6,2.1*32
$GPGSV,3,1,10,24,52,241,29,12,57,326,25,19,35,052,22,17,17,061,31*7A
$GPGSV,3,2,10,06,58,064,28,25,17,308,30,02,64,180,24,29,03,255,*76
$GPGSV,3,3,10,05,01,164,,32,00,311,*7D
$GPRMC,225437.000,A,3725.5465,N,12208.4400,W,012.9,119.1,310517,,,A*72
$GPGGA,225438.000,3725.5435,N,12208.4345,W,1,07,1.5,-17.1,M,,,,0000*05
$GPGSA,A,3,24,12,19,17,06,25,02,,,,,,2.5,1.5,2.0*3B
$GPRMC,225438.000,A,3725.5435,N,12208.4345,W,014.0,121.9,310517,,,A*72
$GPGGA,225439.000,3725.5396,N,12208.4305,W,1,07,1.5,-16.9,M,,,,0000*07
$GPGSA,A,3,24,12,19,17,06,25,02,,,,,,2.5,1.5,2.0*3B
$GPRMC,225439.000,A,3725.5396,N,12208.4305,W,013.9,128.0,310517,,,A*77
$GPGGA,225440.000,3725.5345,N,12208.4282,W,1,07,1.5,-17.9,M,,,,0000*08
$GPGSA,A,3,24,12,19,17,06,25,02,,,,,,2.5,1.5,2.0*3B
$GPGSV,3,1,10,24,52,241,37,12,57,326,27,19,35,052,26,17,17,061,25*76
$GPGSV,3,2,10,06,58,064,31,25,17,308,24,02,64,180,33,29,03,255,*7D
$GPGSV,3,3,10,05,01,164,,32,00,311,*7D
$GPRMC,225440.000,A,3725.5345,N,12208.4282,W,013.3,139.8,310517,,,A*7B
$GPGGA,225441.000,3725.5296,N,12208.4257,W,1,06,1.8,-17.7,M,,,,0000*0C
$GPGSA,A,3,24,12,19,17,06,02,,,,,,,3.4,1.8,2.8*39
$GPRMC,225441.000,A,3725.5296,N,12208.4257,W,013.4,149.1,310517,,,A*74
$GPGGA,225442.000,3725.5267,N,12208.4251,W,1,05,2.5,-15.5,M,,,,0000*0A
$GPGSA,A,3,24,12,19,17,06,,,,,,,,3.9,2.5,3.0*31
$GPRMC,225442.000,A,3725.5267,N,12208.4251,W,012.4,160.3,310517,,,A*77
$GPGGA,225443.000,3725.5223,N,12208.4244,W,1,06,1.8,-14.1,M,,,,0000*07
$GPGSA,A,3,24,12,19,17,06,02,,,,,,,3.4,1.8,2.8*39
$GPGSV,3,1,10,24,52,241,25,12,58,326,33,19,35,052,28,17,17,061,28*7C
$GPGSV,3,2,10,06,58,064,26,25,17,308,22,02,64,180,26,29,03,255,*79
$GPGSV,3,3,10,05,01,164,,32,00,311,*7D
$GPRMC,225443.000,A,3725.5223,N,12208.4244,W,012.8,169.8,310517,,,A*7C
$GPGGA,225444.000,3725.5202,N,12208.4259,W,1,07,1.5,-16.0,M,,,,0000*00
$GPGSA,A,3,24,12,19,17,06,25,02,,,,,,2.5,1.5,2.0*3B
$GPRMC,225444.000,A,3725.5202,N,12208.4259,W,012.0,179.2,310517,,,A*77
$GPGGA,225445.000,3725.5166,N,12208.4266,W,1,07,1.5,-16.3,M,,,,0000*0F
$GPGSA,A,3,24,12,19,17,06,25,02,,,,,,2.5,1.5,2.0*3B
$GPRMC,225445.000,A,3725.5166,N,12208.4266,W,012.1,184.8,310517,,,A*72
$GPGGA,225446.000,3725.5129,N,12208.4274,W,1,06,1.6,-16.1,M,,,,0000*04
$GPGSA,A,3,24,12,17,06,25,02,,,,,,,2.6,1.6,2.1*32
$GPGSV,3,1,10,24,52,241,27,12,58,326,32,19,35,052,22,17,17,061,25*78
$GPGSV,3,2,10,06,58,064,31,25,17,308,21,02,64,180,31,29,03,255,*7A
$GPGSV,3,3,10,05,01,164,,32,00,311,*7D
$GPRMC,225446.000,A,3725.5129,N,12208.4274,W,012.2,188.2,310517,,,A*7C
$GPGGA,225447.000,3725.5098,N,12208.4285,W,1,06,1.8,-14.7,M,,,,0000*0A
$GPGSA,A,3,24,12,19,17,06,02,,,,,,,3.4,1.8,2.8*39
$GPRMC,225447.000,A,3725.5098,N,12208.4285,W,012.1,190.6,310517,,,A*76
$GPGGA,225448.000,3725.5058,N,12208.4295,W,1,05,3.3,-14.5,M,,,,0000*00
$GPGSA,A,3,24,19,17,06,02,,,,,,,,4.4,3.3,3.0*3D
$GPRMC,225448.000,A,3725.5058,N,12208.4295,W,012.3,192.0,310517,,,A*72
$GPGGA,225449.000,3725.5029,N,12208.4308,W,1,06,1.8,-12.4,M,,,,0000*0F
$GPGSA,A,3,24,12,19,17,06,02,,,,,,,3.4,1.8,2.8*39
$GPGSV,3,1,10,24,52,241,27,12,58,326,28,19,35,052,29,17,17,061,27*7A
$GPGSV,3,2,10,06,58,064,33,25,17,308,14,02,64,180,30,29,03,255,*7F
$GPGSV,3,3,10,05,01,164,,32,00,311,*7D
$GPRMC,225449.000,A,3725.5029,N,12208.4308,W,012.1,194.1,310517,,,A*75
$GPGGA,225450.000,3725.5000,N,12208.4320,W,1,06,1.8,-12.6,M,,,,0000*04
$GPGSA,A,3,24,12,19,17,06,02,,,,,,,3.4,1.8,2.8*39
$GPRMC,225450.000,A,3725.5000,N,12208.4320,W,011.5,194.2,310517,,,A*78
$GPGGA,225451.000,3725.4978,N,12208.4334,W,1,06,1.8,-11.9,M,,,,0000*0B
$GPGSA,A,3,24,12,19,17,06,02,,,,,,,3.4,1.8,2.8*39
$GPRMC,225451.000,A,3725.4978,N,12208.4334,W,010.4,195.8,310517,,,A*70
$GPGGA,225452.000,3725.4956,N,12208.4336,W,1,06,1.8,-12.0,M,,,,0000*0C
$GPGSA,A,3,24,12,19,17,06,02,,,,,,,3.4,1.8,2.8*39
$GPGSV,3,1,10,24,52,241,26,12,58,326,38,19,35,052,25,17,17,061,25*74
$GPGSV,3,2,10,06,58,064,30,25,17,308,10,02,64,180,29,29,03,255,*70
$GPGSV,3,3,10,05,01,164,,32,00,311,*7D
$GPRMC,225452.000,A,3725.4956,N,12208.4336,W,008.9,196.0,310517,,,A*72
$GPGGA,225453.000,3725.4944,N,12208.4344,W,1,05,2.1,-13.1,M,,,,0000*02
$GPGSA,A,3,24,12,19,17,02,,,,,,,,4.4,2.1,3.9*32
$GPRMC,225453.000,A,3725.4944,N,12208.4344,W,007.0,196.7,310517,,,A*74
$GPGGA,225454.000,3725.4936,N,12208.4345,W,1,05,1.9,-13.4,M,,,,0000*0F
$GPGSA,A,3,24,12,17,06,02,,,,,,,,3.4,1.9,2.8*30
$GPRMC,225454.000,A,3725.4936,N,12208.4345,W,005.2,194.4,310517,,,A*76
$GPGGA,225455.000,3725.4927,N,12208.4342,W,1,05,1.9,-12.9,M,,,,0000*05
$GPGSA,A,3,24,12,17,06,02,,,,,,,,3.4,1.9,2.8*30
$GPGSV,3,1,10,24,52,241,28,12,58,326,38,19,35,052,22,17,17,061,27*7F
$GPGSV,3,2,10,06,58,064,29,25,17,308,08,02,64,180,31,29,03,255,*78
$GPGSV,3,3,10,05,01,164,,32,00,311,*7D
$GPRMC,225455.000,A,3725.4927,N,12208.4342,W,003.9,190.5,310517,,,A*78
$GPGGA,225456.000,3725.4921,N,12208.4341,W,1,05,1.9,-13.0,M,,,,0000*0B
$GPGSA,A,3,24,12,17,06,02,,,,,,,,3.4,1.9,2.8*30
$GPRMC,225456.000,A,3725.4921,N,12208.4341,W,003.0,185.6,310517,,,A*70
$GPGGA,225457.000,3725.4919,N,12208.4341,W,1,06,1.8,-11.7,M,,,,0000*06
$GPGSA,A,3,24,12,19,17,06,02,,,,,,,3.4,1.8,2.8*39
$GPRMC,225457.000,A,3725.4919,N,12208.4341,W,002.1,182.1,310517,,,A*7A
$GPGGA,225458.000,3725.4916,N,12208.4343,W,1,06,1.8,-12.6,M,,,,0000*06
$GPGSA,A,3,24,12,19,17,06,02,,,,,,,3.4,1.8,2.8*39
$GPGSV,3,1,10,24,52,241,29,12,58,326,39,19,35,052,23,17,17,061,26*7F
$GPGSV,3,2,10,06,58,064,31,25,17,308,09,02,64,180,32,29,03,255,*73
$GPGSV,3,3,10,05,01,164,,32,00,311,*7D
$GPRMC,225458.000,A,3725.4916,N,12208.4343,W,001.7,186.1,310517,,,A*79
$GPGGA,225459.000,3725.4911,N,12208.4347,W,1,06,1.8,-13.1,M,,,,0000*02
$GPGSA,A,3,24,12,19,17,06,02,,,,,,,3.4,1.8,2.8*39
$GPRMC,225459.000,A,3725.4911,N,12208.4347,W,001.6,193.5,310517,,,A*7A
$GPGGA,225500.000,3725.4907,N,12208.4348,W,1,06,1.8,-16.9,M,,,,0000*0A
$GPGSA,A,3,24,12,19,17,06,02,,,,,,,3.4,1.8,2.8*39
$GPRMC,225500.000,A,3725.4907,N,12208.4348,W,001.7,201.3,310517,,,A*70
$GPGGA,225501.000,3725.4903,N,12208.4355,W,1,06,1.8,-17.4,M,,,,0000*0F
$GPGSA,A,3,24,12,19,17,06,02,,,,,,,3.4,1.8,2.8*39
$GPGSV,3,1,10,24,52,241,28,12,58,326,38,19,35,052,23,17,17,061,30*78
$GPGSV,3,2,10,06,58,064,29,02,64,180,31,25,17,308,,29,03,255,*70
$GPGSV,3,3,10,05,01,164,,32,00,311,*7D
$GPRMC,225501.000,A,3725.4903,N,12208.4355,W,002.0,207.0,310517,,,A*78
$GPGGA,225502.000,3725.4896,N,12208.4360,W,1,06,1.8,-18.5,M,,,,0000*09
$GPGSA,A,3,24,12,19,17,06,02,,,,,,,3.4,1.8,2.8*39
$GPRMC,225502.000,A,3725.4896,N,12208.4360,W,002.1,209.2,310517,,,A*7D
$GPGGA,225503.000,3725.4889,N,12208.4365,W,1,06,1.8,-18.9,M,,,,0000*0F
$GPGSA,A,3,24,12,19,17,06,02,,,,,,,3.4,1.8,2.8*39
$GPRMC,225503.000,A,3725.4889,N,12208.4365,W,002.1,208.2,310517,,,A*76
$GPGGA,225504.000,3725.4885,N,12208.4369,W,1,06,1.8,-18.9,M,,,,0000*08
$GPGSA,A,3,24,12,19,17,06,02,,,,,,,3.4,1.8,2.8*39
$GPGSV,3,1,10,24,52,241,29,12,58,326,37,19,35,052,24,17,17,061,29*79
$GPGSV,3,2,10,06,58,064,29,02,64,180,33,25,17,308,,29,03,255,*72
$GPGSV,3,3,10,05,01,164,,32,00,311,*7D
$GPRMC,225504.000,A,3725.4885,N,12208.4369,W,002.1,211.4,310517,,,A*7F
$GPGGA,225505.000,3725.4885,N,12208.4368,W,1,06,1.8,-18.1,M,,,,0000*00
$GPGSA,A,3,24,12,19,17,06,02,,,,,,,3.4,1.8,2.8*39
$GPRMC,225505.000,A,3725.4885,N,12208.4368,W,002.0,212.6,310517,,,A*7F
$GPGGA,225506.000,3725.4879,N,12208.4373,W,1,06,1.9,-18.7,M,,,,0000*0D
$GPGSA,A,3,24,12,19,17,06,02,,,,,,,3.4,1.9,2.8*38
$GPRMC,225506.000,A,3725.4879,N,12208.4373,W,002.1,216.0,310517,,,A*76
$GPGGA,225507.000,3725.4872,N,12208.4374,W,1,06,1.9,-19.0,M,,,,0000*06
$GPGSA,A,3,24,12,19,17,06,02,,,,,,,3.4,1.9,2.8*38
$GPGSV,3,1,10,24,52,241,27,12,58,326,38,19,35,052,26,17,17,061,27*74
$GPGSV,3,2,10,06,58,064,31,02,64,180,28,25,17,308,,29,03,255,*71
$GPGSV,3,3,10,05,01,164,,32,00,311,*7D
$GPRMC,225507.000,A,3725.4872,N,12208.4374,W,002.1,214.1,310517,,,A*78
$GPGGA,225508.000,3725.4868,N,12208.4377,W,1,06,1.9,-18.6,M,,,,0000*06
$GPGSA,A,3,24,12,19,17,06,02,,,,,,,3.4,1.9,2.8*38
$GPRMC,225508.000,A,3725.4868,N,12208.4377,W,001.9,213.2,310517,,,A*70
$GPGGA,225509.000,3725.4865,N,12208.4379,W,1,06,1.9,-19.2,M,,,,0000*01
$GPGSA,A,3,24,12,19,17,06,02,,,,,,,3.4,1.9,2.8*38
$GPRMC,225509.000,A,3725.4865,N,12208.4379,W,001.4,209.1,310517,,,A*77
$GPGGA,225510.000,3725.4862,N,12208.4383,W,1,06,1.9,-20.2,M,,,,0000*01
$GPGSA,A,3,24,12,19,17,06,02,,,,,,,3.4,1.9,2.8*38
$GPGSV,3,1,10,24,52,241,29,12,58,326,38,19,35,052,28,17,17,061,32*70
$GPGSV,3,2,10,06,57,064,30,02,64,180,28,25,17,308,,29,03,255,*7F
$GPGSV,3,3,10,05,02,164,,32,00,311,*7E
$GPRMC,225510.000,A,3725.4862,N,12208.4383,W,001.0,207.8,310517,,,A*7E
$GPGGA,225511.000,3725.4860,N,12208.4383,W,1,06,1.9,-21.4,M,,,,0000*05
$GPGSA,A,3,24,12,19,17,06,02,,,,,,,3.4,1.9,2.8*38
$GPRMC,225511.000,A,3725.4860,N,12208.4383,W,000.0,207.8,310517,,,A*7C
$GPGGA,225512.000,3725.4860,N,12208.4380,W,1,06,1.9,-21.7,M,,,,0000*06
$GPGSA,A,3,24,12,19,17,06,02,,,,,,,3.4,1.9,2.8*38
$GPRMC,225512.000,A,3725.4860,N,12208.4380,W,000.0,207.8,310517,,,A*7C
$GPGGA,225513.000,3725.4859,N,12208.4380,W,1,06,1.9,-21.0,M,,,,0000*0A
$GPGSA,A,3,24,12,19,17,06,02,,,,,,,3.4,1.9,2.8*38
$GPGSV,3,1,10,24,52,241,28,12,58,326,39,19,35,052,29,17,17,061,31*72
$GPGSV,3,2,10,06,57,064,29,02,64,180,26,25,17,308,,29,03,255,*79
$GPGSV,3,3,10,05,02,164,,32,00,311,*7E
$GPRMC,225513.000,A,3725.4859,N,12208.4380,W,000.0,207.8,310517,,,A*77
$GPGGA,225514.000,3725.4859,N,12208.4380,W,1,06,1.9,-21.2,M,,,,0000*0F
$GPGSA,A,3,24,12,19,17,06,02,,,,,,,3.4,1.9,2.8*38
$GPRMC,225514.000,A,3725.4859,N,12208.4380,W,000.0,207.8,310517,,,A*70
$GPGGA,225515.000,3725.4860,N,12208.4380,W,1,06,1.9,-21.9,M,,,,0000*0F
$GPGSA,A,3,24,12,19,17,06,02,,,,,,,3.4,1.9,2.8*38
$GPRMC,225515.000,A,3725.4860,N,12208.4380,W,000.0,207.8,310517,,,A*7B
$GPGGA,225516.000,3725.4858,N,12208.4378,W,1,06,1.9,-21.9,M,,,,0000*00
$GPGSA,A,3,24,12,19,17,06,02,,,,,,,3.4,1.9,2.8*38
$GPGSV,3,1,10,24,52,241,28,12,58,327,39,19,35,052,28,17,17,061,30*73
$GPGSV,3,2,10,06,57,064,30,02,64,180,27,25,17,308,,29,03,255,*70
$GPGSV,3,3,10,05,02,164,,32,00,311,*7E
$GPRMC,225516.000,A,3725.4858,N,12208.4378,W,000.0,207.8,310517,,,A*74
$GPGGA,225517.000,3725.4856,N,12208.4376,W,1,06,1.9,-21.6,M,,,,0000*0E
$GPGSA,A,3,24,12,19,17,06,02,,,,,,,3.4,1.9,2.8*38
$GPRMC,225517.000,A,3725.4856,N,12208.4376,W,000.0,207.8,310517,,,A*75
$GPGGA,225518.000,3725.4855,N,12208.4374,W,1,06,1.9,-21.5,M,,,,0000*03
$GPGSA,A,3,24,12,19,17,06,02,,,,,,,3.4,1.9,2.8*38
$GPRMC,225518.000,A,3725.4855,N,12208.4374,W,000.0,207.8,310517,,,A*7B
$GPGGA,225519.000,3725.4852,N,12208.4373,W,1,06,1.9,-22.0,M,,,,0000*04
$GPGSA,A,3,24,12,19,17,06,02,,,,,,,3.3,1.9,2.8*3F
$GPGSV,3,1,10,24,52,241,29,12,58,327,39,19,35,052,28,17,17,061,31*73
$GPGSV,3,2,10,06,57,064,30,02,64,180,25,25,17,308,,29,03,255,*72
$GPGSV,3,3,10,05,02,164,,32,00,311,*7E
$GPRMC,225519.000,A,3725.4852,N,12208.4373,W,000.0,207.8,310517,,,A*7A
$GPGGA,225520.000,3725.4852,N,12208.4372,W,1,06,1.9,-22.6,M,,,,0000*09
$GPGSA,A,3,24,12,19,17,06,02,,,,,,,3.3,1.9,2.8*3F
$GPRMC,225520.000,A,3725.4852,N,12208.4372,W,000.0,207.8,310517,,,A*71
$GPGGA,225521.000,3725.4850,N,12208.4372,W,1,06,1.9,-22.7,M,,,,0000*0B
$GPGSA,A,3,24,12,19,17,06,02,,,,,,,3.3,1.9,2.8*3F
$GPRMC,225521.000,A,3725.4850,N,12208.4372,W,000.0,207.8,310517,,,A*72
$GPGGA,225522.000,3725.4848,N,12208.4372,W,1,06,1.9,-23.2,M,,,,0000*05
$GPGSA,A,3,24,12,19,17,06,02,,,,,,,3.3,1.9,2.8*3F
$GPGSV,3,1,10,24,52,241,30,12,58,327,38,19,35,052,26,17,17,061,33*76
$GPGSV,3,2,10,06,57,064,28,02,64,180,25,25,17,308,,29,03,255,*7B
$GPGSV,3,3,10,05,02,164,,32,00,311,*7E
$GPRMC,225522.000,A,3725.4848,N,12208.4372,W,000.0,207.8,310517,,,A*78
$GPGGA,225523.000,3725.4847,N,12208.4372,W,1,06,1.9,-23.4,M,,,,0000*0D
$GPGSA,A,3,24,12,19,17,06,02,,,,,,,3.3,1.9,2.8*3F
$GPRMC,225523.000,A,3725.4847,N,12208.4372,W,000.0,207.8,310517,,,A*76
$GPGGA,225524.000,3725.4846,N,12208.4372,W,1,06,1.9,-23.9,M,,,,0000*06
$GPGSA,A,3,24,12,19,17,06,02,,,,,,,3.3,1.9,2.8*3F
$GPRMC,225524.000,A,3725.4846,N,12208.4372,W,000.0,207.8,310517,,,A*70
$GPGGA,225525.000,3725.4845,N,12208.4374,W,1,06,1.9,-24.9,M,,,,0000*05
$GPGSA,A,3,24,12,19,17,06,02,,,,,,,3.3,1.9,2.8*3F
$GPGSV,3,1,10,24,52,241,32,12,58,327,39,19,35,052,25,17,17,061,35*70
$GPGSV,3,2,10,06,57,064,31,02,64,180,27,25,17,308,,29,03,255,*71
$GPGSV,3,3,10,05,02,164,,32,00,311,*7E
$GPRMC,225525.000,A,3725.4845,N,12208.4374,W,000.0,207.8,310517,,,A*74
$GPGGA,225526.000,3725.4846,N,12208.4377,W,1,06,1.9,-24.5,M,,,,0000*0A
$GPGSA,A,3,24,12,19,17,06,02,,,,,,,3.3,1.9,2.8*3F
$GPRMC,225526.000,A,3725.4846,N,12208.4377,W,001.3,216.5,310517,,,A*78
$GPGGA,225527.000,3725.4847,N,12208.4378,W,1,06,1.9,-23.7,M,,,,0000*00
$GPGSA,A,3,24,12,19,17,06,02,,,,,,,3.3,1.9,2.8*3F
$GPRMC,225527.000,A,3725.4847,N,12208.4378,W,003.0,221.3,310517,,,A*74
$GPGGA,225528.000,3725.4837,N,12208.4389,W,1,06,1.9,-22.2,M,,,,0000*02
$GPGSA,A,3,24,12,19,17,06,02,,,,,,,3.3,1.9,2.8*3F
$GPGSV,3,1,10,24,52,240,32,12,58,327,39,19,35,052,25,17,17,061,35*71
$GPGSV,3,2,10,06,57,064,31,02,64,180,30,25,17,308,,29,03,255,*77
$GPGSV,3,3,10,05,02,164,,32,00,311,*7E
$GPRMC,225528.000,A,3725.4837,N,12208.4389,W,005.2,221.0,310517,,,A*75
$GPGGA,225529.000,3725.4820,N,12208.4404,W,1,06,1.9,-21.0,M,,,,0000*06
$GPGSA,A,3,24,12,19,17,06,02,,,,,,,3.3,1.9,2.8*3F
$GPRMC,225529.000,A,3725.4820,N,12208.4404,W,006.8,217.6,310517,,,A*7A
$GPGGA,225530.000,3725.4798,N,12208.4425,W,1,06,1.9,-20.5,M,,,,0000*05
$GPGSA,A,3,24,12,19,17,06,02,,,,,,,3.3,1.9,2.8*3F
$GPRMC,225530.000,A,3725.4798,N,12208.4425,W,008.4,217.5,310517,,,A*7C
$GPGGA,225531.000,3725.4768,N,12208.4453,W,1,06,1.9,-20.4,M,,,,0000*0B
$GPGSA,A,3,24,12,19,17,06,02,,,,,,,3.3,1.9,2.8*3F
$GPGSV,3,1,10,24,52,240,24,12,58,327,30,19,35,052,24,17,17,061,26*7C
$GPGSV,3,2,10,06,57,064,34,02,64,180,33,25,17,308,,29,03,255,*71
$GPGSV,3,3,10,05,02,164,,32,00,311,*7E
$GPRMC,225531.000,A,3725.4768,N,12208.4453,W,010.2,217.8,310517,,,A*71
$GPGGA,225532.000,3725.4738,N,12208.4481,W,1,04,2.4,-18.7,M,,,,0000*06
$GPGSA,A,3,24,12,17,02,,,,,,,,,4.9,2.4,4.3*3F
$GPRMC,225532.000,A,3725.4738,N,12208.4481,W,011.9,218.3,310517,,,A*76
$GPGGA,225533.000,3725.4703,N,12208.4518,W,1,05,1.9,-17.3,M,,,,0000*0A
$GPGSA,A,3,24,12,17,06,02,,,,,,,,3.4,1.9,2.8*30
$GPRMC,225533.000,A,3725.4703,N,12208.4518,W,013.9,219.4,310517,,,A*7A
$GPGGA,225534.000,3725.4664,N,12208.4557,W,1,06,1.9,-16.7,M,,,,0000*00
$GPGSA,A,3,24,12,19,17,06,02,,,,,,,3.3,1.9,2.8*3F
$GPGSV,3,1,10,24,52,240,30,12,58,327,34,19,35,052,22,17,17,061,32*7E
$GPGSV,3,2,10,06,57,064,29,02,64,180,29,25,17,308,,29,03,255,*76
$GPGSV,3,3,10,05,02,164,,32,00,311,*7E
$GPRMC,225534.000,A,3725.4664,N,12208.4557,W,015.2,219.6,310517,,,A*79
$GPGGA,225535.000,3725.4621,N,12208.4595,W,1,06,1.9,-16.4,M,,,,0000*0D
$GPGSA,A,3,24,12,19,17,06,02,,,,,,,3.3,1.9,2.8*3F
$GPRMC,225535.000,A,3725.4621,N,12208.4595,W,016.3,218.4,310517,,,A*76
$GPGGA,225536.000,3725.4579,N,12208.4633,W,1,06,1.9,-16.3,M,,,,0000*08
$GPGSA,A,3,24,12,19,17,06,02,,,,,,,3.3,1.9,2.8*3F
$GPRMC,225536.000,A,3725.4579,N,12208.4633,W,016.8,217.2,310517,,,A*76
$GPGGA,225537.000,3725.4535,N,12208.4675,W,1,06,1.9,-15.1,M,,,,0000*02
$GPGSA,A,3,24,12,19,17,06,02,,,,,,,3.3,1.9,2.8*3F
$GPGSV,3,1,10,24,52,240,31,12,58,327,37,19,35,052,21,17,17,061,33*7E
$GPGSV,3,2,10,06,57,064,31,02,64,179,28,25,17,308,,29,03,255,*78
$GPGSV,3,3,10,05,02,164,,32,00,311,*7E
$GPRMC,225537.000,A,3725.4535,N,12208.4675,W,017.5,216.8,310517,,,A*7A
$GPGGA,225538.000,3725.4487,N,12208.4714,W,1,06,1.9,-14.9,M,,,,0000*0A
$GPGSA,A,3,24,12,19,17,06,02,,,,,,,3.3,1.9,2.8*3F
$GPRMC,225538.000,A,3725.4487,N,12208.4714,W,018.3,216.2,310517,,,A*78
$GPGGA,225539.000,3725.4439,N,12208.4758,W,1,06,1.9,-15.2,M,,,,0000*0C
$GPGSA,A,3,24,12,19,17,06,02,,,,,,,3.3,1.9,2.8*3F
$GPRMC,225539.000,A,3725.4439,N,12208.4758,W,019.4,216.1,310517,,,A*71
$GPGGA,225540.000,3725.4387,N,12208.4802,W,1,06,1.9,-15.3,M,,,,0000*01
$GPGSA,A,3,24,12,19,17,06,02,,,,,,,3.3,1.9,2.8*3F
$GPGSV,3,1,10,24,52,240,31,12,58,327,38,19,35,052,20,17,17,061,34*77
$GPGSV,3,2,10,06,57,064,30,02,64,179,28,25,17,308,,29,03,255,*79
$GPGSV,3,3,10,05,02,164,,32,00,311,*7E
$GPRMC,225540.000,A,3725.4387,N,12208.4802,W,020.1,215.6,310517,,,A*76
$GPGGA,225541.000,3725.4335,N,12208.4846,W,1,06,1.9,-15.8,M,,,,0000*02
$GPGSA,A,3,24,12,19,17,06,02,,,,,,,3.3,1.9,2.8*3F
$GPRMC,225541.000,A,3725.4335,N,12208.4846,W,020.7,214.9,310517,,,A*76
$GPGGA,225542.000,3725.4281,N,12208.4894,W,1,06,1.9,-16.6,M,,,,0000*0D
$GPGSA,A,3,24,12,19,17,06,02,,,,,,,3.3,1.9,2.8*3F
$GPRMC,225542.000,A,3725.4281,N,12208.4894,W,021.4,214.9,310517,,,A*76
$GPGGA,225543.000,3725.4226,N,12208.4947,W,1,06,1.9,-17.9,M,,,,0000*00
$GPGSA,A,3,24,12,19,17,06,02,,,,,,,3.3,1.9,2.8*3F
$GPGSV,3,1,10,24,52,240,33,12,58,327,36,19,35,052,24,17,17,061,34*7F
$GPGSV,3,2,10,06,57,063,32,02,64,179,33,25,17,308,,29,03,255,*76
$GPGSV,3,3,10,05,02,164,,32,00,311,*7E
$GPRMC,225543.000,A,3725.4226,N,12208.4947,W,022.1,215.5,310517,,,A*7E
$GPGGA,225544.000,3725.4171,N,12208.4995,W,1,05,1.9,-17.0,M,,,,0000*03
$GPGSA,A,3,24,12,17,06,02,,,,,,,,3.4,1.9,2.8*30
$GPRMC,225544.000,A,3725.4171,N,12208.4995,W,022.8,216.3,310517,,,A*7B
$GPGGA,225545.000,3725.4114,N,12208.5046,W,1,05,1.9,-15.8,M,,,,0000*0D
$GPGSA,A,3,24,12,17,06,02,,,,,,,,3.4,1.9,2.8*30
$GPRMC,225545.000,A,3725.4114,N,12208.5046,W,023.7,216.4,310517,,,A*76
$GPGGA,225546.000,3725.4051,N,12208.5101,W,1,04,2.4,-16.4,M,,,,0000*0C
$GPGSA,A,3,24,12,17,02,,,,,,,,,4.9,2.4,4.3*3F
$GPGSV,3,1,10,24,52,240,33,12,58,327,36,19,35,052,21,17,17,061,31*7F
$GPGSV,3,2,10,06,57,063,24,02,64,179,31,25,17,308,,29,03,255,*73
$GPGSV,3,3,10,05,02,164,,32,00,311,*7E
$GPRMC,225546.000,A,3725.4051,N,12208.5101,W,024.5,215.7,310517,,,A*72
$GPGGA,225547.000,3725.3993,N,12208.5153,W,1,05,2.5,-16.2,M,,,,0000*0C
$GPGSA,A,3,24,12,19,17,06,,,,,,,,3.9,2.5,3.0*31
$GPRMC,225547.000,A,3725.3993,N,12208.5153,W,024.9,215.4,310517,,,A*7B
$GPGGA,225548.000,3725.3927,N,12208.5214,W,1,05,2.5,-19.3,M,,,,0000*02
$GPGSA,A,3,24,12,19,17,06,,,,,,,,3.9,2.5,3.0*31
$GPRMC,225548.000,A,3725.3927,N,12208.5214,W,025.2,214.8,310517,,,A*7C
$GPGGA,225549.000,3725.3864,N,12208.5263,W,1,06,1.9,-18.9,M,,,,0000*02
$GPGSA,A,3,24,12,19,17,06,02,,,,,,,3.3,1.9,2.8*3F
$GPGSV,3,1,10,24,52,240,32,12,58,327,36,19,35,052,26,17,17,061,29*70
$GPGSV,3,2,10,06,57,063,32,02,64,179,25,25,17,308,,29,03,255,*71
$GPGSV,3,3,10,05,02,164,,32,00,311,*7E
$GPRMC,225549.000,A,3725.3864,N,12208.5263,W,025.2,213.8,310517,,,A*7C
$GPGGA,225550.000,3725.3804,N,12208.5310,W,1,06,1.9,-18.3,M,,,,0000*03
$GPGSA,A,3,24,12,19,17,06,02,,,,,,,3.3,1.9,2.8*3F
$GPRMC,225550.000,A,3725.3804,N,12208.5310,W,025.1,213.4,310517,,,A*78
$GPGGA,225551.000,3725.3742,N,12208.5362,W,1,06,1.9,-18.7,M,,,,0000*0E
$GPGSA,A,3,24,12,19,17,06,02,,,,,,,3.3,1.9,2.8*3F
$GPRMC,225551.000,A,3725.3742,N,12208.5362,W,025.1,213.2,310517,,,A*77
$GPGGA,225552.000,3725.3682,N,12208.5413,W,1,06,1.9,-19.5,M,,,,0000*02
$GPGSA,A,3,24,12,19,17,06,02,,,,,,,3.3,1.9,2.8*3F
$GPGSV,3,1,10,24,52,240,33,12,58,327,38,19,35,052,24,17,17,061,32*77
$GPGSV,3,2,10,06,57,063,28,02,64,179,32,25,17,308,,29,03,255,*7C
$GPGSV,3,3,10,05,02,164,,32,00,311,*7E
$GPRMC,225552.000,A,3725.3682,N,12208.5413,W,025.1,213.6,310517,,,A*7C
$GPGGA,225553.000,3725.3623,N,12208.5474,W,1,06,1.9,-22.5,M,,,,0000*01
$GPGSA,A,3,24,12,19,17,06,02,,,,,,,3.3,1.9,2.8*3F
$GPRMC,225553.000,A,3725.3623,N,12208.5474,W,025.2,214.5,310517,,,A*70
$GPGGA,225554.000,3725.3562,N,12208.5526,W,1,06,1.9,-21.9,M,,,,0000*09
$GPGSA,A,3,24,12,19,17,06,02,,,,,,,3.3,1.9,2.8*3F
$GPRMC,225554.000,A,3725.3562,N,12208.5526,W,025.4,214.7,310517,,,A*73
$GPGGA,225555.000,3725.3502,N,12208.5576,W,1,05,1.9,-21.2,M,,,,0000*03
$GPGSA,A,3,24,12,17,06,02,,,,,,,,3.4,1.9,2.8*30
$GPGSV,3,1,10,24,52,240,32,12,58,327,37,19,35,052,23,17,17,061,32*7E
$GPGSV,3,2,10,06,57,063,27,02,64,179,27,25,17,308,,29,03,255,*77
$GPGSV,3,3,10,05,02,164,,32,00,311,*7E
$GPRMC,225555.000,A,3725.3502,N,12208.5576,W,025.6,214.8,310517,,,A*7C
$GPGGA,225556.000,3725.3442,N,12208.5631,W,1,06,1.9,-21.8,M,,,,0000*0C
$GPGSA,A,3,24,12,19,17,06,02,,,,,,,3.3,1.9,2.8*3F
$GPRMC,225556.000,A,3725.3442,N,12208.5631,W,025.9,215.0,310517,,,A*7C
$GPGGA,225557.000,3725.3380,N,12208.5687,W,1,05,1.9,-22.7,M,,,,0000*06
$GPGSA,A,3,24,12,17,06,02,,,,,,,,3.4,1.9,2.8*30
$GPRMC,225557.000,A,3725.3380,N,12208.5687,W,026.1,215.2,310517,,,A*70
$GPGGA,225558.000,3725.3319,N,12208.5736,W,1,05,1.9,-21.9,M,,,,0000*0F
$GPGSA,A,3,24,12,17,06,02,,,,,,,,3.4,1.9,2.8*30
$GPGSV,3,1,10,24,52,240,34,12,58,327,36,19,35,052,22,17,17,061,33*79
$GPGSV,3,2,10,06,57,063,27,02,64,179,29,25,17,308,,29,03,255,*79
$GPGSV,3,3,10,05,02,164,,32,00,311,*7E
$GPRMC,225558.000,A,3725.3319,N,12208.5736,W,026.2,214.9,310517,,,A*7D
$GPGGA,225559.000,3725.3258,N,12208.5789,W,1,06,1.9,-22.0,M,,,,0000*07
$GPGSA,A,3,24,12,19,17,06,02,,,,,,,3.3,1.9,2.8*3F
$GPRMC,225559.000,A,3725.3258,N,12208.5789,W,026.2,214.9,310517,,,A*7C
$GPGGA,225600.000,3725.3198,N,12208.5840,W,1,06,1.9,-21.2,M,,,,0000*0C
$GPGSA,A,3,24,12,19,17,06,02,,,,,,,3.3,1.9,2.8*3F
$GPRMC,225600.000,A,3725.3198,N,12208.5840,W,026.1,214.5,310517,,,A*79
$GPGGA,225601.000,3725.3134,N,12208.5894,W,1,06,1.9,-22.6,M,,,,0000*05
$GPGSA,A,3,24,12,19,17,06,02,,,,,,,3.3,1.9,2.8*3F
$GPGSV,3,1,10,24,52,240,33,12,58,327,37,19,35,052,21,17,17,061,25*7B
$GPGSV,3,2,10,06,57,063,27,02,64,179,29,25,17,309,,29,03,255,*78
$GPGSV,3,3,10,05,02,164,,32,00,311,*7E
$GPRMC,225601.000,A,3725.3134,N,12208.5894,W,026.0,214.1,310517,,,A*72
$GPGGA,225602.000,3725.3072,N,12208.5944,W,1,05,3.4,-21.4,M,,,,0000*04
$GPGSA,A,3,24,19,17,06,02,,,,,,,,4.5,3.4,2.9*33
$GPRMC,225602.000,A,3725.3072,N,12208.5944,W,026.2,214.1,310517,,,A*7C
$GPGGA,225603.000,3725.3013,N,12208.5997,W,1,06,1.9,-21.0,M,,,,0000*04
$GPGSA,A,3,24,12,19,17,06,02,,,,,,,3.3,1.9,2.8*3F
$GPRMC,225603.000,A,3725.3013,N,12208.5997,W,026.1,214.5,310517,,,A*73
$GPGGA,225604.000,3725.2950,N,12208.6048,W,1,06,1.9,-21.7,M,,,,0000*03
$GPGSA,A,3,24,12,19,17,06,02,,,,,,,3.3,1.9,2.8*3F
$GPGSV,3,1,10,24,52,240,28,12,58,327,33,19,35,052,21,17,17,061,26*76
$GPGSV,3,2,10,06,57,063,28,02,64,179,28,25,17,309,,29,03,255,*76
$GPGSV,3,3,10,05,02,164,,32,00,311,*7E
$GPRMC,225604.000,A,3725.2950,N,12208.6048,W,026.2,214.2,310517,,,A*77
$GPGGA,225605.000,3725.2884,N,12208.6100,W,1,06,1.9,-21.6,M,,,,0000*06
$GPGSA,A,3,24,12,19,17,06,02,,,,,,,3.3,1.9,2.8*3F
$GPRMC,225605.000,A,3725.2884,N,12208.6100,W,026.7,214.0,310517,,,A*74
$GPGGA,225606.000,3725.2816,N,12208.6153,W,1,06,1.9,-21.5,M,,,,0000*0B
$GPGSA,A,3,24,12,19,17,06,02,,,,,,,3.3,1.9,2.8*3F
$GPRMC,225606.000,A,3725.2816,N,12208.6153,W,027.3,213.8,310517,,,A*70
$GPGGA,225607.000,3725.2749,N,12208.6211,W,1,05,2.5,-22.3,M,,,,0000*03
$GPGSA,A,3,24,12,19,17,06,,,,,,,,3.9,2.5,3.0*31
$GPGSV,3,1,10,24,52,240,33,12,58,327,37,19,35,052,24,17,17,061,32*78
$GPGSV,3,2,10,06,57,063,29,02,64,179,29,25,17,309,,29,03,255,*76
$GPGSV,3,3,10,05,02,164,,32,00,311,*7E
$GPRMC,225607.000,A,3725.2749,N,12208.6211,W,027.7,214.1,310517,,,A*7B
$GPGGA,225608.000,3725.2678,N,12208.6262,W,1,06,1.9,-21.7,M,,,,0000*00
$GPGSA,A,3,24,12,19,17,06,02,,,,,,,3.3,1.9,2.8*3F
$GPRMC,225608.000,A,3725.2678,N,12208.6262,W,028.2,213.7,310517,,,A*78
$GPGGA,225609.000,3725.2613,N,12208.6317,W,1,06,1.9,-21.4,M,,,,0000*0C
$GPGSA,A,3,24,12,19,17,06,02,,,,,,,3.3,1.9,2.8*3F
$GPRMC,225609.000,A,3725.2613,N,12208.6317,W,028.3,213.7,310517,,,A*76
$GPGGA,225610.000,3725.2548,N,12208.6374,W,1,05,3.4,-21.8,M,,,,0000*0C
$GPGSA,A,3,24,19,17,06,02,,,,,,,,4.5,3.4,2.9*33
$GPGSV,3,1,10,24,52,240,31,12,58,327,25,19,35,052,22,17,17,061,32*7F
$GPGSV,3,2,10,06,57,063,28,02,65,179,30,25,17,309,,29,03,255,*7E
$GPGSV,3,3,10,05,02,164,,32,00,311,*7E
$GPRMC,225610.000,A,3725.2548,N,12208.6374,W,028.2,213.7,310517,,,A*77
$GPGGA,225611.000,3725.2485,N,12208.6429,W,1,06,1.9,-22.2,M,,,,0000*07
$GPGSA,A,3,24,12,19,17,06,02,,,,,,,3.3,1.9,2.8*3F
$GPRMC,225611.000,A,3725.2485,N,12208.6429,W,028.0,213.3,310517,,,A*7F
$GPGGA,225612.000,3725.2417,N,12208.6480,W,1,06,1.9,-22.1,M,,,,0000*0F
$GPGSA,A,3,24,12,19,17,06,02,,,,,,,3.3,1.9,2.8*3F
$GPRMC,225612.000,A,3725.2417,N,12208.6480,W,028.0,213.0,310517,,,A*77
$GPGGA,225613.000,3725.2348,N,12208.6536,W,1,06,1.9,-22.6,M,,,,0000*08
$GPGSA,A,3,24,12,19,17,06,02,,,,,,,3.3,1.9,2.8*3F
$GPGSV,3,1,10,24,52,240,34,12,58,327,29,19,35,052,23,17,17,061,27*73
$GPGSV,3,2,10,06,57,063,28,02,65,179,29,25,17,309,,29,03,255,*76
$GPGSV,3,3,10,05,02,164,,32,00,311,*7E
$GPRMC,225613.000,A,3725.2348,N,12208.6536,W,028.3,213.1,310517,,,A*75
$GPGGA,225614.000,3725.2278,N,12208.6594,W,1,06,1.9,-23.3,M,,,,0000*01
$GPGSA,A,3,24,12,19,17,06,02,,,,,,,3.3,1.9,2.8*3F
$GPRMC,225614.000,A,3725.2278,N,12208.6594,W,028.8,213.4,310517,,,A*76
$GPGGA,225615.000,3725.2209,N,12208.6654,W,1,06,1.9,-23.4,M,,,,0000*0E
$GPGSA,A,3,24,12,19,17,06,02,,,,,,,3.3,1.9,2.8*3F
$GPRMC,225615.000,A,3725.2209,N,12208.6654,W,029.2,213.6,310517,,,A*77
$GPGGA,225616.000,3725.2138,N,12208.6716,W,1,06,1.9,-24.7,M,,,,0000*0F
$GPGSA,A,3,24,12,19,17,06,02,,,,,,,3.3,1.9,2.8*3F
$GPGSV,3,1,10,24,52,240,34,12,58,327,37,19,35,052,22,17,17,061,29*73
$GPGSV,3,2,10,06,57,063,27,02,65,179,31,25,17,309,,29,03,255,*70
$GPGSV,3,3,10,05,02,164,,32,00,311,*7E
$GPRMC,225616.000,A,3725.2138,N,12208.6716,W,029.5,213.6,310517,,,A*75
$GPGGA,225617.000,3725.2067,N,12208.6773,W,1,06,1.9,-24.9,M,,,,0000*08
$GPGSA,A,3,24,12,19,17,06,02,,,,,,,3.3,1.9,2.8*3F
$GPRMC,225617.000,A,3725.2067,N,12208.6773,W,029.6,213.6,310517,,,A*7F
$GPGGA,225618.000,3725.1998,N,12208.6833,W,1,06,1.9,-25.2,M,,,,0000*0C
$GPGSA,A,3,24,12,19,17,06,02,,,,,,,3.3,1.9,2.8*3F
$GPRMC,225618.000,A,3725.1998,N,12208.6833,W,029.5,213.5,310517,,,A*71
$GPGGA,225619.000,3725.1929,N,12208.6887,W,1,06,1.9,-24.7,M,,,,0000*0C
$GPGSA,A,3,24,12,19,17,06,02,,,,,,,3.3,1.9,2.8*3F
$GPGSV,3,1,10,24,52,240,34,12,58,327,37,19,35,052,22,17,17,061,29*73
$GPGSV,3,2,10,06,57,063,25,02,65,179,32,25,17,309,,29,03,255,*71
$GPGSV,3,3,10,05,02,164,,32,00,311,*7E
$GPRMC,225619.000,A,3725.1929,N,12208.6887,W,029.4,213.4,310517,,,A*75
$GPGGA,225620.000,3725.1865,N,12208.6945,W,1,06,1.9,-24.7,M,,,,0000*00
$GPGSA,A,3,24,12,19,17,06,02,,,,,,,3.3,1.9,2.8*3F
$GPRMC,225620.000,A,3725.1865,N,12208.6945,W,029.0,213.4,310517,,,A*7D
$GPGGA,225621.000,3725.1804,N,12208.7001,W,1,06,1.9,-24.8,M,,,,0000*01
$GPGSA,A,3,24,12,19,17,06,02,,,,,,,3.3,1.9,2.7*30
$GPRMC,225621.000,A,3725.1804,N,12208.7001,W,028.3,213.6,310517,,,A*73
$GPGGA,225622.000,3725.1738,N,12208.7056,W,1,06,1.9,-26.1,M,,,,0000*0B
$GPGSA,A,3,24,12,19,17,06,02,,,,,,,3.3,1.9,2.7*30
$GPGSV,3,1,10,24,52,240,33,12,58,327,38,19,35,052,21,17,17,061,28*79
$GPGSV,3,2,10,06,57,063,27,02,65,179,28,25,17,309,,29,03,255,*78
$GPGSV,3,3,10,05,02,164,,32,00,311,*7E
$GPRMC,225622.000,A,3725.1738,N,12208.7056,W,027.9,213.3,310517,,,A*72
$GPGGA,225623.000,3725.1674,N,12208.7108,W,1,06,1.9,-26.5,M,,,,0000*0D
$GPGSA,A,3,24,12,19,17,06,02,,,,,,,3.3,1.9,2.7*30
$GPRMC,225623.000,A,3725.1674,N,12208.7108,W,027.4,213.3,310517,,,A*7D
$GPGGA,225624.000,3725.1613,N,12208.7162,W,1,06,1.9,-27.4,M,,,,0000*07
$GPGSA,A,3,24,12,19,17,06,02,,,,,,,3.3,1.9,2.7*30
$GPRMC,225624.000,A,3725.1613,N,12208.7162,W,027.2,213.3,310517,,,A*71
$GPGGA,225625.000,3725.1549,N,12208.7215,W,1,06,1.9,-26.8,M,,,,0000*04
$GPGSA,A,3,24,12,19,17,06,02,,,,,,,3.3,1.9,2.7*30
$GPGSV,3,1,10,24,52,240,32,12,58,327,37,19,35,052,21,17,17,062,32*7F
$GPGSV,3,2,10,06,57,063,28,02,65,179,29,25,17,309,,29,03,255,*76
$GPGSV,3,3,10,05,02,164,,32,00,311,*7E
$GPRMC,225625.000,A,3725.1549,N,12208.7215,W,027.4,213.4,310517,,,A*7E
$GPGGA,225626.000,3725.1485,N,12208.7268,W,1,06,1.9,-27.4,M,,,,0000*01
$GPGSA,A,3,24,12,19,17,06,02,,,,,,,3.3,1.9,2.7*30
$GPRMC,225626.000,A,3725.1485,N,12208.7268,W,027.8,213.4,310517,,,A*7A
$GPGGA,225627.000,3725.1419,N,12208.7322,W,1,06,1.9,-27.2,M,,,,0000*0C
$GPGSA,A,3,24,12,19,17,06,02,,,,,,,3.3,1.9,2.7*30
$GPRMC,225627.000,A,3725.1419,N,12208.7322,W,028.1,213.3,310517,,,A*70
$GPGGA,225628.000,3725.1354,N,12208.7376,W,1,06,1.9,-27.5,M,,,,0000*0B
$GPGSA,A,3,24,12,19,17,06,02,,,,,,,3.3,1.9,2.7*30
$GPGSV,3,1,10,24,52,240,34,12,58,327,37,19,35,053,23,17,17,062,28*71
$GPGSV,3,2,10,06,57,063,26,02,65,179,30,25,17,309,,29,03,255,*70
$GPGSV,3,3,10,05,02,164,,32,00,311,*7E
$GPRMC,225628.000,A,3725.1354,N,12208.7376,W,028.0,213.6,310517,,,A*74
$GPGGA,225629.000,3725.1289,N,12208.7430,W,1,05,2.4,-28.2,M,,,,0000*0B
$GPGSA,A,3,12,19,17,06,02,,,,,,,,4.3,2.4,3.6*3F
$GPRMC,225629.000,A,3725.1289,N,12208.7430,W,028.0,213.5,310517,,,A*72
$GPGGA,225630.000,3725.1218,N,12208.7480,W,1,05,2.4,-28.6,M,,,,0000*04
$GPGSA,A,3,12,19,17,06,02,,,,,,,,4.3,2.4,3.6*3F
$GPRMC,225630.000,A,3725.1218,N,12208.7480,W,028.2,213.1,310517,,,A*7F
$GPGGA,225631.000,3725.1147,N,12208.7534,W,1,06,1.9,-28.4,M,,,,0000*0D
$GPGSA,A,3,24,12,19,17,06,02,,,,,,,3.3,1.9,2.7*30
$GPGSV,3,1,10,24,52,240,27,12,58,327,32,19,35,053,24,17,17,062,29*70
$GPGSV,3,2,10,06,57,063,29,02,65,179,31,25,17,309,,29,03,255,*7E
$GPGSV,3,3,10,05,02,164,,32,00,311,*7E
$GPRMC,225631.000,A,3725.1147,N,12208.7534,W,028.7,213.4,310517,,,A*79
$GPGGA,225632.000,3725.1079,N,12208.7591,W,1,05,2.4,-28.2,M,,,,0000*06
$GPGSA,A,3,12,19,17,06,02,,,,,,,,4.3,2.4,3.6*3F
$GPRMC,225632.000,A,3725.1079,N,12208.7591,W,029.0,213.7,310517,,,A*7C
$GPGGA,225633.000,3725.1011,N,12208.7653,W,1,05,1.9,-29.4,M,,,,0000*0D
$GPGSA,A,3,24,12,19,06,02,,,,,,,,5.1,1.9,4.8*3B
$GPRMC,225633.000,A,3725.1011,N,12208.7653,W,029.6,213.8,310517,,,A*77
$GPGGA,225634.000,3725.0938,N,12208.7714,W,1,06,1.9,-29.2,M,,,,0000*0E
$GPGSA,A,3,24,12,19,17,06,02,,,,,,,3.3,1.9,2.7*30
$GPGSV,3,1,10,24,52,240,28,12,58,327,28,19,35,053,22,17,17,062,25*7E
$GPGSV,3,2,10,06,57,063,27,02,65,179,28,25,18,309,,29,03,255,*77
$GPGSV,3,3,10,05,02,164,,32,00,311,*7E
$GPRMC,225634.000,A,3725.0938,N,12208.7714,W,030.3,214.1,310517,,,A*72
$GPGGA,225635.000,3725.0863,N,12208.7782,W,1,06,1.9,-29.5,M,,,,0000*08
$GPGSA,A,3,24,12,19,17,06,02,,,,,,,3.3,1.9,2.7*30
$GPRMC,225635.000,A,3725.0863,N,12208.7782,W,031.3,214.4,310517,,,A*77
$GPGGA,225636.000,3725.0790,N,12208.7845,W,1,06,1.9,-28.6,M,,,,0000*0E
$GPGSA,A,3,24,12,19,17,06,02,,,,,,,3.3,1.9,2.7*30
$GPRMC,225636.000,A,3725.0790,N,12208.7845,W,031.7,214.4,310517,,,A*77
$GPGGA,225637.000,3725.0713,N,12208.7906,W,1,06,1.9,-28.5,M,,,,0000*01
$GPGSA,A,3,24,12,19,17,06,02,,,,,,,3.3,1.9,2.7*30
$GPGSV,3,1,10,24,52,240,32,12,58,327,38,19,35,053,22,17,17,062,30*70
$GPGSV,3,2,10,06,57,063,27,02,65,179,28,25,18,309,,29,03,255,*77
$GPGSV,3,3,10,05,02,164,,32,00,311,*7E
$GPRMC,225637.000,A,3725.0713,N,12208.7906,W,031.9,214.2,310517,,,A*73
$GPGGA,225638.000,3725.0640,N,12208.7969,W,1,06,1.9,-26.8,M,,,,0000*03
$GPGSA,A,3,24,12,19,17,06,02,,,,,,,3.3,1.9,2.7*30
$GPRMC,225638.000,A,3725.0640,N,12208.7969,W,032.0,214.1,310517,,,A*7B
$GPGGA,225639.000,3725.0563,N,12208.8036,W,1,06,1.9,-28.2,M,,,,0000*08
$GPGSA,A,3,24,12,19,17,06,02,,,,,,,3.3,1.9,2.7*30
$GPRMC,225639.000,A,3725.0563,N,12208.8036,W,032.0,214.0,310517,,,A*75
$GPGGA,225640.000,3725.0491,N,12208.8091,W,1,06,1.9,-26.3,M,,,,0000*08
$GPGSA,A,3,24,12,19,17,06,02,,,,,,,3.3,1.9,2.7*30
$GPGSV,3,1,09,24,52,240,33,12,58,327,37,19,35,053,24,17,17,062,31*71
$GPGSV,3,2,09,06,57,063,26,02,65,179,30,25,18,309,,29,03,255,*77
$GPGSV,3,3,09,05,02,164,*44
$GPRMC,225640.000,A,3725.0491,N,12208.8091,W,031.8,213.6,310517,,,A*70
$GPGGA,225641.000,3725.0417,N,12208.8156,W,1,06,1.9,-26.6,M,,,,0000*08
$GPGSA,A,3,24,12,19,17,06,02,,,,,,,3.3,1.9,2.7*30
$GPRMC,225641.000,A,3725.0417,N,12208.8156,W,031.8,213.7,310517,,,A*74
$GPGGA,225642.000,3725.0340,N,12208.8218,W,1,06,1.9,-27.1,M,,,,0000*01
$GPGSA,A,3,24,12,19,17,06,02,,,,,,,3.3,1.9,2.7*30
$GPRMC,225642.000,A,3725.0340,N,12208.8218,W,032.0,213.5,310517,,,A*72
$GPGGA,225643.000,3725.0265,N,12208.8277,W,1,06,1.9,-24.7,M,,,,0000*0A
