$IIRMC,171902,A,3740.422,N,12221.004,W,06.6,191,090710,15,E,A*12
$IIVHW,,,227,M,06.6,N,,*63
$IIVLW,00017,N,016.9,N*5B
$IIVWR,046,R,13.2,N,,,,*63
$IIDPT,008.5,-1.0,*4D
$IIGLL,3740.422,N,12221.004,W,171902,A,A*4C
$IIHDG,227,,,15,E*11
$IIMTW,+16.5,C*3A
$IIMWV,047,R,13.6,N,A*14
$IIMWV,076,T,09.7,N,A*1A
$IIRMC,171903,A,3740.421,N,12221.004,W,06.6,191,090710,15,E,A*10
$IIVHW,,,227,M,06.6,N,,*63
$IIVLW,00017,N,016.9,N*5B
$IIVWR,047,R,13.6,N,,,,*66
$IIDPT,008.5,-1.0,*4D
$IIGLL,3740.419,N,12221.004,W,171904,A,A*42
$IIHDG,227,,,15,E*11
$IIMTW,+16.5,C*3A
$IIMWV,047,R,13.5,N,A*17
$IIMWV,076,T,10.2,N,A*17
$IIRMB,A,1.42,R,,OPMRNA  ,,,,,001.50,248,03.7,V,A*71
$IIRMC,171904,A,3740.419,N,12221.004,W,06.7,192,090710,15,E,A*1E
$IIVHW,,,227,M,06.6,N,,*63
$IIVLW,00017,N,016.9,N*5B
$IIVWR,047,R,13.7,N,,,,*67
$IIDPT,008.9,-1.0,*41
$IIGLL,3740.418,N,12221.004,W,171905,A,A*42
$IIHDG,227,,,15,E*11
$IIMTW,+16.5,C*3A
$IIMWV,047,R,13.7,N,A*15
$IIMWV,076,T,10.0,N,A*15
$IIRMC,171905,A,3740.418,N,12221.004,W,06.7,192,090710,15,E,A*1E
$IIVHW,,,227,M,06.7,N,,*62
$IIVLW,00017,N,016.9,N*5B
$IIVWR,046,R,13.5,N,,,,*64
$IIDPT,011.6,-1.0,*46
$IIGLL,3740.416,N,12221.005,W,171906,A,A*4E
$IIHDG,227,,,15,E*11
$IIMTW,+16.5,C*3A
$IIMWV,046,R,13.5,N,A*16
$IIMWV,075,T,10.3,N,A*15
$IIRMB,A,1.42,R,,OPMRNA  ,,,,,001.50,248,03.7,V,A*71
$IIRMC,171907,A,3740.414,N,12221.005,W,06.7,192,090710,15,E,A*11
$IIVHW,,,227,M,06.7,N,,*62
$IIVLW,00017,N,016.9,N*5B
$IIVWR,046,R,13.3,N,,,,*62
$IIDPT,012.1,-1.0,*42
$IIGLL,3740.414,N,12221.005,W,171907,A,A*4D
$IIHDG,227,,,15,E*11
$IIMTW,+16.5,C*3A
$IIMWV,046,R,13.3,N,A*10
$IIMWV,076,T,09.7,N,A*1A
$IIRMB,A,1.42,R,,OPMRNA  ,,,,,001.50,248,03.7,V,A*71
$IIRMC,171908,A,3740.413,N,12221.005,W,06.6,192,090710,15,E,A*18
$IIVHW,,,228,M,06.7,N,,*6D
$IIVLW,00017,N,016.9,N*5B
$IIVWR,045,R,13.3,N,,,,*61
$IIDPT,012.1,-1.0,*42
$IIGLL,3740.413,N,12221.005,W,171908,A,A*45
$IIHDG,228,,,15,E*1E
$IIMTW,+16.5,C*3A
$IIMWV,045,R,13.3,N,A*13
$IIMWV,074,T,09.7,N,A*18
$IIRMC,171909,A,3740.411,N,12221.007,W,06.6,192,090710,15,E,A*19
$IIVHW,,,228,M,06.6,N,,*6C
$IIVLW,00017,N,016.9,N*5B
$IIVWR,045,R,13.3,N,,,,*61
$IIDPT,056.0,-1.0,*43
$IIGLL,3740.408,N,12221.008,W,171910,A,A*4B
$IIHDG,228,,,15,E*1E
$IIMTW,+16.5,C*3A
$IIMWV,046,R,13.3,N,A*10
$IIMWV,074,T,09.7,N,A*18
$IIRMB,A,1.42,R,,OPMRNA  ,,,,,001.50,249,03.8,V,A*7F
$IIRMC,171910,A,3740.408,N,12221.008,W,06.6,193,090710,15,E,A*17
$IIVHW,,,228,M,06.6,N,,*6C
$IIVLW,00017,N,016.9,N*5B
$IIVWR,047,R,13.8,N,,,,*68
$IIDPT,037.3,-1.0,*47
$IIGLL,3740.406,N,12221.009,W,171911,A,A*45
$IIHDG,228,,,15,E*1E
$IIMTW,+16.5,C*3A
$IIMWV,047,R,13.8,N,A*1A
$IIMWV,076,T,09.7,N,A*1A
$IIRMC,171911,A,3740.406,N,12221.009,W,06.6,193,090710,15,E,A*19
$IIVHW,,,228,M,06.5,N,,*6F
$IIVLW,00017,N,016.9,N*5B
$IIVWR,047,R,13.5,N,,,,*65
$IIDPT,056.0,-1.0,*43
$IIGLL,3740.403,N,12221.009,W,171912,A,A*43
$IIHDG,228,,,15,E*1E
$IIMTW,+16.5,C*3A
$IIMWV,047,R,13.5,N,A*17
$IIMWV,075,T,10.3,N,A*15
$IIRMB,A,1.42,R,,OPMRNA  ,,,,,001.50,249,03.7,V,A*70
$IIRMC,171913,A,3740.402,N,12221.009,W,06.7,193,090710,15,E,A*1E
$IIVHW,,,227,M,06.5,N,,*60
$IIVLW,00017,N,016.9,N*5B
$IIVWR,045,R,13.4,N,,,,*66
$IIDPT,043.7,-1.0,*40
$IIGLL,3740.402,N,12221.009,W,171913,A,A*43
$IIHDG,227,,,15,E*11
$IIMTW,+16.5,C*3A
$IIMWV,045,R,13.4,N,A*14
$IIMWV,073,T,09.9,N,A*11
$IIRMB,A,1.42,R,,OPMRNA  ,,,,,001.50,249,03.6,V,A*71
$IIRMC,171914,A,3740.399,N,12221.010,W,06.5,193,090710,15,E,A*16
$IIVHW,,,226,M,06.5,N,,*61
$IIVLW,00017,N,016.9,N*5B
$IIVWR,045,R,13.3,N,,,,*61
$IIDPT,011.2,-1.0,*42
$IIGLL,3740.399,N,12221.010,W,171914,A,A*49
$IIHDG,226,,,15,E*10
$IIMTW,+16.5,C*3A
$IIMWV,044,R,12.7,N,A*17
$IIMWV,073,T,09.8,N,A*10
$IIRMC,171915,A,3740.398,N,12221.011,W,06.5,193,090710,15,E,A*17
$IIVHW,,,226,M,06.5,N,,*61
$IIVLW,00017,N,016.9,N*5B
$IIVWR,044,R,12.7,N,,,,*65
$IIDPT,011.2,-1.0,*42
$IIGLL,3740.394,N,12221.011,W,171916,A,A*47
$IIHDG,227,,,15,E*11
$IIMTW,+16.5,C*3A
$IIMWV,045,R,12.4,N,A*15
$IIMWV,074,T,09.0,N,A*1F
$IIRMB,A,1.42,R,,OPMRNA  ,,,,,001.50,249,03.6,V,A*71
$IIRMC,171916,A,3740.394,N,12221.011,W,06.5,192,090710,15,E,A*19
$IIVHW,,,227,M,06.6,N,,*63
$IIVLW,00017,N,016.9,N*5B
$IIVWR,046,R,12.3,N,,,,*63
$IIDPT,010.0,-1.0,*41
$IIGLL,3740.393,N,12221.012,W,171917,A,A*42
$IIHDG,227,,,15,E*11
$IIMTW,+16.5,C*3A
$IIMWV,046,R,12.3,N,A*11
$IIMWV,076,T,09.0,N,A*1D
$IIRMC,171917,A,3740.393,N,12221.012,W,06.5,192,090710,15,E,A*1C
$IIVHW,,,228,M,06.6,N,,*6C
$IIVLW,00017,N,016.9,N*5B
$IIVWR,047,R,11.7,N,,,,*65
$IIDPT,008.1,-1.0,*49
$IIGLL,3740.391,N,12221.012,W,171918,A,A*4F
$IIHDG,228,,,15,E*1E
$IIMTW,+16.5,C*3A
$IIMWV,047,R,11.7,N,A*17
$IIMWV,078,T,08.9,N,A*1B
$IIRMB,A,1.42,R,,OPMRNA  ,,,,,001.50,249,03.6,V,A*71
$IIRMC,171919,A,3740.390,N,12221.014,W,06.6,192,090710,15,E,A*14
$IIVHW,,,227,M,06.5,N,,*60
$IIVLW,00017,N,016.9,N*5B
$IIVWR,047,R,12.0,N,,,,*61
$IIDPT,008.5,-1.0,*4D
$IIGLL,3740.390,N,12221.014,W,171919,A,A*49
$IIHDG,227,,,15,E*11
$IIMTW,+16.5,C*3A
$IIMWV,047,R,12.0,N,A*13
$IIMWV,080,T,08.8,N,A*1D
$IIRMB,A,1.41,R,,OPMRNA  ,,,,,001.50,249,03.6,V,A*72
$IIRMC,171920,A,3740.387,N,12221.015,W,06.6,192,090710,15,E,A*19
$IIVHW,,,227,M,06.6,N,,*63
$IIVLW,00017,N,016.9,N*5B
$IIVWR,048,R,11.5,N,,,,*68
$IIDPT,008.5,-1.0,*4D
$IIGLL,3740.387,N,12221.015,W,171920,A,A*44
$IIHDG,227,,,15,E*11
$IIMTW,+16.5,C*3A
$IIMWV,049,R,11.9,N,A*17
$IIMWV,083,T,08.5,N,A*13
$IIRMC,171921,A,3740.387,N,12221.015,W,06.6,192,090710,15,E,A*18
$IIVHW,,,227,M,06.6,N,,*63
$IIVLW,00017,N,016.9,N*5B
$IIVWR,049,R,11.9,N,,,,*65
$IIDPT,008.7,-1.0,*4F
$IIGLL,3740.385,N,12221.015,W,171922,A,A*44
$IIHDG,227,,,15,E*11
$IIMTW,+16.5,C*3A
$IIMWV,049,R,11.6,N,A*18
$IIMWV,083,T,08.9,N,A*1F
$IIRMB,A,1.41,R,,OPMRNA  ,,,,,001.50,249,03.6,V,A*72
$IIRMC,171922,A,3740.385,N,12221.015,W,06.5,193,090710,15,E,A*1B
$IIVHW,,,227,M,06.6,N,,*63
$IIVLW,00017,N,016.9,N*5B
$IIVWR,048,R,11.5,N,,,,*68
$IIDPT,008.3,-1.0,*4B
$IIGLL,3740.383,N,12221.015,W,171923,A,A*43
$IIHDG,226,,,15,E*10
$IIMTW,+16.5,C*3A
$IIMWV,048,R,11.5,N,A*1A
$IIMWV,084,T,08.7,N,A*16
$IIRMC,171923,A,3740.383,N,12221.015,W,06.5,193,090710,15,E,A*1C
$IIVHW,,,226,M,06.6,N,,*62
$IIVLW,00017,N,016.9,N*5B
$IIVWR,048,R,11.4,N,,,,*69
$IIDPT,007.9,-1.0,*4E
$IIGLL,3740.382,N,12221.015,W,171924,A,A*45
$IIHDG,226,,,15,E*10
$IIMTW,+16.5,C*3A
$IIMWV,048,R,11.4,N,A*1B
$IIMWV,083,T,08.5,N,A*13
$IIRMB,A,1.41,R,,OPMRNA  ,,,,,001.50,249,03.6,V,A*72
$IIRMC,171925,A,3740.380,N,12221.015,W,06.5,193,090710,15,E,A*19
$IIVHW,,,226,M,06.6,N,,*62
$IIVLW,00017,N,017.0,N*53
$IIVWR,047,R,11.4,N,,,,*66
$IIDPT,008.0,-1.0,*48
$IIGLL,3740.380,N,12221.015,W,171925,A,A*46
$IIHDG,226,,,15,E*10
$IIMTW,+16.5,C*3A
$IIMWV,047,R,11.4,N,A*14
$IIMWV,082,T,08.3,N,A*14
$IIRMB,A,1.41,R,,OPMRNA  ,,,,,001.50,249,03.5,V,A*71
$IIRMC,171926,A,3740.379,N,12221.017,W,06.6,192,090710,15,E,A*1C
$IIVHW,,,225,M,06.6,N,,*61
$IIVLW,00017,N,017.0,N*53
$IIVWR,046,R,11.6,N,,,,*65
$IIDPT,010.3,-1.0,*42
$IIGLL,3740.379,N,12221.017,W,171926,A,A*41
$IIHDG,226,,,15,E*10
$IIMTW,+16.5,C*3A
$IIMWV,045,R,11.5,N,A*17
$IIMWV,081,T,08.4,N,A*10
$IIRMC,171927,A,3740.378,N,12221.017,W,06.6,192,090710,15,E,A*1C
$IIVHW,,,226,M,06.5,N,,*61
$IIVLW,00017,N,017.0,N*53
$IIVWR,045,R,11.5,N,,,,*65
$IIDPT,009.2,-1.0,*4B
$IIGLL,3740.376,N,12221.018,W,171928,A,A*4F
$IIHDG,226,,,15,E*10
$IIMTW,+16.5,C*3A
$IIMWV,042,R,11.3,N,A*16
$IIMWV,079,T,08.2,N,A*11
$IIRMC,171928,A,3740.376,N,12221.018,W,06.4,192,090710,15,E,A*10
$IIVHW,,,226,M,06.5,N,,*61
$IIVLW,00017,N,017.0,N*53
$IIVWR,042,R,11.3,N,,,,*64
$IIDPT,054.0,-1.0,*41
$IIGLL,3740.375,N,12221.017,W,171929,A,A*42
$IIHDG,227,,,15,E*11
$IIMTW,+16.5,C*3A
$IIMWV,044,R,11.2,N,A*11
$IIMWV,077,T,07.6,N,A*14
$IIRMB,A,1.41,R,,OPMRNA  ,,,,,001.50,250,03.4,V,A*78
$IIRMC,171929,A,3740.375,N,12221.017,W,06.4,192,090710,15,E,A*1D
$IIVHW,,,228,M,06.5,N,,*6F
$IIVLW,00017,N,017.0,N*53
$IIVWR,043,R,10.7,N,,,,*60
$IIDPT,047.8,-1.0,*4B
$IIGLL,3740.373,N,12221.018,W,171930,A,A*43
$IIHDG,228,,,15,E*1E
$IIMTW,+16.5,C*3A
$IIMWV,043,R,10.7,N,A*12
$IIMWV,080,T,07.8,N,A*12
$IIRMC,171931,A,3740.371,N,12221.019,W,06.4,192,090710,15,E,A*1E
$IIVHW,,,229,M,06.5,N,,*6E
$IIVLW,00017,N,017.0,N*53
$IIVWR,043,R,11.0,N,,,,*66
$IIDPT,053.8,-1.0,*4E
$IIGLL,3740.371,N,12221.019,W,171931,A,A*41
$IIHDG,229,,,15,E*1F
$IIMTW,+16.5,C*3A
$IIMWV,043,R,11.0,N,A*14
$IIMWV,079,T,07.5,N,A*19
$IIRMB,A,1.41,R,,OPMRNA  ,,,,,001.50,250,03.4,V,A*78
$IIRMC,171932,A,3740.369,N,12221.019,W,06.3,192,090710,15,E,A*13
$IIVHW,,,229,M,06.6,N,,*6D
$IIVLW,00017,N,017.0,N*53
$IIVWR,043,R,10.7,N,,,,*60
$IIDPT,023.1,-1.0,*40
$IIGLL,3740.369,N,12221.019,W,171932,A,A*4B
$IIHDG,228,,,15,E*1E
$IIMTW,+16.5,C*3A
$IIMWV,043,R,10.2,N,A*17
$IIMWV,081,T,07.2,N,A*19
$IIRMB,A,1.41,R,,OPMRNA  ,,,,,001.50,250,03.4,V,A*78
$IIRMC,171933,A,3740.368,N,12221.019,W,06.3,192,090710,15,E,A*13
$IIVHW,,,228,M,06.5,N,,*6F
$IIVLW,00017,N,017.0,N*53
$IIVWR,043,R,10.2,N,,,,*65
$IIDPT,023.1,-1.0,*40
$IIGLL,3740.366,N,12221.021,W,171934,A,A*49
$IIHDG,227,,,15,E*11
$IIMTW,+16.5,C*3A
$IIMWV,045,R,10.3,N,A*10
$IIMWV,083,T,06.9,N,A*11
$IIRMC,171934,A,3740.366,N,12221.021,W,06.3,192,090710,15,E,A*11
$IIVHW,,,227,M,06.5,N,,*60
$IIVLW,00017,N,017.0,N*53
$IIVWR,048,R,10.4,N,,,,*68
$IIDPT,023.1,-1.0,*40
$IIGLL,3740.365,N,12221.021,W,171935,A,A*4B
$IIHDG,227,,,15,E*11
$IIMTW,+16.5,C*3A
$IIMWV,048,R,10.4,N,A*1A
$IIMWV,085,T,07.3,N,A*1C
$IIRMB,A,1.41,R,,OPMRNA  ,,,,,001.50,250,03.4,V,A*78
$IIRMC,171936,A,3740.362,N,12221.021,W,06.4,193,090710,15,E,A*11
$IIVHW,,,226,M,06.5,N,,*61
$IIVLW,00017,N,017.0,N*53
$IIVWR,049,R,10.5,N,,,,*68
$IIDPT,007.9,-1.0,*4E
$IIGLL,3740.362,N,12221.021,W,171936,A,A*4F
$IIHDG,226,,,15,E*10
$IIMTW,+16.5,C*3A
$IIMWV,049,R,10.5,N,A*1A
$IIMWV,087,T,07.8,N,A*15
$IIRMB,A,1.41,R,,OPMRNA  ,,,,,001.50,250,03.5,V,A*79
$IIRMC,171937,A,3740.361,N,12221.021,W,06.4,193,090710,15,E,A*13
$IIVHW,,,225,M,06.5,N,,*62
$IIVLW,00017,N,017.0,N*53
$IIVWR,048,R,11.8,N,,,,*65
$IIDPT,007.9,-1.0,*4E
$IIGLL,3740.361,N,12221.021,W,171937,A,A*4D
$IIHDG,227,,,15,E*11
$IIMTW,+16.5,C*3A
$IIMWV,049,R,12.6,N,A*1B
$IIMWV,081,T,08.8,N,A*1C
$IIRMC,171938,A,3740.359,N,12221.021,W,06.4,193,090710,15,E,A*17
$IIVHW,,,227,M,06.5,N,,*60
$IIVLW,00017,N,017.0,N*53
$IIVWR,049,R,12.6,N,,,,*69
$IIDPT,007.9,-1.0,*4E
$IIGLL,3740.358,N,12221.020,W,171939,A,A*48
$IIHDG,228,,,15,E*1E
$IIMTW,+17.0,C*3E
$IIMWV,047,R,13.3,N,A*11
$IIMWV,080,T,09.5,N,A*11
$IIRMB,A,1.41,R,,OPMRNA  ,,,,,001.50,250,03.5,V,A*79
$IIRMC,171939,A,3740.358,N,12221.020,W,06.4,193,090710,15,E,A*16
$IIVHW,,,228,M,06.6,N,,*6C
$IIVLW,00017,N,017.0,N*53
$IIVWR,047,R,13.6,N,,,,*66
$IIDPT,007.9,-1.0,*4E
$IIGLL,3740.356,N,12221.021,W,171940,A,A*49
$IIHDG,229,,,15,E*1F
$IIMTW,+17.0,C*3E
$IIMWV,047,R,13.6,N,A*14
$IIMWV,076,T,09.9,N,A*14
$IIRMC,171940,A,3740.356,N,12221.021,W,06.5,192,090710,15,E,A*17
$IIVHW,,,229,M,06.7,N,,*6C
$IIVLW,00017,N,017.0,N*53
$IIVWR,046,R,13.5,N,,,,*64
$IIDPT,007.9,-1.0,*4E
$IIGLL,3740.355,N,12221.021,W,171941,A,A*4B
$IIHDG,229,,,15,E*1F
$IIMTW,+17.0,C*3E
$IIMWV,046,R,13.5,N,A*16
$IIMWV,076,T,10.2,N,A*17
$IIRMB,A,1.41,R,,OPMRNA  ,,,,,001.50,250,03.4,V,A*78
$IIRMC,171942,A,3740.352,N,12221.022,W,06.4,193,090710,15,E,A*12
$IIVHW,,,229,M,06.7,N,,*6C
$IIVLW,00017,N,017.0,N*53
$IIVWR,049,R,13.6,N,,,,*68
$IIDPT,007.9,-1.0,*4E
$IIGLL,3740.352,N,12221.022,W,171942,A,A*4C
$IIHDG,229,,,15,E*1F
$IIMTW,+17.0,C*3E
$IIMWV,049,R,13.6,N,A*1A
$IIMWV,078,T,10.4,N,A*1F
$IIRMB,A,1.41,R,,OPMRNA  ,,,,,001.50,250,03.5,V,A*79
$IIRMC,171943,A,3740.351,N,12221.022,W,06.4,193,090710,15,E,A*10
$IIVHW,,,230,M,06.7,N,,*64
$IIVLW,00017,N,017.0,N*53
$IIVWR,048,R,14.3,N,,,,*6B
$IIDPT,007.9,-1.0,*4E
$IIGLL,3740.351,N,12221.022,W,171943,A,A*4E
$IIHDG,230,,,15,E*17
$IIMTW,+17.0,C*3E
$IIMWV,050,R,14.2,N,A*11
$IIMWV,075,T,10.8,N,A*1E
$IIRMC,171944,A,3740.348,N,12221.023,W,06.4,194,090710,15,E,A*19
$IIVHW,,,230,M,06.7,N,,*64
$IIVLW,00017,N,017.0,N*53
$IIVWR,050,R,14.2,N,,,,*63
$IIDPT,008.5,-1.0,*4D
$IIGLL,3740.347,N,12221.023,W,171945,A,A*4E
$IIHDG,229,,,15,E*1F
$IIMTW,+17.0,C*3E
$IIMWV,050,R,14.1,N,A*12
$IIMWV,078,T,11.1,N,A*1B
$IIRMC,171945,A,3740.347,N,12221.023,W,06.4,194,090710,15,E,A*17
$IIVHW,,,229,M,06.7,N,,*6C
$IIVLW,00017,N,017.0,N*53
$IIVWR,050,R,14.1,N,,,,*60
$IIDPT,008.4,-1.0,*4C
$IIGLL,3740.345,N,12221.024,W,171946,A,A*48
$IIHDG,228,,,15,E*1E
$IIMTW,+17.0,C*3E
$IIMWV,052,R,13.7,N,A*11
$IIMWV,078,T,11.0,N,A*1A
$IIRMC,171946,A,3740.345,N,12221.024,W,06.4,194,090710,15,E,A*11
$IIVHW,,,228,M,06.7,N,,*6D
$IIVLW,00017,N,017.0,N*53
$IIVWR,052,R,13.4,N,,,,*60
$IIDPT,009.0,-1.0,*49
$IIGLL,3740.343,N,12221.025,W,171947,A,A*4E
$IIHDG,228,,,15,E*1E
$IIMTW,+17.0,C*3E
$IIMWV,052,R,13.4,N,A*12
$IIMWV,081,T,10.9,N,A*14
$IIRMB,A,1.41,R,,OPMRNA  ,,,,,001.50,251,03.5,V,A*78
$IIRMC,171948,A,3740.342,N,12221.025,W,06.6,193,090710,15,E,A*1C
$IIVHW,,,228,M,06.8,N,,*62
$IIVLW,00017,N,017.0,N*53
$IIVWR,054,R,13.7,N,,,,*65
$IIDPT,008.9,-1.0,*41
$IIGLL,3740.342,N,12221.025,W,171948,A,A*40
$IIHDG,228,,,15,E*1E
$IIMTW,+17.0,C*3E
$IIMWV,054,R,13.7,N,A*17
$IIMWV,084,T,11.0,N,A*19
$IIRMB,A,1.41,R,,OPMRNA  ,,,,,001.50,251,03.6,V,A*7B
$IIRMC,171949,A,3740.341,N,12221.025,W,06.6,193,090710,15,E,A*1E
$IIVHW,,,228,M,06.8,N,,*62
$IIVLW,00017,N,017.0,N*53
$IIVWR,053,R,13.9,N,,,,*6C
$IIDPT,044.8,-1.0,*48
$IIGLL,3740.341,N,12221.025,W,171949,A,A*42
$IIHDG,228,,,15,E*1E
$IIMTW,+17.0,C*3E
$IIMWV,050,R,14.1,N,A*12
$IIMWV,082,T,11.2,N,A*1D
$IIRMC,171950,A,3740.339,N,12221.026,W,06.6,193,090710,15,E,A*1A
$IIVHW,,,228,M,06.8,N,,*62
$IIVLW,00017,N,017.0,N*53
$IIVWR,050,R,14.1,N,,,,*60
$IIDPT,008.9,-1.0,*41
$IIGLL,3740.337,N,12221.027,W,171951,A,A*48
$IIHDG,229,,,15,E*1F
$IIMTW,+17.0,C*3E
$IIMWV,049,R,14.2,N,A*19
$IIMWV,078,T,11.0,N,A*1A
$IIRMB,A,1.41,R,,OPMRNA  ,,,,,001.50,251,03.6,V,A*7B
$IIRMC,171951,A,3740.337,N,12221.027,W,06.6,193,090710,15,E,A*14
$IIVHW,,,229,M,06.8,N,,*63
$IIVLW,00017,N,017.0,N*53
$IIVWR,047,R,13.7,N,,,,*67
$IIDPT,020.0,-1.0,*42
$IIGLL,3740.335,N,12221.027,W,171952,A,A*49
$IIHDG,229,,,15,E*1F
$IIMTW,+17.0,C*3E
$IIMWV,047,R,13.7,N,A*15
$IIMWV,077,T,10.8,N,A*1C
$IIRMC,171952,A,3740.335,N,12221.027,W,06.6,193,090710,15,E,A*15
$IIVHW,,,230,M,06.7,N,,*64
$IIVLW,00017,N,017.0,N*53
$IIVWR,049,R,13.8,N,,,,*66
$IIDPT,020.0,-1.0,*42
$IIGLL,3740.333,N,12221.028,W,171953,A,A*41
$IIHDG,230,,,15,E*17
$IIMTW,+17.0,C*3E
$IIMWV,049,R,13.8,N,A*14
$IIMWV,076,T,10.3,N,A*16
$IIRMB,A,1.41,R,,OPMRNA  ,,,,,001.50,251,03.5,V,A*78
$IIRMC,171954,A,3740.330,N,12221.029,W,06.6,193,090710,15,E,A*18
$IIVHW,,,230,M,06.7,N,,*64
$IIVLW,00017,N,017.0,N*53
$IIVWR,050,R,13.9,N,,,,*6F
$IIDPT,020.0,-1.0,*42
$IIGLL,3740.330,N,12221.029,W,171954,A,A*44
$IIHDG,230,,,15,E*17
$IIMTW,+17.0,C*3E
$IIMWV,050,R,13.9,N,A*1D
$IIMWV,079,T,10.8,N,A*12
$IIRMB,A,1.40,R,,OPMRNA  ,,,,,001.50,251,03.5,V,A*79
$IIRMC,171955,A,3740.329,N,12221.030,W,06.6,193,090710,15,E,A*19
$IIVHW,,,229,M,06.7,N,,*6C
$IIVLW,00017,N,017.0,N*53
$IIVWR,051,R,13.5,N,,,,*62
$IIDPT,009.6,-1.0,*4F
$IIGLL,3740.329,N,12221.030,W,171955,A,A*45
$IIHDG,229,,,15,E*1F
$IIMTW,+17.0,C*3E
$IIMWV,050,R,13.3,N,A*17
$IIMWV,081,T,10.6,N,A*1B
$IIRMC,171956,A,3740.327,N,12221.030,W,06.6,194,090710,15,E,A*13
$IIVHW,,,229,M,06.7,N,,*6C
$IIVLW,00017,N,017.0,N*53
$IIVWR,050,R,13.3,N,,,,*65
$IIDPT,008.6,-1.0,*4E
$IIGLL,3740.325,N,12221.030,W,171957,A,A*4B
$IIHDG,229,,,15,E*1F
$IIMTW,+17.0,C*3E
$IIMWV,050,R,13.3,N,A*17
$IIMWV,081,T,10.3,N,A*1E
$IIRMB,A,1.40,R,,OPMRNA  ,,,,,001.50,251,03.6,V,A*7A
$IIRMC,171957,A,3740.325,N,12221.030,W,06.6,194,090710,15,E,A*10
$IIVHW,,,229,M,06.7,N,,*6C
$IIVLW,00017,N,017.0,N*53
$IIVWR,050,R,13.6,N,,,,*60
$IIDPT,007.7,-1.0,*40
$IIGLL,3740.323,N,12221.031,W,171958,A,A*43
$IIHDG,228,,,15,E*1E
$IIMTW,+17.0,C*3E
$IIMWV,050,R,13.6,N,A*12
$IIMWV,081,T,10.3,N,A*1E
$IIRMC,171958,A,3740.323,N,12221.031,W,06.6,194,090710,15,E,A*18
$IIVHW,,,229,M,06.8,N,,*63
$IIVLW,00017,N,017.0,N*53
$IIVWR,050,R,13.0,N,,,,*66
$IIDPT,007.9,-1.0,*4E
$IIGLL,3740.321,N,12221.032,W,171959,A,A*43
$IIHDG,229,,,15,E*1F
$IIMTW,+17.0,C*3E
$IIMWV,050,R,13.0,N,A*14
$IIMWV,080,T,10.5,N,A*19
$IIRMC,172000,A,3740.320,N,12221.033,W,06.5,194,090710,15,E,A*1D
$IIVHW,,,229,M,06.8,N,,*63
$IIVLW,00017,N,017.0,N*53
$IIVWR,049,R,13.4,N,,,,*6A
$IIDPT,007.7,-1.0,*40
$IIGLL,3740.320,N,12221.033,W,172000,A,A*45
$IIHDG,229,,,15,E*1F
$IIMTW,+17.0,C*3E
$IIMWV,049,R,13.4,N,A*18
$IIMWV,079,T,10.1,N,A*1B
$IIRMB,A,1.40,R,,OPMRNA  ,,,,,001.50,251,03.5,V,A*79
$IIRMC,172001,A,3740.319,N,12221.033,W,06.5,194,090710,15,E,A*16
$IIVHW,,,229,M,06.8,N,,*63
$IIVLW,00017,N,017.0,N*53
$IIVWR,049,R,12.9,N,,,,*66
$IIDPT,008.0,-1.0,*48
$IIGLL,3740.319,N,12221.033,W,172001,A,A*4E
$IIHDG,229,,,15,E*1F
$IIMTW,+17.0,C*3E
$IIMWV,049,R,12.6,N,A*1B
$IIMWV,081,T,09.7,N,A*12
$IIRMC,172002,A,3740.316,N,12221.034,W,06.5,194,090710,15,E,A*1D
$IIVHW,,,229,M,06.8,N,,*63
$IIVLW,00017,N,017.0,N*53
$IIVWR,049,R,12.6,N,,,,*69
$IIDPT,010.3,-1.0,*42
$IIGLL,3740.315,N,12221.034,W,172003,A,A*47
$IIHDG,229,,,15,E*1F
$IIMTW,+17.0,C*3E
$IIMWV,049,R,12.8,N,A*15
$IIMWV,081,T,09.5,N,A*10
$IIRMB,A,1.40,R,,OPMRNA  ,,,,,001.50,252,03.5,V,A*7A
$IIRMC,172003,A,3740.315,N,12221.034,W,06.5,194,090710,15,E,A*1F
$IIVHW,,,229,M,06.7,N,,*6C
$IIVLW,00017,N,017.0,N*53
$IIVWR,049,R,13.0,N,,,,*6E
$IIDPT,008.1,-1.0,*49
$IIGLL,3740.314,N,12221.035,W,172004,A,A*40
$IIHDG,230,,,15,E*17
$IIMTW,+17.0,C*3E
$IIMWV,049,R,13.0,N,A*1C
$IIMWV,081,T,09.7,N,A*12
$IIRMC,172004,A,3740.314,N,12221.035,W,06.5,194,090710,15,E,A*18
$IIVHW,,,229,M,06.7,N,,*6C
$IIVLW,00017,N,017.0,N*53
$IIVWR,050,R,12.7,N,,,,*60
$IIDPT,008.2,-1.0,*4A
$IIGLL,3740.312,N,12221.035,W,172005,A,A*47
$IIHDG,229,,,15,E*1F
$IIMTW,+17.0,C*3E
$IIMWV,050,R,12.7,N,A*12
$IIMWV,080,T,09.8,N,A*1C
$IIRMB,A,1.40,R,,OPMRNA  ,,,,,001.50,252,03.5,V,A*7A
$IIRMC,172006,A,3740.311,N,12221.036,W,06.5,194,090710,15,E,A*1C
$IIVHW,,,229,M,06.7,N,,*6C
$IIVLW,00017,N,017.0,N*53
$IIVWR,050,R,12.5,N,,,,*62
$IIDPT,008.2,-1.0,*4A
$IIGLL,3740.311,N,12221.036,W,172006,A,A*44
$IIHDG,229,,,15,E*1F
$IIMTW,+17.0,C*3E
$IIMWV,050,R,12.5,N,A*10
$IIMWV,082,T,09.6,N,A*10
$IIRMB,A,1.40,R,,OPMRNA  ,,,,,001.50,252,03.5,V,A*7A
$IIRMC,172007,A,3740.309,N,12221.036,W,06.5,194,090710,15,E,A*14
$IIVHW,,,229,M,06.7,N,,*6C
$IIVLW,00017,N,017.0,N*53
$IIVWR,050,R,12.8,N,,,,*6F
$IIDPT,008.2,-1.0,*4A
$IIGLL,3740.309,N,12221.036,W,172007,A,A*4C
$IIHDG,229,,,15,E*1F
$IIMTW,+17.0,C*3E
$IIMWV,052,R,12.4,N,A*13
$IIMWV,084,T,09.8,N,A*18
$IIRMB,A,1.40,R,,OPMRNA  ,,,,,001.50,252,03.7,V,A*78
$IIRMC,172009,A,3740.305,N,12221.037,W,06.6,194,090710,15,E,A*14
$IIVHW,,,229,M,06.7,N,,*6C
$IIVLW,00017,N,017.0,N*53
$IIVWR,052,R,12.4,N,,,,*61
$IIDPT,048.8,-1.0,*44
$IIGLL,3740.303,N,12221.038,W,172010,A,A*4E
$IIHDG,230,,,15,E*17
$IIMTW,+17.0,C*3E
$IIMWV,051,R,12.3,N,A*17
$IIMWV,085,T,09.7,N,A*16
$IIRMC,172010,A,3740.303,N,12221.038,W,06.7,195,090710,15,E,A*15
$IIVHW,,,230,M,06.7,N,,*64
$IIVLW,00017,N,017.0,N*53
$IIVWR,050,R,12.6,N,,,,*61
$IIDPT,048.8,-1.0,*44
$IIGLL,3740.303,N,12221.038,W,172011,A,A*4F
$IIHDG,230,,,15,E*17
$IIMTW,+17.0,C*3E
$IIMWV,050,R,12.6,N,A*13
$IIMWV,084,T,09.5,N,A*15
$IIRMC,172011,A,3740.303,N,12221.038,W,06.7,195,090710,15,E,A*14
$IIVHW,,,230,M,06.7,N,,*64
$IIVLW,00017,N,017.0,N*53
$IIVWR,049,R,13.2,N,,,,*6C
$IIDPT,018.0,-1.0,*49
$IIGLL,3740.300,N,12221.039,W,172012,A,A*4E
$IIHDG,230,,,15,E*17
$IIMTW,+17.0,C*3E
$IIMWV,049,R,13.2,N,A*1E
$IIMWV,083,T,09.7,N,A*10
$IIRMC,172012,A,3740.300,N,12221.039,W,06.7,194,090710,15,E,A*14
$IIVHW,,,231,M,06.9,N,,*6B
$IIVLW,00017,N,017.0,N*53
$IIVWR,051,R,13.1,N,,,,*66
$IIDPT,018.0,-1.0,*49
$IIGLL,3740.298,N,12221.040,W,172013,A,A*41
$IIHDG,231,,,15,E*16
$IIMTW,+17.0,C*3E
$IIMWV,051,R,13.1,N,A*14
$IIMWV,079,T,10.0,N,A*1A
$IIRMB,A,1.40,R,,OPMRNA  ,,,,,001.50,252,03.5,V,A*7A
$IIRMC,172014,A,3740.295,N,12221.041,W,06.8,195,090710,15,E,A*1E
$IIVHW,,,230,M,06.9,N,,*6A
$IIVLW,00017,N,017.0,N*53
$IIVWR,051,R,13.5,N,,,,*62
$IIDPT,007.5,-1.0,*42
$IIGLL,3740.295,N,12221.041,W,172014,A,A*4A
$IIHDG,230,,,15,E*17
$IIMTW,+17.0,C*3E
$IIMWV,051,R,13.5,N,A*10
$IIMWV,081,T,10.6,N,A*1B
$IIRMB,A,1.39,R,,OPMRNA  ,,,,,001.50,252,03.7,V,A*76
$IIRMC,172015,A,3740.294,N,12221.042,W,06.8,195,090710,15,E,A*1D
$IIVHW,,,230,M,06.9,N,,*6A
$IIVLW,00017,N,017.0,N*53
$IIVWR,050,R,13.3,N,,,,*65
$IIDPT,008.6,-1.0,*4E
$IIGLL,3740.294,N,12221.042,W,172015,A,A*49
$IIHDG,229,,,15,E*1F
$IIMTW,+17.0,C*3E
$IIMWV,050,R,13.1,N,A*15
$IIMWV,081,T,10.3,N,A*1E
$IIRMC,172016,A,3740.292,N,12221.043,W,06.7,195,090710,15,E,A*16
$IIVHW,,,229,M,06.8,N,,*63
$IIVLW,00017,N,017.0,N*53
$IIVWR,050,R,13.1,N,,,,*67
$IIDPT,008.6,-1.0,*4E
$IIGLL,3740.291,N,12221.044,W,172017,A,A*48
$IIHDG,228,,,15,E*1E
$IIMTW,+17.0,C*3E
$IIMWV,050,R,12.7,N,A*12
$IIMWV,082,T,10.0,N,A*1E
$IIRMB,A,1.39,R,,OPMRNA  ,,,,,001.50,252,03.6,V,A*77
$IIRMC,172017,A,3740.291,N,12221.044,W,06.7,195,090710,15,E,A*13
$IIVHW,,,228,M,06.8,N,,*62
$IIVLW,00017,N,017.0,N*53
$IIVWR,050,R,13.3,N,,,,*65
$IIDPT,008.8,-1.0,*40
$IIGLL,3740.289,N,12221.045,W,172018,A,A*4F
$IIHDG,228,,,15,E*1E
$IIMTW,+17.0,C*3E
$IIMWV,050,R,13.3,N,A*17
$IIMWV,083,T,09.7,N,A*10
$IIRMC,172018,A,3740.289,N,12221.045,W,06.8,195,090710,15,E,A*1B
$IIVHW,,,229,M,06.8,N,,*63
$IIVLW,00017,N,017.0,N*53
$IIVWR,050,R,13.6,N,,,,*60
$IIDPT,008.8,-1.0,*40
$IIGLL,3740.287,N,12221.046,W,172019,A,A*43
$IIHDG,229,,,15,E*1F
$IIMTW,+17.0,C*3E
$IIMWV,050,R,13.6,N,A*12
$IIMWV,081,T,10.3,N,A*1E
$IIRMB,A,1.39,R,,OPMRNA  ,,,,,001.50,252,03.7,V,A*76
$IIRMC,172020,A,3740.285,N,12221.047,W,06.7,195,090710,15,E,A*11
$IIVHW,,,229,M,06.8,N,,*63
$IIVLW,00017,N,017.0,N*53
$IIVWR,050,R,13.8,N,,,,*6E
$IIDPT,008.7,-1.0,*4F
$IIGLL,3740.285,N,12221.047,W,172020,A,A*4A
$IIHDG,229,,,15,E*1F
$IIMTW,+17.0,C*3E
$IIMWV,050,R,13.8,N,A*1C
$IIMWV,079,T,10.7,N,A*1D
$IIRMB,A,1.39,R,,OPMRNA  ,,,,,001.50,253,03.6,V,A*76
$IIRMC,172021,A,3740.284,N,12221.046,W,06.7,195,090710,15,E,A*10
$IIVHW,,,230,M,06.8,N,,*6B
$IIVLW,00017,N,017.0,N*53
$IIVWR,051,R,13.6,N,,,,*61
$IIDPT,008.1,-1.0,*49
$IIGLL,3740.284,N,12221.046,W,172021,A,A*4B
$IIHDG,230,,,15,E*17
$IIMTW,+17.0,C*3E
$IIMWV,051,R,13.0,N,A*15
$IIMWV,081,T,10.7,N,A*1A
$IIRMC,172022,A,3740.281,N,12221.048,W,06.6,194,090710,15,E,A*18
$IIVHW,,,230,M,06.8,N,,*6B
$IIVLW,00017,N,017.0,N*53
$IIVWR,051,R,13.0,N,,,,*67
$IIDPT,008.1,-1.0,*49
$IIGLL,3740.279,N,12221.049,W,172023,A,A*44
$IIHDG,230,,,15,E*17
$IIMTW,+17.0,C*3E
$IIMWV,051,R,13.5,N,A*10
$IIMWV,083,T,10.1,N,A*1E
$IIRMB,A,1.39,R,,OPMRNA  ,,,,,001.50,253,03.5,V,A*75
$IIRMC,172023,A,3740.279,N,12221.049,W,06.6,194,090710,15,E,A*1F
$IIVHW,,,230,M,06.9,N,,*6A
$IIVLW,00017,N,017.0,N*53
$IIVWR,051,R,13.4,N,,,,*63
$IIDPT,008.1,-1.0,*49
$IIGLL,3740.276,N,12221.050,W,172024,A,A*44
$IIHDG,229,,,15,E*1F
$IIMTW,+17.0,C*3E
$IIMWV,051,R,13.4,N,A*11
$IIMWV,081,T,10.6,N,A*1B
$IIRMC,172024,A,3740.276,N,12221.050,W,06.6,194,090710,15,E,A*1F
$IIVHW,,,229,M,07.0,N,,*6A
$IIVLW,00017,N,017.1,N*52
$IIVWR,052,R,13.7,N,,,,*63
$IIDPT,008.1,-1.0,*49
$IIGLL,3740.275,N,12221.050,W,172025,A,A*46
$IIHDG,229,,,15,E*1F
$IIMTW,+17.0,C*3E
$IIMWV,052,R,13.7,N,A*11
$IIMWV,082,T,10.4,N,A*1A
$IIRMB,A,1.39,R,,OPMRNA  ,,,,,001.50,253,03.5,V,A*75
$IIRMC,172026,A,3740.272,N,12221.049,W,06.7,195,090710,15,E,A*11
$IIVHW,,,229,M,07.0,N,,*6A
$IIVLW,00017,N,017.1,N*52
$IIVWR,051,R,13.5,N,,,,*62
$IIDPT,008.1,-1.0,*49
$IIGLL,3740.272,N,12221.049,W,172026,A,A*4A
$IIHDG,229,,,15,E*1F
$IIMTW,+17.0,C*3E
$IIMWV,051,R,13.5,N,A*10
$IIMWV,082,T,10.6,N,A*18
$IIRMB,A,1.39,R,,OPMRNA  ,,,,,001.50,253,03.5,V,A*75
$IIRMC,172027,A,3740.271,N,12221.049,W,06.7,195,090710,15,E,A*13
$IIVHW,,,229,M,07.0,N,,*6A
$IIVLW,00017,N,017.1,N*52
$IIVWR,052,R,13.3,N,,,,*67
$IIDPT,065.5,-1.0,*46
$IIGLL,3740.271,N,12221.049,W,172027,A,A*48
$IIHDG,229,,,15,E*1F
$IIMTW,+17.0,C*3E
$IIMWV,052,R,13.3,N,A*15
$IIMWV,083,T,10.5,N,A*1A
$IIRMC,172028,A,3740.269,N,12221.050,W,06.7,195,090710,15,E,A*1D
$IIVHW,,,229,M,07.0,N,,*6A
$IIVLW,00017,N,017.1,N*52
$IIVWR,052,R,13.3,N,,,,*67
$IIDPT,008.4,-1.0,*4C
$IIGLL,3740.267,N,12221.051,W,172029,A,A*48
$IIHDG,230,,,15,E*17
$IIMTW,+17.0,C*3E
$IIMWV,051,R,12.8,N,A*1C
$IIMWV,083,T,10.5,N,A*1A
$IIRMB,A,1.39,R,,OPMRNA  ,,,,,001.50,253,03.5,V,A*75
$IIRMC,172029,A,3740.267,N,12221.051,W,06.7,195,090710,15,E,A*13
$IIVHW,,,230,M,07.0,N,,*62
$IIVLW,00017,N,017.1,N*52
$IIVWR,051,R,12.8,N,,,,*6E
$IIDPT,034.5,-1.0,*42
$IIGLL,3740.265,N,12221.052,W,172030,A,A*41
$IIHDG,230,,,15,E*17
$IIMTW,+17.0,C*3E
$IIMWV,051,R,12.8,N,A*1C
$IIMWV,084,T,09.9,N,A*19
$IIRMC,172030,A,3740.265,N,12221.052,W,06.7,195,090710,15,E,A*1A
$IIVHW,,,230,M,07.0,N,,*62
$IIVLW,00017,N,017.1,N*52
$IIVWR,051,R,13.0,N,,,,*67
$IIDPT,034.5,-1.0,*42
$IIGLL,3740.264,N,12221.052,W,172031,A,A*41
$IIHDG,230,,,15,E*17
$IIMTW,+17.0,C*3E
$IIMWV,051,R,13.0,N,A*15
$IIMWV,084,T,09.9,N,A*19
$IIRMB,A,1.39,R,,OPMRNA  ,,,,,001.50,253,03.5,V,A*75
$IIRMC,172032,A,3740.261,N,12221.053,W,06.7,195,090710,15,E,A*1D
$IIVHW,,,230,M,07.0,N,,*62
$IIVLW,00017,N,017.1,N*52
$IIVWR,051,R,13.0,N,,,,*67
$IIDPT,034.5,-1.0,*42
$IIGLL,3740.261,N,12221.053,W,172032,A,A*46
$IIHDG,230,,,15,E*17
$IIMTW,+17.0,C*3E
$IIMWV,051,R,13.0,N,A*15
$IIMWV,084,T,10.1,N,A*19
$IIRMB,A,1.39,R,,OPMRNA  ,,,,,001.50,253,03.5,V,A*75
$IIRMC,172033,A,3740.260,N,12221.054,W,06.7,195,090710,15,E,A*1A
$IIVHW,,,230,M,07.0,N,,*62
$IIVLW,00017,N,017.1,N*52
$IIVWR,050,R,12.9,N,,,,*6E
$IIDPT,034.5,-1.0,*42
$IIGLL,3740.260,N,12221.054,W,172033,A,A*41
$IIHDG,230,,,15,E*17
$IIMTW,+17.0,C*3E
$IIMWV,050,R,12.9,N,A*1C
$IIMWV,083,T,09.9,N,A*1E
$IIRMC,172034,A,3740.258,N,12221.055,W,06.7,196,090710,15,E,A*14
$IIVHW,,,230,M,06.9,N,,*6A
$IIVLW,00017,N,017.1,N*52
$IIVWR,050,R,12.9,N,,,,*6E
$IIDPT,034.5,-1.0,*42
$IIGLL,3740.257,N,12221.055,W,172035,A,A*42
$IIHDG,229,,,15,E*1F
$IIMTW,+17.0,C*3E
$IIMWV,050,R,12.9,N,A*1C
$IIMWV,083,T,09.9,N,A*1E
$IIRMB,A,1.39,R,,OPMRNA  ,,,,,001.50,253,03.6,V,A*76
$IIRMC,172035,A,3740.257,N,12221.055,W,06.7,196,090710,15,E,A*1A
$IIVHW,,,229,M,06.9,N,,*62
$IIVLW,00017,N,017.1,N*52
$IIVWR,050,R,12.9,N,,,,*6E
$IIDPT,010.3,-1.0,*42
$IIGLL,3740.256,N,12221.056,W,172036,A,A*43
$IIHDG,228,,,15,E*1E
$IIMTW,+17.0,C*3E
$IIMWV,050,R,12.9,N,A*1C
$IIMWV,083,T,09.9,N,A*1E
$IIRMC,172036,A,3740.256,N,12221.056,W,06.8,196,090710,15,E,A*14
$IIVHW,,,228,M,06.8,N,,*62
$IIVLW,00017,N,017.1,N*52
$IIVWR,049,R,12.1,N,,,,*6E
$IIDPT,008.5,-1.0,*4D
$IIGLL,3740.255,N,12221.056,W,172037,A,A*41
$IIHDG,228,,,15,E*1E
$IIMTW,+17.0,C*3E
$IIMWV,049,R,12.1,N,A*1C
$IIMWV,083,T,09.9,N,A*1E
$IIRMB,A,1.38,R,,OPMRNA  ,,,,,001.50,254,03.6,V,A*70
$IIRMC,172038,A,3740.253,N,12221.057,W,06.5,195,090710,15,E,A*10
$IIVHW,,,227,M,06.8,N,,*6D
$IIVLW,00017,N,017.1,N*52
$IIVWR,048,R,12.1,N,,,,*6F
$IIDPT,009.0,-1.0,*49
$IIGLL,3740.253,N,12221.057,W,172038,A,A*49
$IIHDG,227,,,15,E*11
$IIMTW,+17.0,C*3E
$IIMWV,048,R,12.1,N,A*1D
$IIMWV,082,T,08.9,N,A*1E
$IIRMB,A,1.38,R,,OPMRNA  ,,,,,001.40,254,03.4,V,A*73
$IIRMC,172039,A,3740.252,N,12221.057,W,06.5,195,090710,15,E,A*10
$IIVHW,,,228,M,06.8,N,,*62
$IIVLW,00017,N,017.1,N*52
$IIVWR,049,R,11.6,N,,,,*6A
$IIDPT,010.1,-1.0,*40
$IIGLL,3740.252,N,12221.057,W,172039,A,A*49
$IIHDG,228,,,15,E*1E
$IIMTW,+17.0,C*3E
$IIMWV,049,R,11.4,N,A*1A
$IIMWV,085,T,08.7,N,A*17
$IIRMC,172040,A,3740.251,N,12221.058,W,06.5,195,090710,15,E,A*12
$IIVHW,,,228,M,06.8,N,,*62
$IIVLW,00017,N,017.1,N*52
$IIVWR,049,R,11.4,N,,,,*68
$IIDPT,009.2,-1.0,*4B
$IIGLL,3740.249,N,12221.058,W,172041,A,A*43
$IIHDG,229,,,15,E*1F
$IIMTW,+17.0,C*3E
$IIMWV,048,R,11.2,N,A*1D
$IIMWV,085,T,08.5,N,A*15
$IIRMB,A,1.38,R,,OPMRNA  ,,,,,001.40,254,03.4,V,A*73
$IIRMC,172041,A,3740.249,N,12221.058,W,06.5,195,090710,15,E,A*1A
$IIVHW,,,229,M,06.7,N,,*6C
$IIVLW,00017,N,017.1,N*52
$IIVWR,046,R,11.7,N,,,,*64
$IIDPT,008.4,-1.0,*4C
$IIGLL,3740.247,N,12221.058,W,172042,A,A*4E
$IIHDG,229,,,15,E*1F
$IIMTW,+17.0,C*3E
$IIMWV,046,R,11.7,N,A*16
$IIMWV,085,T,08.2,N,A*12
$IIRMC,172042,A,3740.247,N,12221.058,W,06.6,195,090710,15,E,A*14
$IIVHW,,,230,M,06.7,N,,*64
$IIVLW,00017,N,017.1,N*52
$IIVWR,045,R,11.4,N,,,,*64
$IIDPT,008.4,-1.0,*4C
$IIGLL,3740.246,N,12221.059,W,172043,A,A*4F
$IIHDG,230,,,15,E*17
$IIMTW,+17.0,C*3E
$IIMWV,045,R,11.4,N,A*16
$IIMWV,082,T,08.4,N,A*13
$IIRMB,A,1.38,R,,OPMRNA  ,,,,,001.40,254,03.4,V,A*73
$IIRMC,172044,A,3740.243,N,12221.059,W,06.6,195,090710,15,E,A*17
$IIVHW,,,231,M,06.7,N,,*65
$IIVLW,00017,N,017.1,N*52
$IIVWR,045,R,11.8,N,,,,*68
$IIDPT,008.4,-1.0,*4C
$IIGLL,3740.243,N,12221.059,W,172044,A,A*4D
$IIHDG,231,,,15,E*16
$IIMTW,+17.0,C*3E
$IIMWV,045,R,11.8,N,A*1A
$IIMWV,079,T,08.4,N,A*17
$IIRMB,A,1.38,R,,OPMRNA  ,,,,,001.40,254,03.4,V,A*73
$IIRMC,172045,A,3740.242,N,12221.060,W,06.6,195,090710,15,E,A*1D
$IIVHW,,,232,M,06.6,N,,*67
$IIVLW,00017,N,017.1,N*52
$IIVWR,044,R,11.5,N,,,,*64
$IIDPT,008.4,-1.0,*4C
$IIGLL,3740.242,N,12221.060,W,172045,A,A*47
$IIHDG,231,,,15,E*16
$IIMTW,+17.0,C*3E
$IIMWV,043,R,11.9,N,A*1D
$IIMWV,079,T,08.0,N,A*13
$IIRMC,172046,A,3740.241,N,12221.061,W,06.5,195,090710,15,E,A*1F
$IIVHW,,,231,M,06.6,N,,*64
$IIVLW,00017,N,017.1,N*52
$IIVWR,043,R,11.9,N,,,,*6F
$IIDPT,008.8,-1.0,*40
$IIGLL,3740.239,N,12221.061,W,172047,A,A*48
$IIHDG,230,,,15,E*17
$IIMTW,+17.0,C*3E
$IIMWV,045,R,12.1,N,A*10
$IIMWV,077,T,08.2,N,A*1F
$IIRMB,A,1.38,R,,OPMRNA  ,,,,,001.40,254,03.4,V,A*73
$IIRMC,172047,A,3740.239,N,12221.061,W,06.5,195,090710,15,E,A*11
$IIVHW,,,230,M,06.6,N,,*65
$IIVLW,00017,N,017.1,N*52
$IIVWR,043,R,12.2,N,,,,*67
$IIDPT,008.8,-1.0,*40
$IIGLL,3740.237,N,12221.062,W,172048,A,A*4A
$IIHDG,230,,,15,E*17
$IIMTW,+17.0,C*3E
$IIMWV,043,R,12.2,N,A*15
$IIMWV,078,T,08.7,N,A*15
$IIRMC,172048,A,3740.237,N,12221.062,W,06.4,196,090710,15,E,A*11
$IIVHW,,,230,M,06.6,N,,*65
$IIVLW,00017,N,017.1,N*52
$IIVWR,041,R,11.7,N,,,,*63
$IIDPT,047.0,-1.0,*43
$IIGLL,3740.236,N,12221.062,W,172049,A,A*4A
$IIHDG,230,,,15,E*17
$IIMTW,+17.0,C*3E
$IIMWV,041,R,11.7,N,A*11
$IIMWV,074,T,08.5,N,A*1B
$IIRMB,A,1.38,R,,OPMRNA  ,,,,,001.40,254,03.4,V,A*73
$IIRMC,172050,A,3740.233,N,12221.063,W,06.5,196,090710,15,E,A*1C
$IIVHW,,,229,M,06.6,N,,*6D
$IIVLW,00017,N,017.1,N*52
$IIVWR,037,R,11.4,N,,,,*61
$IIDPT,047.0,-1.0,*43
$IIGLL,3740.233,N,12221.063,W,172050,A,A*46
$IIHDG,229,,,15,E*1F
$IIMTW,+17.0,C*3E
$IIMWV,037,R,11.4,N,A*13
$IIMWV,070,T,07.2,N,A*17
$IIRMC,172051,A,3740.232,N,12221.064,W,06.5,196,090710,15,E,A*1B
$IIVHW,,,230,M,06.6,N,,*65
$IIVLW,00017,N,017.1,N*52
$IIVWR,036,R,11.8,N,,,,*6C
$IIDPT,028.8,-1.0,*42
$IIGLL,3740.232,N,12221.064,W,172051,A,A*41
$IIHDG,230,,,15,E*17
$IIMTW,+17.0,C*3E
$IIMWV,037,R,12.0,N,A*14
$IIMWV,068,T,07.4,N,A*18
$IIRMC,172051,A,3740.232,N,12221.064,W,06.5,196,090710,15,E,A*1B
$IIVHW,,,229,M,06.7,N,,*6C
$IIVLW,00017,N,017.1,N*52
$IIVWR,037,R,12.0,N,,,,*66
$IIDPT,047.0,-1.0,*43
$IIGLL,3740.232,N,12221.064,W,172051,A,A*41
$IIHDG,229,,,15,E*1F
$IIMTW,+17.0,C*3E
$IIMWV,037,R,12.1,N,A*15
$IIMWV,068,T,07.7,N,A*1B
$IIRMB,A,1.38,R,,OPMRNA  ,,,,,001.40,255,03.4,V,A*72
$IIRMC,172053,A,3740.228,N,12221.065,W,06.5,196,090710,15,E,A*13
$IIVHW,,,230,M,06.7,N,,*64
$IIVLW,00017,N,017.1,N*52
$IIVWR,037,R,12.1,N,,,,*67
$IIDPT,016.5,-1.0,*42
$IIGLL,3740.227,N,12221.065,W,172054,A,A*41
$IIHDG,230,,,15,E*17
$IIMTW,+17.0,C*3E
$IIMWV,037,R,11.7,N,A*10
$IIMWV,068,T,07.7,N,A*1B
$IIRMC,172054,A,3740.227,N,12221.065,W,06.5,196,090710,15,E,A*1B
$IIVHW,,,230,M,06.6,N,,*65
$IIVLW,00017,N,017.1,N*52
$IIVWR,037,R,11.7,N,,,,*62
$IIDPT,034.7,-1.0,*40
$IIGLL,3740.225,N,12221.066,W,172055,A,A*41
$IIHDG,230,,,15,E*17
$IIMTW,+17.0,C*3E
$IIMWV,037,R,12.6,N,A*12
$IIMWV,070,T,07.4,N,A*11
$IIRMB,A,1.38,R,,OPMRNA  ,,,,,001.40,255,03.4,V,A*72
$IIRMC,172055,A,3740.225,N,12221.066,W,06.5,196,090710,15,E,A*1B
$IIVHW,,,230,M,06.6,N,,*65
$IIVLW,00017,N,017.1,N*52
$IIVWR,037,R,12.4,N,,,,*62
$IIDPT,034.7,-1.0,*40
$IIGLL,3740.223,N,12221.066,W,172056,A,A*44
$IIHDG,230,,,15,E*17
$IIMTW,+17.0,C*3E
$IIMWV,037,R,12.4,N,A*10
$IIMWV,066,T,08.1,N,A*1C
$IIRMC,172057,A,3740.222,N,12221.067,W,06.5,196,090710,15,E,A*1F
$IIVHW,,,230,M,06.5,N,,*66
$IIVLW,00017,N,017.1,N*52
$IIVWR,038,R,12.3,N,,,,*6A
$IIDPT,007.5,-1.0,*42
$IIGLL,3740.222,N,12221.067,W,172057,A,A*45
$IIHDG,230,,,15,E*17
$IIMTW,+17.0,C*3E
$IIMWV,038,R,12.3,N,A*18
$IIMWV,068,T,08.2,N,A*11
$IIRMB,A,1.38,R,,OPMRNA  ,,,,,001.40,255,03.4,V,A*72
$IIRMC,172058,A,3740.219,N,12221.068,W,06.4,196,090710,15,E,A*16
$IIVHW,,,229,M,06.5,N,,*6E
$IIVLW,00017,N,017.1,N*52
$IIVWR,039,R,12.7,N,,,,*6F
$IIDPT,008.1,-1.0,*49
$IIGLL,3740.219,N,12221.068,W,172058,A,A*4D
$IIHDG,229,,,15,E*1F
$IIMTW,+17.0,C*3E
$IIMWV,041,R,12.4,N,A*11
$IIMWV,068,T,08.6,N,A*15
$IIRMB,A,1.38,R,,OPMRNA  ,,,,,001.40,255,03.3,V,A*75
$IIRMC,172059,A,3740.218,N,12221.069,W,06.4,196,090710,15,E,A*17
$IIVHW,,,229,M,06.5,N,,*6E
$IIVLW,00017,N,017.1,N*52
$IIVWR,041,R,12.4,N,,,,*63
$IIDPT,008.0,-1.0,*48
$IIGLL,3740.216,N,12221.069,W,172100,A,A*4F
$IIHDG,228,,,15,E*1E
$IIMTW,+17.0,C*3E
$IIMWV,039,R,12.9,N,A*13
$IIMWV,072,T,08.5,N,A*1D
$IIRMC,172100,A,3740.216,N,12221.069,W,06.4,196,090710,15,E,A*14
$IIVHW,,,228,M,06.5,N,,*6F
$IIVLW,00017,N,017.1,N*52
$IIVWR,035,R,13.1,N,,,,*64
$IIDPT,008.0,-1.0,*48
$IIGLL,3740.215,N,12221.069,W,172101,A,A*4D
$IIHDG,229,,,15,E*1F
$IIMTW,+17.0,C*3E
$IIMWV,035,R,13.1,N,A*16
$IIMWV,067,T,08.7,N,A*1B
$IIRMB,A,1.37,R,,OPMRNA  ,,,,,001.40,255,03.3,V,A*7A
$IIRMC,172101,A,3740.215,N,12221.069,W,06.4,196,090710,15,E,A*16
$IIVHW,,,230,M,06.6,N,,*65
$IIVLW,00017,N,017.1,N*52
$IIVWR,033,R,13.0,N,,,,*63
$IIDPT,007.5,-1.0,*42
$IIGLL,3740.215,N,12221.069,W,172101,A,A*4D
$IIHDG,230,,,15,E*17
$IIMTW,+17.0,C*3E
$IIMWV,033,R,13.0,N,A*11
$IIMWV,058,T,08.2,N,A*12
$IIRMB,A,1.37,R,,OPMRNA  ,,,,,001.40,255,03.1,V,A*78
$IIRMC,172103,A,3740.214,N,12221.070,W,06.3,195,090710,15,E,A*19
$IIVHW,,,230,M,06.6,N,,*65
$IIVLW,00017,N,017.1,N*52
$IIVWR,030,R,13.0,N,,,,*60
$IIDPT,007.5,-1.0,*42
$IIGLL,3740.214,N,12221.070,W,172103,A,A*46
$IIHDG,230,,,15,E*17
$IIMTW,+17.0,C*3E
$IIMWV,030,R,13.6,N,A*14
$IIMWV,054,T,08.0,N,A*1C
$IIRMC,172104,A,3740.211,N,12221.070,W,06.2,195,090710,15,E,A*1A
$IIVHW,,,230,M,06.6,N,,*65
$IIVLW,00017,N,017.1,N*52
$IIVWR,030,R,13.6,N,,,,*66
$IIDPT,007.5,-1.0,*42
$IIGLL,3740.210,N,12221.071,W,172105,A,A*45
$IIHDG,229,,,15,E*1F
$IIMTW,+17.0,C*3E
$IIMWV,028,R,14.6,N,A*1A
$IIMWV,053,T,08.5,N,A*1E
$IIRMB,A,1.37,R,,OPMRNA  ,,,,,001.40,255,03.1,V,A*78
$IIRMC,172105,A,3740.210,N,12221.071,W,06.2,195,090710,15,E,A*1B
$IIVHW,,,229,M,06.5,N,,*6E
$IIVLW,00017,N,017.1,N*52
$IIVWR,028,R,14.4,N,,,,*6A
$IIDPT,007.7,-1.0,*40
$IIGLL,3740.207,N,12221.071,W,172106,A,A*40
$IIHDG,229,,,15,E*1F
$IIMTW,+17.0,C*3E
$IIMWV,028,R,14.4,N,A*18
$IIMWV,048,T,09.2,N,A*12
$IIRMC,172106,A,3740.207,N,12221.071,W,06.1,196,090710,15,E,A*1E
$IIVHW,,,229,M,06.4,N,,*6F
$IIVLW,00017,N,017.1,N*52
$IIVWR,033,R,13.4,N,,,,*67
$IIDPT,008.1,-1.0,*49
$IIGLL,3740.206,N,12221.071,W,172107,A,A*40
$IIHDG,229,,,15,E*1F
$IIMTW,+17.0,C*3E
$IIMWV,033,R,13.4,N,A*15
$IIMWV,048,T,09.0,N,A*10
$IIRMB,A,1.37,R,,OPMRNA  ,,,,,001.40,255,03.2,V,A*7B
$IIRMC,172108,A,3740.204,N,12221.073,W,06.0,196,090710,15,E,A*10
$IIVHW,,,228,M,06.4,N,,*6E
$IIVLW,00017,N,017.1,N*52
$IIVWR,034,R,14.6,N,,,,*65
$IIDPT,008.1,-1.0,*49
$IIGLL,3740.204,N,12221.073,W,172108,A,A*4F
$IIHDG,228,,,15,E*1E
$IIMTW,+17.0,C*3E
$IIMWV,034,R,14.6,N,A*17
$IIMWV,055,T,09.9,N,A*15
$IIRMB,A,1.37,R,,OPMRNA  ,,,,,001.40,255,03.1,V,A*78
$IIRMC,172109,A,3740.203,N,12221.074,W,06.0,196,090710,15,E,A*11
$IIVHW,,,229,M,06.3,N,,*68
$IIVLW,00017,N,017.1,N*52
$IIVWR,035,R,14.4,N,,,,*66
$IIDPT,045.1,-1.0,*40
$IIGLL,3740.203,N,12221.074,W,172109,A,A*4E
$IIHDG,229,,,15,E*1F
$IIMTW,+17.0,C*3E
$IIMWV,036,R,14.0,N,A*13
$IIMWV,056,T,09.8,N,A*17
$IIRMC,172110,A,3740.202,N,12221.075,W,06.0,196,090710,15,E,A*19
$IIVHW,,,229,M,06.2,N,,*69
$IIVLW,00017,N,017.1,N*52
$IIVWR,036,R,14.0,N,,,,*61
$IIDPT,045.1,-1.0,*40
$IIGLL,3740.201,N,12221.076,W,172111,A,A*47
$IIHDG,229,,,15,E*1F
$IIMTW,+17.0,C*3E
$IIMWV,035,R,14.4,N,A*14
$IIMWV,058,T,09.6,N,A*17
$IIRMB,A,1.37,R,,OPMRNA  ,,,,,001.40,255,03.1,V,A*78
$IIRMC,172111,A,3740.201,N,12221.076,W,06.0,196,090710,15,E,A*18
$IIVHW,,,229,M,06.1,N,,*6A
$IIVLW,00017,N,017.1,N*52
$IIVWR,034,R,15.4,N,,,,*66
$IIDPT,014.7,-1.0,*42
$IIGLL,3740.199,N,12221.077,W,172112,A,A*47
$IIHDG,230,,,15,E*17
$IIMTW,+17.0,C*3E
$IIMWV,034,R,15.4,N,A*14
$IIMWV,056,T,09.9,N,A*16
$IIRMC,172112,A,3740.199,N,12221.077,W,05.9,196,090710,15,E,A*12
$IIVHW,,,230,M,06.1,N,,*62
$IIVLW,00017,N,017.1,N*52
$IIVWR,036,R,16.7,N,,,,*64
$IIDPT,014.7,-1.0,*42
$IIGLL,3740.198,N,12221.077,W,172113,A,A*47
$IIHDG,230,,,15,E*17
$IIMTW,+17.0,C*3E
$IIMWV,036,R,16.7,N,A*16
$IIMWV,053,T,10.7,N,A*15
$IIRMB,A,1.37,R,,OPMRNA  ,,,,,001.40,256,03.0,V,A*7A
$IIRMC,172113,A,3740.198,N,12221.077,W,05.9,196,090710,15,E,A*12
$IIVHW,,,229,M,06.1,N,,*6A
$IIVLW,00017,N,017.1,N*52
$IIVWR,035,R,16.2,N,,,,*62
$IIDPT,012.7,-1.0,*44
$IIGLL,3740.198,N,12221.077,W,172113,A,A*47
$IIHDG,229,,,15,E*1F
$IIMTW,+17.0,C*3E
$IIMWV,035,R,16.2,N,A*10
$IIMWV,053,T,11.5,N,A*16
$IIRMB,A,1.37,R,,OPMRNA  ,,,,,001.40,256,03.0,V,A*7A
$IIRMC,172115,A,3740.194,N,12221.079,W,06.1,195,090710,15,E,A*1E
$IIVHW,,,228,M,06.2,N,,*68
$IIVLW,00017,N,017.1,N*52
$IIVWR,039,R,16.0,N,,,,*6C
$IIDPT,010.6,-1.0,*47
$IIGLL,3740.194,N,12221.079,W,172115,A,A*43
$IIHDG,228,,,15,E*1E
$IIMTW,+17.0,C*3E
$IIMWV,040,R,15.1,N,A*12
$IIMWV,059,T,11.7,N,A*1E
$IIRMC,172115,A,3740.194,N,12221.079,W,06.1,195,090710,15,E,A*1E
$IIVHW,,,228,M,06.3,N,,*69
$IIVLW,00017,N,017.1,N*52
$IIVWR,040,R,15.1,N,,,,*60
$IIDPT,010.9,-1.0,*48
$IIGLL,3740.191,N,12221.080,W,172117,A,A*42
$IIHDG,228,,,15,E*1E
$IIMTW,+17.0,C*3E
$IIMWV,042,R,14.9,N,A*19
$IIMWV,061,T,10.9,N,A*1A
$IIRMB,A,1.37,R,,OPMRNA  ,,,,,001.40,256,02.9,V,A*72
$IIRMC,172117,A,3740.191,N,12221.080,W,06.1,194,090710,15,E,A*1E
$IIVHW,,,228,M,06.3,N,,*69
$IIVLW,00017,N,017.1,N*52
$IIVWR,042,R,16.4,N,,,,*64
$IIDPT,010.6,-1.0,*47
$IIGLL,3740.191,N,12221.080,W,172117,A,A*42
$IIHDG,228,,,15,E*1E
$IIMTW,+17.0,C*3E
$IIMWV,042,R,16.4,N,A*16
$IIMWV,065,T,10.9,N,A*1E
$IIRMC,172117,A,3740.191,N,12221.080,W,06.1,194,090710,15,E,A*1E
$IIVHW,,,229,M,06.4,N,,*6F
$IIVLW,00017,N,017.1,N*52
$IIVWR,040,R,16.1,N,,,,*63
$IIDPT,008.6,-1.0,*4E
$IIGLL,3740.188,N,12221.081,W,172119,A,A*45
$IIHDG,229,,,15,E*1F
$IIMTW,+17.0,C*3E
$IIMWV,040,R,16.1,N,A*11
$IIMWV,063,T,12.3,N,A*10
$IIRMB,A,1.37,R,,OPMRNA  ,,,,,001.40,256,03.0,V,A*7A
$IIRMC,172119,A,3740.188,N,12221.081,W,06.2,195,090710,15,E,A*1B
$IIVHW,,,230,M,06.4,N,,*67
$IIVLW,00017,N,017.1,N*52
$IIVWR,038,R,16.4,N,,,,*69
$IIDPT,010.4,-1.0,*45
$IIGLL,3740.188,N,12221.081,W,172119,A,A*45
$IIHDG,230,,,15,E*17
$IIMTW,+17.0,C*3E
$IIMWV,038,R,16.4,N,A*1B
$IIMWV,057,T,12.0,N,A*14
$IIRMB,A,1.36,R,,OPMRNA  ,,,,,001.40,256,03.0,V,A*7B
$IIRMC,172121,A,3740.184,N,12221.082,W,06.1,195,090710,15,E,A*1C
$IIVHW,,,230,M,06.4,N,,*67
$IIVLW,00017,N,017.1,N*52
$IIVWR,036,R,17.4,N,,,,*66
$IIDPT,009.9,-1.0,*40
$IIGLL,3740.184,N,12221.082,W,172121,A,A*41
$IIHDG,230,,,15,E*17
$IIMTW,+17.0,C*3E
$IIMWV,035,R,16.4,N,A*16
$IIMWV,053,T,12.7,N,A*17
$IIRMC,172121,A,3740.184,N,12221.082,W,06.1,195,090710,15,E,A*1C
$IIVHW,,,230,M,06.4,N,,*67
$IIVLW,00017,N,017.1,N*52
$IIVWR,035,R,16.4,N,,,,*64
$IIDPT,008.9,-1.0,*41
$IIGLL,3740.180,N,12221.084,W,172123,A,A*41
$IIHDG,230,,,15,E*17
$IIMTW,+17.0,C*3E
$IIMWV,039,R,16.5,N,A*1B
$IIMWV,053,T,11.6,N,A*15
$IIRMB,A,1.36,R,,OPMRNA  ,,,,,001.40,256,02.9,V,A*73
$IIRMC,172123,A,3740.180,N,12221.084,W,06.1,195,090710,15,E,A*1C
$IIVHW,,,230,M,06.4,N,,*67
$IIVLW,00017,N,017.1,N*52
$IIVWR,041,R,16.6,N,,,,*65
$IIDPT,008.5,-1.0,*4D
$IIGLL,3740.180,N,12221.084,W,172123,A,A*41
$IIHDG,229,,,15,E*1F
$IIMTW,+17.0,C*3E
$IIMWV,041,R,16.6,N,A*17
$IIMWV,058,T,12.1,N,A*1A
$IIRMC,172123,A,3740.180,N,12221.084,W,06.1,195,090710,15,E,A*1C
$IIVHW,,,228,M,06.3,N,,*69
$IIVLW,00017,N,017.1,N*52
$IIVWR,042,R,16.1,N,,,,*61
$IIDPT,008.6,-1.0,*4E
$IIGLL,3740.177,N,12221.085,W,172125,A,A*4E
$IIHDG,228,,,15,E*1E
$IIMTW,+17.0,C*3E
$IIMWV,042,R,16.1,N,A*13
$IIMWV,061,T,12.4,N,A*15
$IIRMB,A,1.36,R,,OPMRNA  ,,,,,001.40,256,02.9,V,A*73
$IIRMC,172125,A,3740.177,N,12221.085,W,06.1,195,090710,15,E,A*13
$IIVHW,,,227,M,06.3,N,,*66
$IIVLW,00017,N,017.2,N*51
$IIVWR,046,R,16.4,N,,,,*60
$IIDPT,009.1,-1.0,*48
$IIGLL,3740.177,N,12221.085,W,172125,A,A*4E
$IIHDG,227,,,15,E*11
$IIMTW,+17.0,C*3E
$IIMWV,046,R,16.4,N,A*12
$IIMWV,067,T,12.8,N,A*1F
$IIRMB,A,1.36,R,,OPMRNA  ,,,,,001.40,257,02.8,V,A*73
$IIRMC,172127,A,3740.172,N,12221.085,W,05.9,195,090710,15,E,A*1F
$IIVHW,,,227,M,06.3,N,,*66
$IIVLW,00017,N,017.2,N*51
$IIVWR,047,R,16.5,N,,,,*60
$IIDPT,009.1,-1.0,*48
$IIGLL,3740.172,N,12221.085,W,172127,A,A*49
$IIHDG,226,,,15,E*10
$IIMTW,+17.0,C*3E
$IIMWV,047,R,16.9,N,A*1E
$IIMWV,068,T,12.9,N,A*11
$IIRMC,172127,A,3740.172,N,12221.085,W,05.9,195,090710,15,E,A*1F
$IIVHW,,,226,M,06.3,N,,*67
$IIVLW,00017,N,017.2,N*51
$IIVWR,047,R,16.9,N,,,,*6C
$IIDPT,055.7,-1.0,*47
$IIGLL,3740.170,N,12221.087,W,172129,A,A*47
$IIHDG,227,,,15,E*11
$IIMTW,+17.0,C*3E
$IIMWV,049,R,16.4,N,A*1D
$IIMWV,068,T,13.2,N,A*1B
$IIRMB,A,1.36,R,,OPMRNA  ,,,,,001.40,257,02.8,V,A*73
$IIRMC,172129,A,3740.170,N,12221.087,W,06.0,195,090710,15,E,A*1B
$IIVHW,,,227,M,06.4,N,,*61
$IIVLW,00017,N,017.2,N*51
$IIVWR,047,R,16.1,N,,,,*64
$IIDPT,055.7,-1.0,*47
$IIGLL,3740.170,N,12221.087,W,172129,A,A*47
$IIHDG,228,,,15,E*1E
$IIMTW,+17.0,C*3E
$IIMWV,047,R,16.1,N,A*16
$IIMWV,070,T,13.0,N,A*10
$IIRMC,172129,A,3740.170,N,12221.087,W,06.0,195,090710,15,E,A*1B
$IIVHW,,,229,M,06.5,N,,*6E
$IIVLW,00017,N,017.2,N*51
$IIVWR,043,R,15.9,N,,,,*6B
$IIDPT,024.5,-1.0,*43
$IIGLL,3740.167,N,12221.087,W,172131,A,A*48
$IIHDG,229,,,15,E*1F
$IIMTW,+17.0,C*3E
$IIMWV,043,R,15.9,N,A*19
$IIMWV,069,T,12.5,N,A*1C
$IIRMB,A,1.36,R,,OPMRNA  ,,,,,001.40,257,02.7,V,A*7C
$IIRMC,172131,A,3740.167,N,12221.087,W,06.1,193,090710,15,E,A*13
$IIVHW,,,229,M,06.6,N,,*6D
$IIVLW,00017,N,017.2,N*51
$IIVWR,042,R,16.3,N,,,,*63
$IIDPT,043.1,-1.0,*46
$IIGLL,3740.167,N,12221.087,W,172131,A,A*48
$IIHDG,229,,,15,E*1F
$IIMTW,+17.0,C*3E
$IIMWV,042,R,16.3,N,A*11
$IIMWV,064,T,12.1,N,A*15
$IIRMB,A,1.36,R,,OPMRNA  ,,,,,001.40,257,02.6,V,A*7D
$IIRMC,172133,A,3740.163,N,12221.088,W,06.2,192,090710,15,E,A*18
$IIVHW,,,229,M,06.6,N,,*6D
$IIVLW,00017,N,017.2,N*51
$IIVWR,040,R,16.0,N,,,,*62
$IIDPT,030.7,-1.0,*44
$IIGLL,3740.163,N,12221.088,W,172133,A,A*41
$IIHDG,229,,,15,E*1F
$IIMTW,+17.0,C*3E
$IIMWV,042,R,15.9,N,A*18
$IIMWV,061,T,11.6,N,A*14
$IIRMC,172133,A,3740.163,N,12221.088,W,06.2,192,090710,15,E,A*18
$IIVHW,,,229,M,06.5,N,,*6E
$IIVLW,00017,N,017.2,N*51
$IIVWR,042,R,15.9,N,,,,*6A
$IIDPT,030.7,-1.0,*44
$IIGLL,3740.160,N,12221.089,W,172135,A,A*45
$IIHDG,227,,,15,E*11
$IIMTW,+17.0,C*3E
$IIMWV,042,R,15.7,N,A*16
$IIMWV,064,T,11.7,N,A*10
$IIRMB,A,1.36,R,,OPMRNA  ,,,,,001.40,257,02.7,V,A*7C
$IIRMC,172135,A,3740.160,N,12221.089,W,06.2,193,090710,15,E,A*1D
$IIVHW,,,227,M,06.5,N,,*60
$IIVLW,00017,N,017.2,N*51
$IIVWR,041,R,15.8,N,,,,*68
$IIDPT,009.1,-1.0,*48
$IIGLL,3740.160,N,12221.089,W,172135,A,A*45
$IIHDG,227,,,15,E*11
$IIMTW,+17.0,C*3E
$IIMWV,041,R,15.8,N,A*1A
$IIMWV,065,T,11.6,N,A*10
$IIRMC,172135,A,3740.160,N,12221.089,W,06.2,193,090710,15,E,A*1D
$IIVHW,,,227,M,06.4,N,,*61
$IIVLW,00017,N,017.2,N*51
$IIVWR,040,R,15.9,N,,,,*68
$IIDPT,007.5,-1.0,*42
$IIGLL,3740.156,N,12221.090,W,172137,A,A*4A
$IIHDG,227,,,15,E*11
$IIMTW,+17.0,C*3E
$IIMWV,040,R,15.9,N,A*1A
$IIMWV,063,T,11.6,N,A*16
$IIRMB,A,1.36,R,,OPMRNA  ,,,,,001.40,257,02.7,V,A*7C
$IIRMC,172137,A,3740.156,N,12221.090,W,06.2,193,090710,15,E,A*12
$IIVHW,,,227,M,06.4,N,,*61
$IIVLW,00017,N,017.2,N*51
$IIVWR,039,R,15.2,N,,,,*6D
$IIDPT,007.5,-1.0,*42
$IIGLL,3740.156,N,12221.090,W,172137,A,A*4A
$IIHDG,227,,,15,E*11
$IIMTW,+17.0,C*3E
$IIMWV,039,R,15.2,N,A*1F
$IIMWV,060,T,10.9,N,A*1B
$IIRMB,A,1.36,R,,OPMRNA  ,,,,,001.40,257,02.5,V,A*7E
$IIRMC,172139,A,3740.152,N,12221.090,W,06.1,192,090710,15,E,A*1A
$IIVHW,,,228,M,06.3,N,,*69
$IIVLW,00017,N,017.2,N*51
$IIVWR,040,R,15.6,N,,,,*67
$IIDPT,008.7,-1.0,*4F
$IIGLL,3740.152,N,12221.090,W,172139,A,A*40
$IIHDG,228,,,15,E*1E
$IIMTW,+17.0,C*3E
$IIMWV,040,R,15.3,N,A*10
$IIMWV,060,T,11.3,N,A*10
$IIRMC,172139,A,3740.152,N,12221.090,W,06.1,192,090710,15,E,A*1A
$IIVHW,,,228,M,06.3,N,,*69
$IIVLW,00017,N,017.2,N*51
$IIVWR,040,R,15.3,N,,,,*62
$IIDPT,011.5,-1.0,*45
$IIGLL,3740.149,N,12221.091,W,172141,A,A*44
$IIHDG,229,,,15,E*1F
$IIMTW,+17.0,C*3E
$IIMWV,040,R,15.1,N,A*12
$IIMWV,061,T,11.0,N,A*12
$IIRMB,A,1.36,R,,OPMRNA  ,,,,,001.40,257,02.5,V,A*7E
$IIRMC,172141,A,3740.149,N,12221.091,W,06.1,191,090710,15,E,A*1D
$IIVHW,,,229,M,06.3,N,,*68
$IIVLW,00017,N,017.2,N*51
$IIVWR,040,R,15.5,N,,,,*64
$IIDPT,011.7,-1.0,*47
$IIGLL,3740.149,N,12221.091,W,172141,A,A*44
$IIHDG,229,,,15,E*1F
$IIMTW,+17.0,C*3E
$IIMWV,040,R,15.5,N,A*16
$IIMWV,061,T,10.9,N,A*1A
$IIRMC,172141,A,3740.149,N,12221.091,W,06.1,191,090710,15,E,A*1D
$IIVHW,,,229,M,06.4,N,,*6F
$IIVLW,00017,N,017.2,N*51
$IIVWR,039,R,15.3,N,,,,*6C
$IIDPT,009.6,-1.0,*4F
$IIGLL,3740.145,N,12221.092,W,172143,A,A*49
$IIHDG,229,,,15,E*1F
$IIMTW,+17.0,C*3E
$IIMWV,039,R,15.3,N,A*1E
$IIMWV,061,T,11.3,N,A*11
$IIRMB,A,1.36,R,,OPMRNA  ,,,,,001.40,258,02.4,V,A*70
$IIRMC,172143,A,3740.145,N,12221.092,W,05.9,192,090710,15,E,A*18
$IIVHW,,,228,M,06.4,N,,*6E
$IIVLW,00017,N,017.2,N*51
$IIVWR,038,R,14.7,N,,,,*68
$IIDPT,010.2,-1.0,*43
$IIGLL,3740.145,N,12221.092,W,172143,A,A*49
$IIHDG,228,,,15,E*1E
$IIMTW,+17.0,C*3E
$IIMWV,038,R,14.7,N,A*1A
$IIMWV,061,T,10.4,N,A*17
$IIRMB,A,1.36,R,,OPMRNA  ,,,,,001.40,258,02.5,V,A*71
$IIRMC,172145,A,3740.143,N,12221.092,W,06.1,192,090710,15,E,A*13
$IIVHW,,,228,M,06.4,N,,*6E
$IIVLW,00017,N,017.2,N*51
$IIVWR,039,R,14.8,N,,,,*66
$IIDPT,009.6,-1.0,*4F
$IIGLL,3740.143,N,12221.092,W,172145,A,A*49
$IIHDG,227,,,15,E*11
$IIMTW,+17.0,C*3E
$IIMWV,039,R,14.9,N,A*15
$IIMWV,062,T,10.5,N,A*15
$IIRMC,172145,A,3740.143,N,12221.092,W,06.1,192,090710,15,E,A*13
$IIVHW,,,227,M,06.4,N,,*61
$IIVLW,00017,N,017.2,N*51
$IIVWR,039,R,14.9,N,,,,*67
$IIDPT,011.7,-1.0,*47
$IIGLL,3740.141,N,12221.091,W,172147,A,A*4A
$IIHDG,226,,,15,E*10
$IIMTW,+17.0,C*3E
$IIMWV,039,R,14.5,N,A*19
$IIMWV,061,T,10.6,N,A*15
$IIRMB,A,1.36,R,,OPMRNA  ,,,,,001.40,258,02.6,V,A*72
$IIRMC,172147,A,3740.141,N,12221.091,W,06.2,193,090710,15,E,A*12
$IIVHW,,,226,M,06.4,N,,*60
$IIVLW,00017,N,017.2,N*51
$IIVWR,041,R,15.2,N,,,,*62
$IIDPT,011.9,-1.0,*49
$IIGLL,3740.141,N,12221.091,W,172147,A,A*4A
$IIHDG,227,,,15,E*11
$IIMTW,+17.0,C*3E
$IIMWV,041,R,15.2,N,A*10
$IIMWV,062,T,10.2,N,A*12
$IIRMC,172147,A,3740.141,N,12221.091,W,06.2,193,090710,15,E,A*12
$IIVHW,,,226,M,06.4,N,,*60
$IIVLW,00017,N,017.2,N*51
$IIVWR,041,R,14.7,N,,,,*66
$IIDPT,058.6,-1.0,*4B
$IIGLL,3740.137,N,12221.093,W,172149,A,A*47
$IIHDG,226,,,15,E*10
$IIMTW,+17.0,C*3E
$IIMWV,041,R,14.7,N,A*14
$IIMWV,064,T,11.1,N,A*16
$IIRMB,A,1.36,R,,OPMRNA  ,,,,,001.40,258,02.6,V,A*72
$IIRMC,172149,A,3740.137,N,12221.093,W,06.1,193,090710,15,E,A*1C
$IIVHW,,,225,M,06.4,N,,*63
$IIVLW,00017,N,017.2,N*51
$IIVWR,041,R,14.6,N,,,,*67
$IIDPT,058.6,-1.0,*4B
$IIGLL,3740.137,N,12221.093,W,172149,A,A*47
$IIHDG,225,,,15,E*13
$IIMTW,+17.0,C*3E
$IIMWV,041,R,14.6,N,A*15
$IIMWV,065,T,10.5,N,A*12
$IIRMB,A,1.36,R,,OPMRNA  ,,,,,001.40,258,02.5,V,A*71
$IIRMC,172151,A,3740.134,N,12221.094,W,06.1,192,090710,15,E,A*10
$IIVHW,,,226,M,06.4,N,,*60
$IIVLW,00017,N,017.2,N*51
$IIVWR,042,R,14.7,N,,,,*65
$IIDPT,058.6,-1.0,*4B
$IIGLL,3740.134,N,12221.094,W,172151,A,A*4A
$IIHDG,225,,,15,E*13
$IIMTW,+17.0,C*3E
$IIMWV,041,R,14.2,N,A*11
$IIMWV,066,T,10.7,N,A*13
$IIRMC,172151,A,3740.134,N,12221.094,W,06.1,192,090710,15,E,A*10
$IIVHW,,,225,M,06.4,N,,*63
$IIVLW,00017,N,017.2,N*51
$IIVWR,041,R,14.2,N,,,,*63
$IIDPT,010.5,-1.0,*44
$IIGLL,3740.131,N,12221.095,W,172153,A,A*4C
$IIHDG,225,,,15,E*13
$IIMTW,+17.0,C*3E
$IIMWV,040,R,14.5,N,A*17
$IIMWV,066,T,10.1,N,A*15
$IIRMB,A,1.36,R,,OPMRNA  ,,,,,001.40,258,02.4,V,A*70
$IIRMC,172153,A,3740.131,N,12221.095,W,06.0,192,090710,15,E,A*17
$IIVHW,,,225,M,06.4,N,,*63
$IIVLW,00017,N,017.2,N*51
$IIVWR,040,R,14.7,N,,,,*67
$IIDPT,007.5,-1.0,*42
$IIGLL,3740.131,N,12221.095,W,172153,A,A*4C
$IIHDG,225,,,15,E*13
$IIMTW,+17.0,C*3E
$IIMWV,040,R,14.7,N,A*15
$IIMWV,063,T,10.2,N,A*13
$IIRMC,172153,A,3740.131,N,12221.095,W,06.0,192,090710,15,E,A*17
$IIVHW,,,225,M,06.5,N,,*62
$IIVLW,00017,N,017.2,N*51
$IIVWR,041,R,14.3,N,,,,*62
$IIDPT,008.9,-1.0,*41
$IIGLL,3740.128,N,12221.097,W,172155,A,A*40
$IIHDG,225,,,15,E*13
$IIMTW,+17.0,C*3E
$IIMWV,041,R,14.3,N,A*10
$IIMWV,063,T,10.5,N,A*14
$IIRMB,A,1.36,R,,OPMRNA  ,,,,,001.40,258,02.4,V,A*70
$IIRMC,172155,A,3740.128,N,12221.097,W,06.0,192,090710,15,E,A*1B
$IIVHW,,,226,M,06.5,N,,*61
$IIVLW,00017,N,017.2,N*51
$IIVWR,040,R,14.6,N,,,,*66
$IIDPT,008.5,-1.0,*4D
$IIGLL,3740.128,N,12221.097,W,172155,A,A*40
$IIHDG,226,,,15,E*10
$IIMTW,+17.0,C*3E
$IIMWV,040,R,14.6,N,A*14
$IIMWV,064,T,10.3,N,A*15
$IIRMB,A,1.35,R,,OPMRNA  ,,,,,001.40,258,02.4,V,A*73
$IIRMC,172157,A,3740.124,N,12221.098,W,06.1,191,090710,15,E,A*18
$IIVHW,,,227,M,06.5,N,,*60
$IIVLW,00018,N,017.2,N*5E
$IIVWR,041,R,14.3,N,,,,*62
$IIDPT,007.8,-1.0,*4F
$IIGLL,3740.124,N,12221.098,W,172157,A,A*41
$IIHDG,227,,,15,E*11
$IIMTW,+17.0,C*3E
$IIMWV,040,R,15.3,N,A*10
$IIMWV,067,T,10.2,N,A*17
$IIRMC,172157,A,3740.124,N,12221.098,W,06.1,191,090710,15,E,A*18
$IIVHW,,,227,M,06.5,N,,*60
$IIVLW,00018,N,017.2,N*5E
$IIVWR,040,R,15.3,N,,,,*62
$IIDPT,008.5,-1.0,*4D
$IIGLL,3740.120,N,12221.099,W,172159,A,A*4A
$IIHDG,227,,,15,E*11
$IIMTW,+17.0,C*3E
$IIMWV,038,R,14.5,N,A*18
$IIMWV,062,T,11.0,N,A*11
$IIRMB,A,1.35,R,,OPMRNA  ,,,,,001.40,259,02.4,V,A*72
$IIRMC,172159,A,3740.120,N,12221.099,W,06.1,191,090710,15,E,A*13
$IIVHW,,,227,M,06.5,N,,*60
$IIVLW,00018,N,017.2,N*5E
$IIVWR,039,R,14.6,N,,,,*68
$IIDPT,008.5,-1.0,*4D
$IIGLL,3740.120,N,12221.099,W,172159,A,A*4A
$IIHDG,227,,,15,E*11
$IIMTW,+17.0,C*3E
$IIMWV,039,R,14.6,N,A*1A
$IIMWV,062,T,10.1,N,A*11
$IIRMC,172159,A,3740.120,N,12221.099,W,06.1,191,090710,15,E,A*13
$IIVHW,,,228,M,06.6,N,,*6C
$IIVLW,00018,N,017.2,N*5E
$IIVWR,040,R,14.6,N,,,,*66
$IIDPT,008.1,-1.0,*49
$IIGLL,3740.117,N,12221.099,W,172201,A,A*40
$IIHDG,228,,,15,E*1E
$IIMTW,+17.0,C*3E
$IIMWV,040,R,14.6,N,A*14
$IIMWV,063,T,10.2,N,A*13
$IIRMB,A,1.35,R,,OPMRNA  ,,,,,001.40,259,02.5,V,A*73
$IIRMC,172201,A,3740.117,N,12221.099,W,06.2,192,090710,15,E,A*19
$IIVHW,,,228,M,06.6,N,,*6C
$IIVLW,00018,N,017.2,N*5E
$IIVWR,042,R,15.5,N,,,,*66
$IIDPT,008.1,-1.0,*49
$IIGLL,3740.117,N,12221.099,W,172201,A,A*40
$IIHDG,228,,,15,E*1E
$IIMTW,+17.0,C*3E
$IIMWV,042,R,15.5,N,A*14
$IIMWV,065,T,11.3,N,A*15
$IIRMB,A,1.35,R,,OPMRNA  ,,,,,001.40,259,02.5,V,A*73
$IIRMC,172203,A,3740.114,N,12221.100,W,06.2,193,090710,15,E,A*18
$IIVHW,,,228,M,06.6,N,,*6C
$IIVLW,00018,N,017.2,N*5E
$IIVWR,042,R,15.8,N,,,,*6B
$IIDPT,008.2,-1.0,*4A
$IIGLL,3740.114,N,12221.100,W,172203,A,A*40
$IIHDG,228,,,15,E*1E
$IIMTW,+17.0,C*3E
$IIMWV,041,R,15.5,N,A*17
$IIMWV,065,T,11.6,N,A*10
$IIRMC,172203,A,3740.114,N,12221.100,W,06.2,193,090710,15,E,A*18
$IIVHW,,,228,M,06.6,N,,*6C
$IIVLW,00018,N,017.2,N*5E
$IIVWR,041,R,15.5,N,,,,*65
$IIDPT,008.3,-1.0,*4B
$IIGLL,3740.111,N,12221.101,W,172205,A,A*42
$IIHDG,228,,,15,E*1E
$IIMTW,+17.0,C*3E
$IIMWV,040,R,14.7,N,A*15
$IIMWV,064,T,11.3,N,A*14
$IIRMB,A,1.35,R,,OPMRNA  ,,,,,001.40,259,02.5,V,A*73
$IIRMC,172205,A,3740.111,N,12221.101,W,06.1,193,090710,15,E,A*19
$IIVHW,,,228,M,06.6,N,,*6C
$IIVLW,00018,N,017.2,N*5E
$IIVWR,041,R,15.4,N,,,,*64
$IIDPT,008.5,-1.0,*4D
$IIGLL,3740.111,N,12221.101,W,172205,A,A*42
$IIHDG,228,,,15,E*1E
$IIMTW,+17.0,C*3E
$IIMWV,041,R,15.4,N,A*16
$IIMWV,063,T,10.5,N,A*14
$IIRMC,172205,A,3740.111,N,12221.101,W,06.1,193,090710,15,E,A*19
$IIVHW,,,229,M,06.6,N,,*6D
$IIVLW,00018,N,017.2,N*5E
$IIVWR,042,R,15.3,N,,,,*60
$IIDPT,056.4,-1.0,*47
$IIGLL,3740.107,N,12221.102,W,172207,A,A*44
$IIHDG,229,,,15,E*1F
$IIMTW,+17.0,C*3E
$IIMWV,042,R,15.3,N,A*12
$IIMWV,064,T,11.2,N,A*15
$IIRMB,A,1.35,R,,OPMRNA  ,,,,,001.40,259,02.5,V,A*73
$IIRMC,172207,A,3740.107,N,12221.102,W,06.1,193,090710,15,E,A*1F
$IIVHW,,,229,M,06.6,N,,*6D
$IIVLW,00018,N,017.2,N*5E
$IIVWR,044,R,15.7,N,,,,*62
$IIDPT,008.6,-1.0,*4E
$IIGLL,3740.107,N,12221.102,W,172207,A,A*44
$IIHDG,229,,,15,E*1F
$IIMTW,+17.0,C*3E
$IIMWV,044,R,15.7,N,A*10
$IIMWV,067,T,11.7,N,A*13
$IIRMC,172209,A,3740.103,N,12221.104,W,06.2,193,090710,15,E,A*10
$IIVHW,,,229,M,06.6,N,,*6D
$IIVLW,00018,N,017.2,N*5E
$IIVWR,043,R,15.8,N,,,,*6A
$IIDPT,056.4,-1.0,*47
$IIGLL,3740.103,N,12221.104,W,172209,A,A*48
$IIHDG,229,,,15,E*1F
$IIMTW,+17.0,C*3E
$IIMWV,043,R,15.4,N,A*14
$IIMWV,066,T,11.7,N,A*12
$IIRMC,172209,A,3740.103,N,12221.104,W,06.2,193,090710,15,E,A*10
$IIVHW,,,228,M,06.6,N,,*6C
$IIVLW,00018,N,017.2,N*5E
$IIVWR,043,R,15.4,N,,,,*66
$IIDPT,056.4,-1.0,*47
$IIGLL,3740.103,N,12221.104,W,172209,A,A*48
$IIHDG,228,,,15,E*1E
$IIMTW,+17.0,C*3E
$IIMWV,043,R,14.6,N,A*17
$IIMWV,067,T,11.3,N,A*17
$IIRMB,A,1.35,R,,OPMRNA  ,,,,,001.40,259,02.5,V,A*73
$IIRMC,172211,A,3740.100,N,12221.104,W,06.1,193,090710,15,E,A*19
$IIVHW,,,228,M,06.6,N,,*6C
$IIVLW,00018,N,017.2,N*5E
$IIVWR,043,R,14.6,N,,,,*65
$IIDPT,031.3,-1.0,*41
$IIGLL,3740.100,N,12221.104,W,172211,A,A*42
$IIHDG,228,,,15,E*1E
$IIMTW,+17.0,C*3E
$IIMWV,042,R,14.7,N,A*17
$IIMWV,069,T,10.6,N,A*1D
$IIRMC,172211,A,3740.100,N,12221.104,W,06.1,193,090710,15,E,A*19
$IIVHW,,,228,M,06.6,N,,*6C
$IIVLW,00018,N,017.2,N*5E
$IIVWR,042,R,14.7,N,,,,*65
$IIDPT,031.3,-1.0,*41
$IIGLL,3740.096,N,12221.106,W,172213,A,A*4C
$IIHDG,228,,,15,E*1E
$IIMTW,+17.0,C*3E
$IIMWV,042,R,14.9,N,A*19
$IIMWV,067,T,10.6,N,A*13
$IIRMB,A,1.35,R,,OPMRNA  ,,,,,001.40,259,02.4,V,A*72
$IIRMC,172213,A,3740.096,N,12221.106,W,06.1,193,090710,15,E,A*17
$IIVHW,,,228,M,06.5,N,,*6F
$IIVLW,00018,N,017.2,N*5E
$IIVWR,042,R,14.3,N,,,,*61
$IIDPT,031.3,-1.0,*41
$IIGLL,3740.096,N,12221.106,W,172213,A,A*4C
$IIHDG,228,,,15,E*1E
$IIMTW,+17.0,C*3E
$IIMWV,042,R,14.3,N,A*13
$IIMWV,066,T,10.8,N,A*1C
$IIRMC,172215,A,3740.092,N,12221.107,W,06.2,193,090710,15,E,A*17
$IIVHW,,,228,M,06.6,N,,*6C
$IIVLW,00018,N,017.2,N*5E
$IIVWR,042,R,14.7,N,,,,*65
$IIDPT,009.0,-1.0,*49
$IIGLL,3740.092,N,12221.107,W,172215,A,A*4F
$IIHDG,228,,,15,E*1E
$IIMTW,+17.0,C*3E
$IIMWV,042,R,14.7,N,A*17
$IIMWV,067,T,10.6,N,A*13
$IIRMB,A,1.35,R,,OPMRNA  ,,,,,001.40,260,02.5,V,A*79
$IIRMC,172215,A,3740.092,N,12221.107,W,06.2,193,090710,15,E,A*17
$IIVHW,,,228,M,06.6,N,,*6C
$IIVLW,00018,N,017.2,N*5E
$IIVWR,041,R,14.8,N,,,,*69
$IIDPT,007.6,-1.0,*41
$IIGLL,3740.092,N,12221.107,W,172215,A,A*4F
$IIHDG,229,,,15,E*1F
$IIMTW,+17.0,C*3E
$IIMWV,039,R,14.3,N,A*1F
$IIMWV,065,T,10.6,N,A*11
$IIRMB,A,1.35,R,,OPMRNA  ,,,,,001.40,260,02.5,V,A*79
$IIRMC,172217,A,3740.089,N,12221.108,W,06.3,193,090710,15,E,A*11
$IIVHW,,,229,M,06.6,N,,*6D
$IIVLW,00018,N,017.2,N*5E
$IIVWR,039,R,14.3,N,,,,*6D
$IIDPT,007.4,-1.0,*43
$IIGLL,3740.089,N,12221.108,W,172217,A,A*48
$IIHDG,229,,,15,E*1F
$IIMTW,+17.0,C*3E
$IIMWV,041,R,14.0,N,A*13
$IIMWV,064,T,10.0,N,A*16
$IIRMC,172217,A,3740.089,N,12221.108,W,06.3,193,090710,15,E,A*11
$IIVHW,,,229,M,06.6,N,,*6D
$IIVLW,00018,N,017.2,N*5E
$IIVWR,042,R,14.9,N,,,,*6B
$IIDPT,009.7,-1.0,*4E
$IIGLL,3740.086,N,12221.108,W,172219,A,A*49
$IIHDG,229,,,15,E*1F
$IIMTW,+17.0,C*3E
$IIMWV,042,R,14.9,N,A*19
$IIMWV,066,T,10.3,N,A*17
$IIRMB,A,1.35,R,,OPMRNA  ,,,,,001.40,260,02.4,V,A*78
$IIRMC,172221,A,3740.082,N,12221.109,W,06.1,192,090710,15,E,A*1D
$IIVHW,,,229,M,06.5,N,,*6E
$IIVLW,00018,N,017.2,N*5E
$IIVWR,041,R,14.4,N,,,,*65
$IIDPT,010.9,-1.0,*48
$IIGLL,3740.082,N,12221.109,W,172221,A,A*47
$IIHDG,229,,,15,E*1F
$IIMTW,+17.0,C*3E
$IIMWV,041,R,14.4,N,A*17
$IIMWV,066,T,10.3,N,A*17
$IIRMB,A,1.35,R,,OPMRNA  ,,,,,001.40,260,02.3,V,A*7F
$IIRMC,172221,A,3740.082,N,12221.109,W,06.1,192,090710,15,E,A*1D
$IIVHW,,,229,M,06.5,N,,*6E
$IIVLW,00018,N,017.2,N*5E
$IIVWR,042,R,14.2,N,,,,*60
$IIDPT,009.3,-1.0,*4A
$IIGLL,3740.082,N,12221.109,W,172221,A,A*47
$IIHDG,229,,,15,E*1F
$IIMTW,+17.0,C*3E
$IIMWV,042,R,14.6,N,A*16
$IIMWV,068,T,10.2,N,A*18
$IIRMB,A,1.34,R,,OPMRNA  ,,,,,001.40,260,02.3,V,A*7E
$IIRMC,172223,A,3740.078,N,12221.110,W,06.1,192,090710,15,E,A*12
$IIVHW,,,229,M,06.6,N,,*6D
$IIVLW,00018,N,017.2,N*5E
$IIVWR,042,R,14.6,N,,,,*64
$IIDPT,007.7,-1.0,*40
$IIGLL,3740.078,N,12221.110,W,172223,A,A*48
$IIHDG,228,,,15,E*1E
$IIMTW,+17.0,C*3E
$IIMWV,042,R,14.7,N,A*17
$IIMWV,067,T,10.5,N,A*10
$IIRMC,172223,A,3740.078,N,12221.110,W,06.1,192,090710,15,E,A*12
$IIVHW,,,228,M,06.6,N,,*6C
$IIVLW,00018,N,017.2,N*5E
$IIVWR,043,R,14.9,N,,,,*6A
$IIDPT,007.7,-1.0,*40
$IIGLL,3740.075,N,12221.111,W,172225,A,A*42
$IIHDG,228,,,15,E*1E
$IIMTW,+17.0,C*3E
$IIMWV,043,R,14.9,N,A*18
$IIMWV,067,T,10.6,N,A*13
$IIRMB,A,1.34,R,,OPMRNA  ,,,,,001.40,260,02.3,V,A*7E
$IIRMC,172225,A,3740.075,N,12221.111,W,06.2,192,090710,15,E,A*1B
$IIVHW,,,228,M,06.7,N,,*6D
$IIVLW,00018,N,017.2,N*5E
$IIVWR,043,R,14.6,N,,,,*65
$IIDPT,064.8,-1.0,*4A
$IIGLL,3740.075,N,12221.111,W,172225,A,A*42
$IIHDG,228,,,15,E*1E
$IIMTW,+17.0,C*3E
$IIMWV,043,R,14.6,N,A*17
$IIMWV,069,T,10.6,N,A*1D
$IIRMB,A,1.34,R,,OPMRNA  ,,,,,001.40,260,02.4,V,A*79
$IIRMC,172227,A,3740.072,N,12221.112,W,06.3,193,090710,15,E,A*1D
$IIVHW,,,228,M,06.7,N,,*6D
$IIVLW,00018,N,017.2,N*5E
$IIVWR,043,R,14.7,N,,,,*64
$IIDPT,064.8,-1.0,*4A
$IIGLL,3740.072,N,12221.112,W,172227,A,A*44
$IIHDG,229,,,15,E*1F
$IIMTW,+17.0,C*3E
$IIMWV,042,R,14.8,N,A*18
$IIMWV,068,T,10.6,N,A*1C
$IIRMC,172227,A,3740.072,N,12221.112,W,06.3,193,090710,15,E,A*1D
$IIVHW,,,229,M,06.7,N,,*6C
$IIVLW,00018,N,017.3,N*5F
$IIVWR,042,R,14.8,N,,,,*6A
$IIDPT,046.4,-1.0,*46
$IIGLL,3740.068,N,12221.114,W,172229,A,A*47
$IIHDG,229,,,15,E*1F
$IIMTW,+17.0,C*3E
$IIMWV,042,R,14.9,N,A*19
$IIMWV,067,T,10.7,N,A*12
$IIRMB,A,1.34,R,,OPMRNA  ,,,,,001.40,261,02.3,V,A*7F
$IIRMC,172229,A,3740.068,N,12221.114,W,06.3,193,090710,15,E,A*1E
$IIVHW,,,229,M,06.7,N,,*6C
$IIVLW,00018,N,017.3,N*5F
$IIVWR,042,R,15.0,N,,,,*63
$IIDPT,046.4,-1.0,*46
$IIGLL,3740.068,N,12221.114,W,172229,A,A*47
$IIHDG,229,,,15,E*1F
$IIMTW,+17.0,C*3E
$IIMWV,042,R,15.0,N,A*11
$IIMWV,067,T,10.7,N,A*12
$IIRMC,172229,A,3740.068,N,12221.114,W,06.3,193,090710,15,E,A*1E
$IIVHW,,,229,M,06.6,N,,*6D
$IIVLW,00018,N,017.3,N*5F
$IIVWR,042,R,14.6,N,,,,*64
$IIDPT,034.0,-1.0,*47
$IIGLL,3740.065,N,12221.115,W,172231,A,A*42
$IIHDG,229,,,15,E*1F
$IIMTW,+17.0,C*3E
$IIMWV,042,R,14.6,N,A*16
$IIMWV,066,T,10.9,N,A*1D
$IIRMB,A,1.34,R,,OPMRNA  ,,,,,001.40,261,02.3,V,A*7F
$IIRMC,172231,A,3740.065,N,12221.115,W,06.3,192,090710,15,E,A*1A
$IIVHW,,,230,M,06.6,N,,*65
$IIVLW,00018,N,017.3,N*5F
$IIVWR,042,R,14.8,N,,,,*6A
$IIDPT,034.0,-1.0,*47
$IIGLL,3740.065,N,12221.115,W,172231,A,A*42
$IIHDG,230,,,15,E*17
$IIMTW,+17.0,C*3E
$IIMWV,042,R,14.8,N,A*18
$IIMWV,067,T,10.7,N,A*12
$IIRMB,A,1.34,R,,OPMRNA  ,,,,,001.40,261,02.5,V,A*79
$IIRMC,172233,A,3740.061,N,12221.116,W,06.5,193,090710,15,E,A*18
$IIVHW,,,231,M,06.6,N,,*64
$IIVLW,00018,N,017.3,N*5F
$IIVWR,042,R,14.9,N,,,,*6B
$IIDPT,013.9,-1.0,*4B
$IIGLL,3740.061,N,12221.116,W,172233,A,A*47
$IIHDG,233,,,15,E*14
$IIMTW,+17.0,C*3E
$IIMWV,042,R,14.6,N,A*16
$IIMWV,067,T,10.7,N,A*12
$IIRMC,172233,A,3740.061,N,12221.116,W,06.5,193,090710,15,E,A*18
$IIVHW,,,233,M,06.6,N,,*66
$IIVLW,00018,N,017.3,N*5F
$IIVWR,042,R,14.6,N,,,,*64
$IIDPT,011.5,-1.0,*45
$IIGLL,3740.058,N,12221.116,W,172235,A,A*4B
$IIHDG,233,,,15,E*14
$IIMTW,+17.0,C*3E
$IIMWV,041,R,14.7,N,A*14
$IIMWV,067,T,10.5,N,A*10
$IIRMB,A,1.34,R,,OPMRNA  ,,,,,001.40,261,02.4,V,A*78
$IIRMC,172235,A,3740.058,N,12221.116,W,06.4,193,090710,15,E,A*15
$IIVHW,,,233,M,06.6,N,,*66
$IIVLW,00018,N,017.3,N*5F
$IIVWR,041,R,14.8,N,,,,*69
$IIDPT,008.5,-1.0,*4D
$IIGLL,3740.058,N,12221.116,W,172235,A,A*4B
$IIHDG,232,,,15,E*15
$IIMTW,+17.0,C*3E
$IIMWV,041,R,14.8,N,A*1B
$IIMWV,066,T,10.6,N,A*12
$IIRMC,172235,A,3740.058,N,12221.116,W,06.4,193,090710,15,E,A*15
$IIVHW,,,232,M,06.7,N,,*66
$IIVLW,00018,N,017.3,N*5F
$IIVWR,042,R,14.9,N,,,,*6B
$IIDPT,008.6,-1.0,*4E
$IIGLL,3740.055,N,12221.118,W,172237,A,A*4A
$IIHDG,232,,,15,E*15
$IIMTW,+17.0,C*3E
$IIMWV,042,R,14.9,N,A*19
$IIMWV,065,T,10.6,N,A*11
$IIRMB,A,1.34,R,,OPMRNA  ,,,,,001.40,261,02.4,V,A*78
$IIRMC,172237,A,3740.055,N,12221.118,W,06.3,193,090710,15,E,A*13
$IIVHW,,,232,M,06.7,N,,*66
$IIVLW,00018,N,017.3,N*5F
$IIVWR,043,R,15.3,N,,,,*61
$IIDPT,008.5,-1.0,*4D
$IIGLL,3740.055,N,12221.118,W,172237,A,A*4A
$IIHDG,232,,,15,E*15
$IIMTW,+17.0,C*3E
$IIMWV,043,R,15.3,N,A*13
$IIMWV,067,T,11.2,N,A*16
$IIRMB,A,1.34,R,,OPMRNA  ,,,,,001.40,261,02.5,V,A*79
$IIRMC,172238,A,3740.052,N,12221.119,W,06.3,195,090710,15,E,A*1C
$IIVHW,,,231,M,06.7,N,,*65
$IIVLW,00018,N,017.3,N*5F
$IIVWR,044,R,14.8,N,,,,*6C
$IIDPT,008.6,-1.0,*4E
$IIGLL,3740.052,N,12221.119,W,172238,A,A*43
$IIHDG,230,,,15,E*17
$IIMTW,+17.0,C*3E
$IIMWV,044,R,14.8,N,A*1E
$IIMWV,070,T,10.8,N,A*1B
$IIRMC,172239,A,3740.051,N,12221.120,W,06.3,195,090710,15,E,A*14
$IIVHW,,,230,M,06.7,N,,*64
$IIVLW,00018,N,017.3,N*5F
$IIVWR,044,R,14.8,N,,,,*6C
$IIDPT,008.3,-1.0,*4B
$IIGLL,3740.048,N,12221.121,W,172240,A,A*4C
$IIHDG,229,,,15,E*1F
$IIMTW,+17.0,C*3E
$IIMWV,044,R,14.9,N,A*1F
$IIMWV,070,T,10.8,N,A*1B
$IIRMB,A,1.34,R,,OPMRNA  ,,,,,001.40,261,02.7,V,A*7B
$IIRMC,172240,A,3740.048,N,12221.121,W,06.3,197,090710,15,E,A*11
$IIVHW,,,229,M,06.7,N,,*6C
$IIVLW,00018,N,017.3,N*5F
$IIVWR,044,R,14.6,N,,,,*62
$IIDPT,008.6,-1.0,*4E
