$GPGGA,161101.252,3719.8906,N,12143.0604,W,1,03,6.7,-0.0,M,,,,0000*3D
$GPGSA,A,2,30,07,08,,,,,,,,,,6.7,6.7,0.0*3F
$GPRMC,161101.252,A,3719.8906,N,12143.0604,W,000.0,000.0,170617,,,A*75
$GPGGA,161102.252,3719.8900,N,12143.0606,W,1,03,20.0,0.4,M,,,,0000*20
$GPGSA,A,2,30,07,08,,,,,,,,,,20.0,20.0,20.0*0D
$GPRMC,161102.252,A,3719.8900,N,12143.0606,W,002.1,190.5,170617,,,A*7C
$GPGGA,161103.252,3719.8902,N,12143.0605,W,1,03,20.0,0.3,M,,,,0000*27
$GPGSA,A,2,30,07,08,,,,,,,,,,20.0,20.0,20.0*0D
$GPGSV,3,1,10,30,64,334,41,07,58,063,43,08,33,057,38,09,00,000,25*7D
$GPGSV,3,2,10,11,00,000,24,27,00,000,24,28,00,000,40,05,00,000,35*71
$GPGSV,3,3,10,23,00,000,32,20,02,320,*79
$GPRMC,161103.252,A,3719.8902,N,12143.0605,W,001.5,196.3,170617,,,A*7B
$GPGGA,161104.252,3719.8901,N,12143.0606,W,1,03,20.0,0.3,M,,,,0000*20
$GPGSA,A,2,30,07,08,,,,,,,,,,20.0,20.0,20.0*0D
$GPRMC,161104.252,A,3719.8901,N,12143.0606,W,000.9,208.8,170617,,,A*7E
$GPGGA,161105.252,3719.8901,N,12143.0607,W,1,03,20.0,0.2,M,,,,0000*21
$GPGSA,A,2,30,07,08,,,,,,,,,,20.0,20.0,20.0*0D
$GPRMC,161105.252,A,3719.8901,N,12143.0607,W,000.0,208.8,170617,,,A*77
$GPGGA,161106.252,3719.8902,N,12143.0606,W,1,03,20.0,0.1,M,,,,0000*23
$GPGSA,A,2,30,07,08,,,,,,,,,,20.0,20.0,20.0*0D
$GPGSV,3,1,10,30,64,334,44,07,58,063,45,08,33,057,38,09,00,000,31*7B
$GPGSV,3,2,10,11,00,000,30,27,00,000,28,28,00,000,36,05,00,000,45*7E
$GPGSV,3,3,10,23,00,000,27,20,02,320,*7D
$GPRMC,161106.252,A,3719.8902,N,12143.0606,W,000.0,208.8,170617,,,A*76
$GPGGA,161107.252,3719.8904,N,12143.0605,W,1,03,20.0,0.0,M,,,,0000*26
$GPGSA,A,2,30,07,08,,,,,,,,,,20.0,20.0,20.0*0D
$GPRMC,161107.252,A,3719.8904,N,12143.0605,W,000.0,208.8,170617,,,A*72
$GPGGA,161108.252,3719.8905,N,12143.0605,W,1,03,20.0,-0.0,M,,,,0000*05
$GPGSA,A,2,30,07,08,,,,,,,,,,20.0,20.0,20.0*0D
$GPRMC,161108.252,A,3719.8905,N,12143.0605,W,000.0,208.8,170617,,,A*7C
$GPGGA,161109.252,3719.8903,N,12143.0606,W,1,03,20.0,0.1,M,,,,0000*2D
$GPGSA,A,2,30,07,08,,,,,,,,,,20.0,20.0,20.0*0D
$GPGSV,3,1,10,30,64,334,42,07,58,063,42,08,33,057,41,09,00,000,37*72
$GPGSV,3,2,10,11,00,000,33,27,00,000,28,28,00,000,34,05,00,000,45*7F
$GPGSV,3,3,10,23,00,000,33,20,02,320,*78
$GPRMC,161109.252,A,3719.8903,N,12143.0606,W,000.0,208.8,170617,,,A*78
$GPGGA,161110.252,3719.8904,N,12143.0607,W,1,03,20.0,0.0,M,,,,0000*22
$GPGSA,A,2,30,07,08,,,,,,,,,,20.0,20.0,20.0*0D
$GPRMC,161110.252,A,3719.8904,N,12143.0607,W,000.0,208.8,170617,,,A*76
$GPGGA,161111.252,3719.8905,N,12143.0607,W,1,03,20.0,-0.0,M,,,,0000*0F
$GPGSA,A,2,30,07,08,,,,,,,,,,20.0,20.0,20.0*0D
$GPRMC,161111.252,A,3719.8905,N,12143.0607,W,000.0,208.8,170617,,,A*76
$GPGGA,161112.252,3719.8904,N,12143.0607,W,1,03,20.0,0.0,M,,,,0000*20
$GPGSA,A,2,30,07,08,,,,,,,,,,20.0,20.0,20.0*0D
$GPGSV,3,1,10,30,64,334,45,07,58,063,45,08,33,057,41,09,00,000,33*76
$GPGSV,3,2,10,11,00,000,25,27,00,000,27,28,00,000,31,05,00,000,43*74
$GPGSV,3,3,10,23,06,148,24,20,02,320,*75
$GPRMC,161112.252,A,3719.8904,N,12143.0607,W,000.0,208.8,170617,,,A*74
$GPGGA,161113.252,3719.8904,N,12143.0607,W,1,03,20.0,-0.0,M,,,,0000*0C
$GPGSA,A,2,30,07,08,,,,,,,,,,20.0,20.0,20.0*0D
$GPRMC,161113.252,A,3719.8904,N,12143.0607,W,000.0,208.8,170617,,,A*75
$GPGGA,161114.252,3719.8904,N,12143.0606,W,1,03,20.0,-0.0,M,,,,0000*0A
$GPGSA,A,2,30,07,08,,,,,,,,,,20.0,20.0,20.0*0D
$GPRMC,161114.252,A,3719.8904,N,12143.0606,W,000.0,208.8,170617,,,A*73
$GPGGA,161115.252,3719.8902,N,12143.0607,W,1,03,20.0,0.0,M,,,,0000*21
$GPGSA,A,2,30,07,08,,,,,,,,,,20.0,20.0,20.0*0D
$GPGSV,3,1,10,30,64,334,42,07,58,063,44,08,33,057,45,09,00,000,30*77
$GPGSV,3,2,10,11,00,000,25,27,00,000,25,28,00,000,39,05,00,000,46*7B
$GPGSV,3,3,10,23,06,148,28,20,02,320,*79
$GPRMC,161115.252,A,3719.8902,N,12143.0607,W,000.8,040.8,170617,,,A*73
$GPGGA,161116.252,3719.8902,N,12143.0607,W,1,03,20.0,0.1,M,,,,0000*23
$GPGSA,A,2,30,07,08,,,,,,,,,,20.0,20.0,20.0*0D
$GPRMC,161116.252,A,3719.8902,N,12143.0607,W,000.0,040.8,170617,,,A*78
$GPGGA,161117.252,3719.8902,N,12143.0607,W,1,03,20.0,0.2,M,,,,0000*21
$GPGSA,A,2,30,07,08,,,,,,,,,,20.0,20.0,20.0*0D
$GPRMC,161117.252,A,3719.8902,N,12143.0607,W,000.9,302.5,170617,,,A*78
$GPGGA,161118.252,3719.8902,N,12143.0608,W,1,03,20.0,0.2,M,,,,0000*21
$GPGSA,A,2,30,07,08,,,,,,,,,,20.0,20.0,20.0*0D
$GPGSV,3,1,10,30,64,334,45,07,58,064,33,08,33,057,34,09,00,000,40*76
$GPGSV,3,2,10,11,00,000,25,27,00,000,28,28,00,000,39,05,00,000,33*74
$GPGSV,3,3,10,23,06,148,27,20,02,320,*76
$GPRMC,161118.252,A,3719.8902,N,12143.0608,W,001.3,295.0,170617,,,A*79
$GPGGA,161119.252,3719.8902,N,12143.0609,W,1,03,20.0,0.1,M,,,,0000*22
$GPGSA,A,2,30,07,08,,,,,,,,,,20.0,20.0,20.0*0D
$GPRMC,161119.252,A,3719.8902,N,12143.0609,W,001.6,294.6,170617,,,A*7B
$GPGGA,161120.252,3719.8903,N,12143.0615,W,1,03,20.0,-0.3,M,,,,0000*0B
$GPGSA,A,2,30,07,08,,,,,,,,,,20.0,20.0,20.0*0D
$GPRMC,161120.252,A,3719.8903,N,12143.0615,W,001.6,294.5,170617,,,A*7E
$GPGGA,161121.252,3719.8903,N,12143.0615,W,1,00,20.0,-0.5,M,,,,0000*0F
$GPGSA,A,2,,,,,,,,,,,,,20.0,20.0,20.0*01
$GPGSV,3,1,10,30,64,334,40,07,58,064,30,08,33,057,22,09,00,000,43*74
$GPGSV,3,2,10,11,00,000,24,27,00,000,24,28,00,000,39,05,00,000,40*7D
$GPGSV,3,3,10,23,06,148,30,20,02,320,*70
$GPRMC,161121.252,A,3719.8903,N,12143.0615,W,001.6,294.5,170617,,,A*7F
$GPGGA,161122.252,3719.8907,N,12143.0623,W,1,03,20.0,-1.2,M,,,,0000*08
$GPGSA,A,2,30,07,08,,,,,,,,,,20.0,20.0,20.0*0D
$GPRMC,161122.252,A,3719.8907,N,12143.0623,W,001.6,295.0,170617,,,A*79
$GPGGA,161123.252,3719.8905,N,12143.0624,W,1,03,20.0,-1.1,M,,,,0000*0F
$GPGSA,A,2,30,07,08,,,,,,,,,,20.0,20.0,20.0*0D
$GPRMC,161123.252,A,3719.8905,N,12143.0624,W,001.0,293.0,170617,,,A*7D
$GPGGA,161124.252,3719.8903,N,12143.0627,W,1,03,20.0,-2.0,M,,,,0000*0F
$GPGSA,A,2,30,07,08,,,,,,,,,,20.0,20.0,20.0*0D
$GPGSV,3,1,10,30,64,334,38,07,58,064,46,08,33,057,39,09,00,000,42*71
$GPGSV,3,2,10,11,00,000,25,27,00,000,31,28,00,000,40,05,00,000,32*73
$GPGSV,3,3,10,23,06,148,32,20,02,320,*72
$GPRMC,161124.252,A,3719.8903,N,12143.0627,W,000.0,293.0,170617,,,A*7E
$GPGGA,161125.252,3719.8908,N,12143.0627,W,1,03,20.0,-2.2,M,,,,0000*07
$GPGSA,A,2,30,07,08,,,,,,,,,,20.0,20.0,20.0*0D
$GPRMC,161125.252,A,3719.8908,N,12143.0627,W,000.0,293.0,170617,,,A*74
$GPGGA,161126.252,3719.8905,N,12143.0628,W,1,03,20.0,-1.8,M,,,,0000*0F
$GPGSA,A,2,30,07,08,,,,,,,,,,20.0,20.0,20.0*0D
$GPRMC,161126.252,A,3719.8905,N,12143.0628,W,000.0,293.0,170617,,,A*75
$GPGGA,161127.252,3719.8904,N,12143.0628,W,1,03,20.0,-1.7,M,,,,0000*00
$GPGSA,A,2,30,07,08,,,,,,,,,,20.0,20.0,20.0*0D
$GPGSV,3,1,10,30,64,334,33,07,58,064,41,08,33,057,39,09,00,000,40*7F
$GPGSV,3,2,10,11,00,000,28,27,00,000,24,28,00,000,39,05,00,000,28*7F
$GPGSV,3,3,10,23,06,148,32,20,02,320,*72
$GPRMC,161127.252,A,3719.8904,N,12143.0628,W,000.0,293.0,170617,,,A*75
$GPGGA,161128.252,3719.8904,N,12143.0630,W,1,03,20.0,-1.5,M,,,,0000*04
$GPGSA,A,2,30,07,08,,,,,,,,,,20.0,20.0,20.0*0D
$GPRMC,161128.252,A,3719.8904,N,12143.0630,W,000.0,293.0,170617,,,A*73
$GPGGA,161129.252,3719.8903,N,12143.0630,W,1,03,20.0,-1.4,M,,,,0000*03
$GPGSA,A,2,30,07,08,,,,,,,,,,20.0,20.0,20.0*0D
$GPRMC,161129.252,A,3719.8903,N,12143.0630,W,000.0,293.0,170617,,,A*75
$GPGGA,161130.252,3720.1694,N,12143.0886,W,1,04,2.6,26.5,M,,,,0000*22
$GPGSA,A,3,30,07,08,09,,,,,,,,,5.9,2.6,5.3*39
$GPGSV,3,1,10,30,64,334,32,07,58,064,42,08,33,057,37,09,36,158,38*75
$GPGSV,3,2,10,11,00,000,25,27,00,000,25,28,00,000,34,05,00,000,27*71
$GPGSV,3,3,10,23,06,148,28,20,02,320,*79
$GPRMC,161130.252,A,3720.1694,N,12143.0886,W,000.0,293.0,170617,,,A*7C
$GPGGA,161131.252,3720.1566,N,12143.0336,W,1,05,2.3,88.9,M,,,,0000*21
$GPGSA,A,3,30,07,08,09,28,,,,,,,,5.7,2.3,5.2*39
$GPRMC,161131.252,A,3720.1566,N,12143.0336,W,001.9,167.3,170617,,,A*70
$GPGGA,161132.252,3720.1539,N,12143.0187,W,1,05,2.3,130.6,M,,,,0000*1D
$GPGSA,A,3,30,07,08,09,28,,,,,,,,5.7,2.3,5.2*39
$GPRMC,161132.252,A,3720.1539,N,12143.0187,W,002.0,156.4,170617,,,A*7E
$GPGGA,161133.252,3720.1544,N,12143.0169,W,1,05,2.3,136.4,M,,,,0000*12
$GPGSA,A,3,30,07,08,09,28,,,,,,,,5.7,2.3,5.2*39
$GPGSV,3,1,10,30,64,334,42,07,58,064,39,08,33,057,29,09,36,158,38*71
$GPGSV,3,2,10,11,00,000,24,27,00,000,34,28,63,248,41,05,00,000,23*7D
$GPGSV,3,3,10,23,06,148,32,20,02,320,*72
$GPRMC,161133.252,A,3720.1544,N,12143.0169,W,001.1,135.3,170617,,,A*75
$GPGGA,161134.252,3720.1539,N,12143.0154,W,1,05,2.3,143.8,M,,,,0000*1F
$GPGSA,A,3,30,07,08,09,28,,,,,,,,5.7,2.3,5.2*39
$GPRMC,161134.252,A,3720.1539,N,12143.0154,W,000.0,135.3,170617,,,A*76
$GPGGA,161135.252,3720.1537,N,12143.0146,W,1,05,2.3,149.2,M,,,,0000*13
$GPGSA,A,3,30,07,08,09,28,,,,,,,,5.7,2.3,5.2*39
$GPRMC,161135.252,A,3720.1537,N,12143.0146,W,000.8,116.3,170617,,,A*73
$GPGGA,161136.252,3720.1542,N,12143.0140,W,1,05,2.3,152.9,M,,,,0000*15
$GPGSA,A,3,30,07,08,09,28,,,,,,,,5.7,2.3,5.2*39
$GPGSV,3,1,10,30,64,334,41,07,58,064,42,08,33,057,34,09,36,158,38*72
$GPGSV,3,2,10,11,00,000,28,27,00,000,40,28,63,248,41,05,00,000,28*79
$GPGSV,3,3,10,23,06,148,35,20,02,320,*75
$GPRMC,161136.252,A,3720.1542,N,12143.0140,W,000.0,116.3,170617,,,A*7C
$GPGGA,161137.252,3720.1545,N,12143.0135,W,1,05,2.3,157.3,M,,,,0000*1E
$GPGSA,A,3,30,07,08,09,28,,,,,,,,5.7,2.3,5.2*39
$GPRMC,161137.252,A,3720.1545,N,12143.0135,W,000.0,116.3,170617,,,A*78
$GPGGA,161138.252,3720.1545,N,12143.0135,W,1,05,2.3,157.6,M,,,,0000*14
$GPGSA,A,3,30,07,08,09,28,,,,,,,,5.7,2.3,5.2*39
$GPRMC,161138.252,A,3720.1545,N,12143.0135,W,000.0,116.3,170617,,,A*77
$GPGGA,161139.252,3720.1544,N,12143.0134,W,1,05,2.3,157.9,M,,,,0000*1A
$GPGSA,A,3,30,07,08,09,28,,,,,,,,5.7,2.3,5.2*39
$GPGSV,3,1,10,30,64,334,42,07,58,064,41,08,33,057,36,09,36,158,38*70
$GPGSV,3,2,10,11,00,000,27,27,00,000,40,28,63,249,42,05,00,000,34*79
$GPGSV,3,3,10,23,06,148,34,20,02,320,*74
$GPRMC,161139.252,A,3720.1544,N,12143.0134,W,000.0,116.3,170617,,,A*76
$GPGGA,161140.252,3720.1544,N,12143.0132,W,1,05,2.3,158.3,M,,,,0000*17
$GPGSA,A,3,30,07,08,09,28,,,,,,,,5.7,2.3,5.2*39
$GPRMC,161140.252,A,3720.1544,N,12143.0132,W,000.0,116.3,170617,,,A*7E
$GPGGA,161141.252,3720.1543,N,12143.0131,W,1,05,2.3,158.7,M,,,,0000*16
$GPGSA,A,3,30,07,08,09,28,,,,,,,,5.7,2.3,5.2*39
$GPRMC,161141.252,A,3720.1543,N,12143.0131,W,000.0,116.3,170617,,,A*7B
$GPGGA,161142.252,3720.1544,N,12143.0131,W,1,05,2.3,159.1,M,,,,0000*15
$GPGSA,A,3,30,07,08,09,28,,,,,,,,5.7,2.3,5.2*39
$GPGSV,3,1,10,30,64,334,42,07,58,064,40,08,33,057,36,09,36,158,37*7E
$GPGSV,3,2,10,11,00,000,27,27,00,000,40,28,63,249,42,05,00,000,32*7F
$GPGSV,3,3,10,23,06,148,36,20,02,320,*76
$GPRMC,161142.252,A,3720.1544,N,12143.0131,W,000.0,116.3,170617,,,A*7F
$GPGGA,161143.252,3720.1542,N,12143.0132,W,1,05,2.3,159.7,M,,,,0000*17
$GPGSA,A,3,30,07,08,09,28,,,,,,,,5.7,2.3,5.2*39
$GPRMC,161143.252,A,3720.1542,N,12143.0132,W,000.0,116.3,170617,,,A*7B
$GPGGA,161144.252,3720.1540,N,12143.0134,W,1,05,2.3,160.4,M,,,,0000*1D
$GPGSA,A,3,30,07,08,09,28,,,,,,,,5.7,2.3,5.2*39
$GPRMC,161144.252,A,3720.1540,N,12143.0134,W,000.0,116.3,170617,,,A*78
$GPGGA,161145.252,3720.1538,N,12143.0135,W,1,05,2.3,161.0,M,,,,0000*17
$GPGSA,A,3,30,07,08,09,28,,,,,,,,5.7,2.3,5.2*39
$GPGSV,3,1,10,30,64,334,42,07,58,064,41,08,33,057,37,09,35,158,35*7F
$GPGSV,3,2,10,11,00,000,28,27,00,000,40,28,63,249,41,05,00,000,32*73
$GPGSV,3,3,10,23,06,148,35,20,02,320,*75
$GPRMC,161145.252,A,3720.1538,N,12143.0135,W,000.0,116.3,170617,,,A*77
$GPGGA,161146.252,3720.1538,N,12143.0134,W,1,05,2.3,161.3,M,,,,0000*16
$GPGSA,A,3,30,07,08,09,28,,,,,,,,5.7,2.3,5.2*39
$GPRMC,161146.252,A,3720.1538,N,12143.0134,W,000.0,116.3,170617,,,A*75
$GPGGA,161147.252,3720.1538,N,12143.0132,W,1,05,2.3,161.7,M,,,,0000*15
$GPGSA,A,3,30,07,08,09,28,,,,,,,,5.7,2.3,5.2*39
$GPRMC,161147.252,A,3720.1538,N,12143.0132,W,000.0,116.3,170617,,,A*72
$GPGGA,161148.252,3720.1536,N,12143.0133,W,1,05,2.3,162.4,M,,,,0000*15
$GPGSA,A,3,30,07,08,09,28,,,,,,,,5.7,2.3,5.2*39
$GPGSV,3,1,10,30,64,334,42,07,58,064,41,08,33,057,37,09,35,158,35*7F
$GPGSV,3,2,10,11,00,000,25,27,00,000,39,28,63,249,41,05,00,000,32*70
$GPGSV,3,3,10,23,05,148,34,20,02,320,*77
$GPRMC,161148.252,A,3720.1536,N,12143.0133,W,000.0,116.3,170617,,,A*72
$GPGGA,161149.252,3720.1533,N,12143.0135,W,1,05,2.3,163.4,M,,,,0000*16
$GPGSA,A,3,30,07,08,09,28,,,,,,,,5.7,2.3,5.2*39
$GPRMC,161149.252,A,3720.1533,N,12143.0135,W,000.0,116.3,170617,,,A*70
$GPGGA,161150.252,3720.1532,N,12143.0136,W,1,05,2.3,164.3,M,,,,0000*1C
$GPGSA,A,3,30,07,08,09,28,,,,,,,,5.7,2.3,5.2*39
$GPRMC,161150.252,A,3720.1532,N,12143.0136,W,000.0,116.3,170617,,,A*7A
$GPGGA,161151.252,3720.1533,N,12143.0134,W,1,05,2.3,164.7,M,,,,0000*1A
$GPGSA,A,3,30,07,08,09,28,,,,,,,,5.7,2.3,5.2*39
$GPGSV,3,1,10,30,64,335,42,07,58,064,41,08,33,057,34,09,35,158,38*70
$GPGSV,3,2,10,11,00,000,26,27,00,000,39,28,63,249,41,05,00,000,32*73
$GPGSV,3,3,10,23,05,148,34,20,02,320,*77
$GPRMC,161151.252,A,3720.1533,N,12143.0134,W,000.0,116.3,170617,,,A*78
$GPGGA,161152.252,3720.1534,N,12143.0133,W,1,05,2.3,165.2,M,,,,0000*1D
$GPGSA,A,3,30,07,08,09,28,,,,,,,,5.7,2.3,5.2*39
$GPRMC,161152.252,A,3720.1534,N,12143.0133,W,000.0,116.3,170617,,,A*7B
$GPGGA,161153.252,3720.1534,N,12143.0130,W,1,05,2.3,165.6,M,,,,0000*1B
$GPGSA,A,3,30,07,08,09,28,,,,,,,,5.7,2.3,5.2*39
$GPRMC,161153.252,A,3720.1534,N,12143.0130,W,000.0,116.3,170617,,,A*79
$GPGGA,161154.252,3720.1534,N,12143.0128,W,1,05,2.3,165.9,M,,,,0000*1A
$GPGSA,A,3,30,07,08,09,28,,,,,,,,5.7,2.3,5.2*39
$GPGSV,3,1,10,30,64,335,42,07,58,064,42,08,33,057,35,09,35,158,36*7C
$GPGSV,3,2,10,11,00,000,27,27,00,000,39,28,63,249,42,05,00,000,32*71
$GPGSV,3,3,10,23,05,148,33,20,02,320,*70
$GPRMC,161154.252,A,3720.1534,N,12143.0128,W,000.0,116.3,170617,,,A*77
$GPGGA,161155.252,3720.1531,N,12143.0132,W,1,05,2.3,167.0,M,,,,0000*1E
$GPGSA,A,3,30,07,08,09,28,,,,,,,,5.7,2.3,5.2*39
$GPRMC,161155.252,A,3720.1531,N,12143.0132,W,000.0,116.3,170617,,,A*78
$GPGGA,161156.252,3720.1528,N,12143.0131,W,1,05,2.3,167.7,M,,,,0000*11
$GPGSA,A,3,30,07,08,09,28,,,,,,,,5.7,2.3,5.2*39
$GPRMC,161156.252,A,3720.1528,N,12143.0131,W,000.0,116.3,170617,,,A*70
$GPGGA,161157.252,3720.1526,N,12143.0132,W,1,05,2.3,168.6,M,,,,0000*13
$GPGSA,A,3,30,07,08,09,28,,,,,,,,5.7,2.3,5.2*39
$GPGSV,3,1,10,30,64,335,43,07,58,064,41,08,33,057,38,09,35,158,36*73
$GPGSV,3,2,10,11,00,000,30,27,00,000,39,28,63,249,42,05,00,000,33*76
$GPGSV,3,3,10,23,05,148,35,20,02,320,*76
$GPRMC,161157.252,A,3720.1526,N,12143.0132,W,000.0,116.3,170617,,,A*7C
$GPGGA,161158.252,3720.1523,N,12143.0132,W,1,05,2.3,169.5,M,,,,0000*1B
$GPGSA,A,3,30,07,08,09,28,,,,,,,,5.7,2.3,5.2*39
$GPRMC,161158.252,A,3720.1523,N,12143.0132,W,000.0,116.3,170617,,,A*76
$GPGGA,161159.252,3720.1519,N,12143.0132,W,1,05,2.3,170.4,M,,,,0000*1A
$GPGSA,A,3,30,07,08,09,28,,,,,,,,5.7,2.3,5.2*39
$GPRMC,161159.252,A,3720.1519,N,12143.0132,W,000.0,116.3,170617,,,A*7E
$GPGGA,161200.252,3720.1515,N,12143.0131,W,1,05,2.3,171.1,M,,,,0000*1E
$GPGSA,A,3,30,07,08,09,28,,,,,,,,5.7,2.3,5.2*39
$GPGSV,3,1,10,30,64,335,44,07,58,064,40,08,33,057,38,09,35,158,34*77
$GPGSV,3,2,10,11,00,000,30,27,00,000,39,28,63,249,42,05,00,000,30*75
$GPGSV,3,3,10,23,05,148,35,20,02,320,*76
$GPRMC,161200.252,A,3720.1515,N,12143.0131,W,000.0,116.3,170617,,,A*7E
$GPGGA,161201.252,3720.1231,N,12142.9890,W,1,08,1.3,395.9,M,,,,0000*1A
$GPGSA,A,3,30,07,08,09,11,27,28,23,,,,,2.1,1.3,1.6*3F
$GPRMC,161201.252,A,3720.1231,N,12142.9890,W,000.0,116.3,170617,,,A*74
$GPGGA,161202.252,3720.1246,N,12142.9863,W,1,08,1.3,404.7,M,,,,0000*14
$GPGSA,A,3,30,07,08,09,11,27,28,23,,,,,2.1,1.3,1.6*3F
$GPRMC,161202.252,A,3720.1246,N,12142.9863,W,000.0,116.3,170617,,,A*7B
$GPGGA,161203.252,3720.1256,N,12142.9841,W,1,08,1.3,409.3,M,,,,0000*1D
$GPGSA,A,3,30,07,08,09,11,27,28,23,,,,,2.1,1.3,1.6*3F
$GPGSV,3,1,10,30,64,335,43,07,58,064,42,08,33,057,39,09,35,158,36*71
$GPGSV,3,2,10,11,18,110,25,27,06,034,39,28,63,249,42,05,00,000,31*78
$GPGSV,3,3,10,23,05,148,35,20,02,320,*76
$GPRMC,161203.252,A,3720.1256,N,12142.9841,W,000.0,116.3,170617,,,A*7B
$GPGGA,161204.252,3720.1269,N,12142.9831,W,1,08,1.3,412.1,M,,,,0000*19
$GPGSA,A,3,30,07,08,09,11,27,28,23,,,,,2.1,1.3,1.6*3F
$GPRMC,161204.252,A,3720.1269,N,12142.9831,W,000.0,116.3,170617,,,A*77
$GPGGA,161205.252,3720.1279,N,12142.9814,W,1,08,1.3,413.6,M,,,,0000*18
$GPGSA,A,3,30,07,08,09,11,27,28,23,,,,,2.1,1.3,1.6*3F
$GPRMC,161205.252,A,3720.1279,N,12142.9814,W,001.5,010.0,170617,,,A*70
$GPGGA,161206.252,3720.1284,N,12142.9810,W,1,08,1.3,414.2,M,,,,0000*1E
$GPGSA,A,3,30,07,08,09,11,27,28,23,,,,,2.1,1.3,1.6*3F
$GPGSV,3,1,10,30,64,335,46,07,58,064,37,08,33,057,33,09,35,158,40*7D
$GPGSV,3,2,10,11,18,110,28,27,06,034,28,28,63,249,31,05,00,000,28*79
$GPGSV,3,3,10,23,05,148,32,20,02,320,*71
$GPRMC,161206.252,A,3720.1284,N,12142.9810,W,001.5,033.0,170617,,,A*74
$GPGGA,161207.252,3720.1293,N,12142.9801,W,1,08,1.3,416.5,M,,,,0000*1C
$GPGSA,A,3,30,07,08,09,11,27,28,23,,,,,2.1,1.3,1.6*3F
$GPRMC,161207.252,A,3720.1293,N,12142.9801,W,000.9,090.6,170617,,,A*71
$GPGGA,161208.252,3720.1293,N,12142.9798,W,1,07,1.5,416.7,M,,,,0000*17
$GPGSA,A,3,30,07,09,11,27,28,23,,,,,,2.2,1.5,1.6*32
$GPRMC,161208.252,A,3720.1293,N,12142.9798,W,000.9,102.1,170617,,,A*7C
$GPGGA,161209.252,3720.1293,N,12142.9795,W,1,08,1.3,417.0,M,,,,0000*14
$GPGSA,A,3,30,07,08,09,11,27,28,23,,,,,2.1,1.3,1.6*3F
$GPGSV,3,1,10,30,64,335,37,07,58,064,39,08,33,057,26,09,35,158,42*73
$GPGSV,3,2,10,11,18,110,37,27,06,034,34,28,63,249,33,05,00,000,24*74
$GPGSV,3,3,10,23,05,149,38,20,02,320,*7A
$GPRMC,161209.252,A,3720.1293,N,12142.9795,W,000.0,102.1,170617,,,A*79
$GPGGA,161210.252,3720.1294,N,12142.9795,W,1,08,1.3,417.3,M,,,,0000*18
$GPGSA,A,3,30,07,08,09,11,27,28,23,,,,,2.1,1.3,1.6*3F
$GPRMC,161210.252,A,3720.1294,N,12142.9795,W,000.0,102.1,170617,,,A*76
$GPGGA,161211.252,3720.1294,N,12142.9794,W,1,08,1.3,417.3,M,,,,0000*18
$GPGSA,A,3,30,07,08,09,11,27,28,23,,,,,2.1,1.3,1.6*3F
$GPRMC,161211.252,A,3720.1294,N,12142.9794,W,000.0,102.1,170617,,,A*76
$GPGGA,161212.252,3720.1295,N,12142.9794,W,1,08,1.3,417.4,M,,,,0000*1D
$GPGSA,A,3,30,07,08,09,11,27,28,23,,,,,2.1,1.3,1.6*3F
$GPGSV,3,1,10,30,64,335,42,07,58,064,41,08,33,057,39,09,35,158,32*77
$GPGSV,3,2,10,11,18,110,32,27,06,034,27,28,63,249,33,05,00,000,35*73
$GPGSV,3,3,10,23,05,149,27,20,02,320,*74
$GPRMC,161212.252,A,3720.1295,N,12142.9794,W,000.0,102.1,170617,,,A*74
$GPGGA,161213.252,3720.1295,N,12142.9792,W,1,08,1.3,417.6,M,,,,0000*18
$GPGSA,A,3,30,07,08,09,11,27,28,23,,,,,2.1,1.3,1.6*3F
$GPRMC,161213.252,A,3720.1295,N,12142.9792,W,000.0,102.1,170617,,,A*73
$GPGGA,161214.252,3720.1294,N,12142.9791,W,1,07,1.5,417.8,M,,,,0000*1A
$GPGSA,A,3,30,07,08,09,11,27,28,,,,,,2.4,1.5,2.0*38
$GPRMC,161214.252,A,3720.1294,N,12142.9791,W,000.0,102.1,170617,,,A*76
$GPGGA,161215.252,3720.1294,N,12142.9789,W,1,07,1.5,417.8,M,,,,0000*12
$GPGSA,A,3,30,07,08,09,11,27,28,,,,,,2.4,1.5,2.0*38
$GPGSV,3,1,10,30,64,335,41,07,58,064,40,08,33,056,30,09,35,158,31*7E
$GPGSV,3,2,10,11,18,110,40,27,06,034,32,28,63,249,30,05,00,000,29*7C
$GPGSV,3,3,10,23,05,149,23,20,02,320,*70
$GPRMC,161215.252,A,3720.1294,N,12142.9789,W,000.0,102.1,170617,,,A*7E
$GPGGA,161216.252,3720.1295,N,12142.9789,W,1,07,1.5,418.0,M,,,,0000*17
$GPGSA,A,3,30,07,08,09,11,27,28,,,,,,2.4,1.5,2.0*38
$GPRMC,161216.252,A,3720.1295,N,12142.9789,W,000.0,102.1,170617,,,A*7C
$GPGGA,161217.252,3720.1297,N,12142.9790,W,1,08,1.3,418.3,M,,,,0000*16
$GPGSA,A,3,30,07,08,09,11,27,28,23,,,,,2.1,1.3,1.6*3F
$GPRMC,161217.252,A,3720.1297,N,12142.9790,W,000.0,102.1,170617,,,A*77
$GPGGA,161218.252,3720.1275,N,12142.9713,W,1,09,0.9,430.3,M,,,,0000*1E
$GPGSA,A,3,30,07,08,09,11,27,28,05,23,,,,1.5,0.9,1.2*32
$GPGSV,3,1,10,30,64,335,35,07,58,064,39,08,33,056,39,09,35,158,37*7C
$GPGSV,3,2,10,11,18,110,38,27,06,034,31,28,63,249,34,05,19,279,32*7A
$GPGSV,3,3,10,23,05,149,25,20,02,320,*76
$GPRMC,161218.252,A,3720.1275,N,12142.9713,W,000.0,102.1,170617,,,A*7F
$GPGGA,161219.252,3720.1282,N,12142.9688,W,1,09,0.9,433.6,M,,,,0000*12
$GPGSA,A,3,30,07,08,09,11,27,28,05,23,,,,1.5,0.9,1.2*32
$GPRMC,161219.252,A,3720.1282,N,12142.9688,W,000.0,102.1,170617,,,A*75
$GPGGA,161220.252,3720.1292,N,12142.9690,W,1,09,0.9,434.5,M,,,,0000*14
$GPGSA,A,3,30,07,08,09,11,27,28,05,23,,,,1.5,0.9,1.2*32
$GPRMC,161220.252,A,3720.1292,N,12142.9690,W,000.0,102.1,170617,,,A*77
$GPGGA,161221.252,3720.1293,N,12142.9690,W,1,09,0.9,434.1,M,,,,0000*10
$GPGSA,A,3,30,07,08,09,11,27,28,05,23,,,,1.5,0.9,1.2*32
$GPGSV,3,1,10,30,64,335,39,07,58,064,39,08,33,056,37,09,35,158,35*7C
$GPGSV,3,2,10,11,18,110,37,27,06,034,29,28,63,249,35,05,19,279,24*7A
$GPGSV,3,3,10,23,05,149,24,20,02,320,*77
$GPRMC,161221.252,A,3720.1293,N,12142.9690,W,000.0,102.1,170617,,,A*77
$GPGGA,161222.252,3720.1298,N,12142.9679,W,1,08,1.3,435.3,M,,,,0000*16
$GPGSA,A,3,30,07,08,09,11,27,28,23,,,,,2.1,1.3,1.6*3F
$GPRMC,161222.252,A,3720.1298,N,12142.9679,W,000.0,102.1,170617,,,A*78
$GPGGA,161223.252,3720.1301,N,12142.9676,W,1,09,0.9,436.0,M,,,,0000*13
$GPGSA,A,3,30,07,08,09,11,27,28,05,23,,,,1.5,0.9,1.2*32
$GPRMC,161223.252,A,3720.1301,N,12142.9676,W,000.0,102.1,170617,,,A*77
$GPGGA,161224.252,3720.1299,N,12142.9678,W,1,09,0.9,437.0,M,,,,0000*1B
$GPGSA,A,3,30,07,08,09,11,27,28,05,23,,,,1.5,0.9,1.2*32
$GPGSV,3,1,10,30,64,335,41,07,58,064,40,08,33,056,38,09,35,158,39*7E
$GPGSV,3,2,10,11,18,110,37,27,06,034,28,28,63,249,39,05,19,279,34*76
$GPGSV,3,3,10,23,05,149,32,20,02,320,*70
$GPRMC,161224.252,A,3720.1299,N,12142.9678,W,000.0,102.1,170617,,,A*7E
$GPGGA,161225.252,3720.1299,N,12142.9678,W,1,09,0.9,437.1,M,,,,0000*1B
$GPGSA,A,3,30,07,08,09,11,27,28,05,23,,,,1.5,0.9,1.2*32
$GPRMC,161225.252,A,3720.1299,N,12142.9678,W,000.0,102.1,170617,,,A*7F
$GPGGA,161226.252,3720.1300,N,12142.9678,W,1,08,1.3,437.1,M,,,,0000*13
$GPGSA,A,3,30,07,08,09,11,27,28,23,,,,,2.1,1.3,1.6*3F
$GPRMC,161226.252,A,3720.1300,N,12142.9678,W,000.0,102.1,170617,,,A*7D
$GPGGA,161227.252,3720.1300,N,12142.9678,W,1,09,0.9,437.3,M,,,,0000*1A
$GPGSA,A,3,30,07,08,09,11,27,28,05,23,,,,1.5,0.9,1.2*32
$GPGSV,3,1,10,30,65,335,45,07,58,064,42,08,33,056,38,09,35,158,41*76
$GPGSV,3,2,10,11,18,110,35,27,06,034,25,28,63,249,35,05,19,279,33*72
$GPGSV,3,3,10,23,05,149,35,20,02,320,*77
$GPRMC,161227.252,A,3720.1300,N,12142.9678,W,000.0,102.1,170617,,,A*7C
$GPGGA,161228.252,3720.1301,N,12142.9678,W,1,09,0.9,437.3,M,,,,0000*14
$GPGSA,A,3,30,07,08,09,11,27,28,05,23,,,,1.5,0.9,1.2*32
$GPRMC,161228.252,A,3720.1301,N,12142.9678,W,000.0,102.1,170617,,,A*72
$GPGGA,161229.252,3720.1301,N,12142.9679,W,1,07,1.2,437.3,M,,,,0000*10
$GPGSA,A,3,30,07,08,09,11,28,05,,,,,,2.0,1.2,1.7*3F
$GPRMC,161229.252,A,3720.1301,N,12142.9679,W,000.0,102.1,170617,,,A*72
$GPGGA,161230.252,3720.1302,N,12142.9679,W,1,08,1.1,437.3,M,,,,0000*17
$GPGSA,A,3,30,07,08,09,11,28,05,23,,,,,1.8,1.1,1.5*34
$GPGSV,3,1,10,30,65,335,40,07,58,064,46,08,33,056,41,09,35,158,40*78
$GPGSV,3,2,10,11,18,110,34,27,06,034,23,28,63,249,33,05,19,279,33*73
$GPGSV,3,3,10,23,05,149,27,20,02,320,*74
$GPRMC,161230.252,A,3720.1302,N,12142.9679,W,000.0,102.1,170617,,,A*79
$GPGGA,161231.252,3720.1303,N,12142.9679,W,1,09,0.9,437.4,M,,,,0000*18
$GPGSA,A,3,30,07,08,09,11,27,28,05,23,,,,1.5,0.9,1.2*32
$GPRMC,161231.252,A,3720.1303,N,12142.9679,W,000.0,102.1,170617,,,A*79
$GPGGA,161232.252,3720.1302,N,12142.9680,W,1,09,0.9,437.5,M,,,,0000*1D
$GPGSA,A,3,30,07,08,09,11,27,28,05,23,,,,1.5,0.9,1.2*32
$GPRMC,161232.252,A,3720.1302,N,12142.9680,W,000.0,102.1,170617,,,A*7D
$GPGGA,161233.252,3720.1301,N,12142.9682,W,1,08,1.1,437.5,M,,,,0000*15
$GPGSA,A,3,30,07,08,09,11,28,05,23,,,,,1.8,1.1,1.5*34
$GPGSV,3,1,10,30,65,335,39,07,58,064,45,08,33,056,33,09,35,158,40*70
$GPGSV,3,2,10,11,18,110,32,27,06,034,22,28,63,249,41,05,19,279,28*7B
$GPGSV,3,3,10,23,05,149,38,20,02,320,*7A
$GPRMC,161233.252,A,3720.1301,N,12142.9682,W,000.0,102.1,170617,,,A*7D
$GPGGA,161234.252,3720.1301,N,12142.9682,W,1,07,1.2,437.5,M,,,,0000*1E
$GPGSA,A,3,30,07,08,09,11,28,05,,,,,,2.0,1.2,1.7*3F
$GPRMC,161234.252,A,3720.1301,N,12142.9682,W,000.0,102.1,170617,,,A*7A
$GPGGA,161235.252,3720.1301,N,12142.9681,W,1,07,0.9,437.5,M,,,,0000*16
$GPGSA,A,3,08,09,11,27,28,05,23,,,,,,1.8,0.9,1.5*3C
$GPRMC,161235.252,A,3720.1301,N,12142.9681,W,000.0,102.1,170617,,,A*78
$GPGGA,161236.252,3720.1302,N,12142.9681,W,1,09,0.9,437.5,M,,,,0000*18
$GPGSA,A,3,30,07,08,09,11,27,28,05,23,,,,1.5,0.9,1.2*32
$GPGSV,3,1,10,30,65,335,35,07,58,064,28,08,33,056,33,09,35,158,32*72
$GPGSV,3,2,10,11,18,110,30,27,06,034,28,28,63,249,30,05,19,279,39*75
$GPGSV,3,3,10,23,05,149,31,20,02,320,*73
$GPRMC,161236.252,A,3720.1302,N,12142.9681,W,000.0,102.1,170617,,,A*78
$GPGGA,161237.252,3720.1302,N,12142.9681,W,1,08,0.9,437.5,M,,,,0000*18
$GPGSA,A,3,30,07,08,09,11,27,05,23,,,,,1.6,0.9,1.3*3A
$GPRMC,161237.252,A,3720.1302,N,12142.9681,W,000.0,102.1,170617,,,A*79
$GPGGA,161238.252,3720.1302,N,12142.9681,W,1,07,1.3,437.6,M,,,,0000*10
$GPGSA,A,3,30,07,08,11,28,05,23,,,,,,2.1,1.3,1.6*36
$GPRMC,161238.252,A,3720.1302,N,12142.9681,W,000.0,102.1,170617,,,A*76
$GPGGA,161239.252,3720.1302,N,12142.9682,W,1,08,1.0,437.5,M,,,,0000*1D
$GPGSA,A,3,30,07,08,11,27,28,05,23,,,,,1.5,1.0,1.2*33
$GPGSV,3,1,10,30,65,335,32,07,58,064,27,08,33,056,28,09,35,158,27*74
$GPGSV,3,2,10,11,18,110,27,27,06,034,27,28,63,249,36,05,19,279,45*71
$GPGSV,3,3,10,23,05,149,25,20,02,320,*76
$GPRMC,161239.252,A,3720.1302,N,12142.9682,W,000.0,102.1,170617,,,A*74
$GPGGA,161240.252,3720.1303,N,12142.9681,W,1,08,1.1,437.5,M,,,,0000*10
$GPGSA,A,3,30,07,08,09,11,28,05,23,,,,,1.8,1.1,1.5*34
$GPRMC,161240.252,A,3720.1303,N,12142.9681,W,000.0,102.1,170617,,,A*78
$GPGGA,161241.252,3720.1303,N,12142.9681,W,1,07,1.1,437.1,M,,,,0000*1A
$GPGSA,A,3,30,07,08,09,28,05,23,,,,,,1.9,1.1,1.5*35
$GPRMC,161241.252,A,3720.1303,N,12142.9681,W,000.0,102.1,170617,,,A*79
$GPGGA,161242.252,3720.1303,N,12142.9683,W,1,09,0.9,436.8,M,,,,0000*14
$GPGSA,A,3,30,07,08,09,11,27,28,05,23,,,,1.5,0.9,1.2*32
$GPGSV,3,1,10,30,65,335,37,07,58,065,25,08,33,056,26,09,35,158,26*7D
$GPGSV,3,2,10,11,18,110,28,27,06,034,23,28,63,249,25,05,19,279,38*72
$GPGSV,3,3,10,23,05,149,38,20,02,320,*7A
$GPRMC,161242.252,A,3720.1303,N,12142.9683,W,000.0,102.1,170617,,,A*78
$GPGGA,161243.252,3720.1303,N,12142.9684,W,1,09,0.9,436.6,M,,,,0000*1C
$GPGSA,A,3,30,07,08,09,11,27,28,05,23,,,,1.5,0.9,1.2*32
$GPRMC,161243.252,A,3720.1303,N,12142.9684,W,000.0,102.1,170617,,,A*7E
$GPGGA,161244.252,3720.1303,N,12142.9683,W,1,08,0.9,436.4,M,,,,0000*1F
$GPGSA,A,3,30,08,09,11,27,28,05,23,,,,,1.6,0.9,1.3*37
$GPRMC,161244.252,A,3720.1303,N,12142.9683,W,000.0,102.1,170617,,,A*7E
$GPGGA,161245.252,3720.1304,N,12142.9682,W,1,08,0.9,436.5,M,,,,0000*19
$GPGSA,A,3,07,08,09,11,27,28,05,23,,,,,1.6,0.9,1.3*33
$GPGSV,3,1,10,30,65,335,25,07,58,065,35,08,33,056,26,09,35,158,31*79
$GPGSV,3,2,10,11,18,110,27,27,06,034,25,28,63,249,37,05,19,279,37*77
$GPGSV,3,3,10,23,05,149,33,20,02,320,*71
$GPRMC,161245.252,A,3720.1304,N,12142.9682,W,000.0,102.1,170617,,,A*79
$GPGGA,161246.252,3720.1306,N,12142.9687,W,1,09,0.9,436.7,M,,,,0000*1E
$GPGSA,A,3,30,07,08,09,11,27,28,05,23,,,,1.5,0.9,1.2*32
$GPRMC,161246.252,A,3720.1306,N,12142.9687,W,000.0,102.1,170617,,,A*7D
$GPGGA,161247.252,3720.1309,N,12142.9690,W,1,08,1.1,436.8,M,,,,0000*11
$GPGSA,A,3,30,07,08,09,11,28,05,23,,,,,1.8,1.1,1.5*34
$GPRMC,161247.252,A,3720.1309,N,12142.9690,W,000.0,102.1,170617,,,A*75
$GPGGA,161248.252,3720.1309,N,12142.9689,W,1,08,0.9,436.8,M,,,,0000*1F
$GPGSA,A,3,30,07,08,09,27,28,05,23,,,,,1.5,0.9,1.2*32
$GPGSV,3,1,10,30,65,335,34,07,58,065,27,08,33,056,30,09,35,158,37*7B
$GPGSV,3,2,10,11,18,110,22,27,06,034,23,28,63,249,41,05,19,279,25*76
$GPGSV,3,3,10,23,05,149,25,20,02,320,*76
$GPRMC,161248.252,A,3720.1309,N,12142.9689,W,000.0,102.1,170617,,,A*72
$GPGGA,161249.252,3720.1310,N,12142.9690,W,1,09,0.9,436.9,M,,,,0000*1E
$GPGSA,A,3,30,07,08,09,11,27,28,05,23,,,,1.5,0.9,1.2*32
$GPRMC,161249.252,A,3720.1310,N,12142.9690,W,000.0,102.1,170617,,,A*73
$GPGGA,161250.252,3720.1311,N,12142.9690,W,1,07,1.0,437.0,M,,,,0000*19
$GPGSA,A,3,30,08,09,11,27,28,05,,,,,,1.8,1.0,1.5*36
$GPRMC,161250.252,A,3720.1311,N,12142.9690,W,000.0,102.1,170617,,,A*7A
$GPGGA,161251.252,3720.1311,N,12142.9688,W,1,08,1.0,437.0,M,,,,0000*1E
$GPGSA,A,3,30,07,08,09,11,27,28,05,,,,,1.7,1.0,1.3*38
$GPGSV,3,1,10,30,65,335,33,07,58,065,36,08,33,056,37,09,35,158,40*7B
$GPGSV,3,2,10,11,18,110,28,27,06,034,27,28,63,249,33,05,19,279,39*70
$GPGSV,3,3,10,23,05,149,23,20,02,320,*70
$GPRMC,161251.252,A,3720.1311,N,12142.9688,W,000.0,102.1,170617,,,A*72
$GPGGA,161252.252,3720.1312,N,12142.9682,W,1,08,1.0,436.5,M,,,,0000*10
$GPGSA,A,3,30,07,08,09,11,27,28,05,,,,,1.7,1.0,1.3*38
$GPRMC,161252.252,A,3720.1312,N,12142.9682,W,000.0,102.1,170617,,,A*78
$GPGGA,161253.252,3720.1310,N,12142.9681,W,1,09,0.9,437.2,M,,,,0000*1F
$GPGSA,A,3,30,07,08,09,11,27,28,05,23,,,,1.5,0.9,1.2*32
$GPRMC,161253.252,A,3720.1310,N,12142.9681,W,000.0,102.1,170617,,,A*78
$GPGGA,161254.252,3720.1309,N,12142.9683,W,1,07,1.3,437.2,M,,,,0000*17
$GPGSA,A,3,30,07,08,11,28,05,23,,,,,,2.1,1.3,1.6*36
$GPGSV,3,1,10,30,65,335,35,07,58,065,44,08,33,056,46,09,35,158,24*7C
$GPGSV,3,2,10,11,18,110,28,27,06,034,24,28,63,249,39,05,19,279,38*78
$GPGSV,3,3,10,23,05,149,27,20,02,320,*74
$GPRMC,161254.252,A,3720.1309,N,12142.9683,W,000.0,102.1,170617,,,A*75
$GPGGA,161255.252,3720.1308,N,12142.9684,W,1,07,1.2,437.4,M,,,,0000*17
$GPGSA,A,3,30,07,08,09,11,28,05,,,,,,2.0,1.2,1.7*3F
$GPRMC,161255.252,A,3720.1308,N,12142.9684,W,000.0,102.1,170617,,,A*72
$GPGGA,161256.252,3720.1308,N,12142.9680,W,1,07,1.3,438.1,M,,,,0000*1B
$GPGSA,A,3,30,07,08,11,27,28,05,,,,,,1.8,1.3,1.3*3D
$GPRMC,161256.252,A,3720.1308,N,12142.9680,W,000.0,102.1,170617,,,A*75
$GPGGA,161257.252,3720.1308,N,12142.9678,W,1,07,1.3,438.0,M,,,,0000*1C
$GPGSA,A,3,30,07,08,11,27,28,05,,,,,,1.8,1.3,1.3*3D
$GPGSV,3,1,10,30,65,335,39,07,58,065,40,08,33,056,46,09,35,158,18*7B
$GPGSV,3,2,10,11,18,110,25,27,06,034,28,28,63,249,38,05,19,279,42*75
$GPGSV,3,3,10,23,05,149,20,20,02,320,*73
$GPRMC,161257.252,A,3720.1308,N,12142.9678,W,000.0,102.1,170617,,,A*73
$GPGGA,161258.252,3720.1306,N,12142.9678,W,1,06,2.8,437.9,M,,,,0000*12
$GPGSA,A,3,30,07,08,27,28,05,,,,,,,3.5,2.8,2.0*3A
$GPRMC,161258.252,A,3720.1306,N,12142.9678,W,000.0,102.1,170617,,,A*72
$GPGGA,161259.252,3720.1306,N,12142.9678,W,1,06,2.8,437.8,M,,,,0000*12
$GPGSA,A,3,30,07,08,27,28,05,,,,,,,3.5,2.8,2.0*3A
$GPRMC,161259.252,A,3720.1306,N,12142.9678,W,000.0,102.1,170617,,,A*73
$GPGGA,161300.252,3720.1305,N,12142.9683,W,1,07,1.0,437.7,M,,,,0000*1D
$GPGSA,A,3,30,07,08,27,28,05,23,,,,,,1.6,1.0,1.2*30
$GPGSV,3,1,10,30,65,335,40,07,58,065,32,08,33,056,39,09,35,158,27*74
$GPGSV,3,2,10,11,18,110,18,27,06,034,24,28,63,249,39,05,19,279,45*71
$GPGSV,3,3,10,23,05,149,29,20,02,319,*70
$GPRMC,161300.252,A,3720.1305,N,12142.9683,W,000.0,102.1,170617,,,A*79
$GPGGA,161301.252,3720.1305,N,12142.9682,W,1,06,1.2,437.3,M,,,,0000*1A
$GPGSA,A,3,30,08,09,27,28,05,,,,,,,2.0,1.2,1.6*3C
$GPRMC,161301.252,A,3720.1305,N,12142.9682,W,000.0,102.1,170617,,,A*79
$GPGGA,161302.252,3720.1303,N,12142.9681,W,1,07,1.1,436.8,M,,,,0000*14
$GPGSA,A,3,30,07,08,09,27,28,05,,,,,,1.8,1.1,1.4*31
$GPRMC,161302.252,A,3720.1303,N,12142.9681,W,000.0,102.1,170617,,,A*7F
$GPGGA,161303.252,3720.1303,N,12142.9682,W,1,08,1.0,436.2,M,,,,0000*12
$GPGSA,A,3,30,07,08,09,11,27,28,05,,,,,1.6,1.0,1.3*39
$GPGSV,3,1,10,30,65,335,46,07,58,065,32,08,33,056,34,09,35,158,34*7D
$GPGSV,3,2,10,11,18,110,31,27,06,034,29,28,63,249,43,05,19,279,46*79
$GPGSV,3,3,10,23,05,149,24,20,02,319,*7D
$GPRMC,161303.252,A,3720.1303,N,12142.9682,W,000.0,102.1,170617,,,A*7D
$GPGGA,161304.252,3720.1306,N,12142.9689,W,1,09,0.9,436.8,M,,,,0000*18
$GPGSA,A,3,30,07,08,09,11,27,28,05,23,,,,1.5,0.9,1.2*32
$GPRMC,161304.252,A,3720.1306,N,12142.9689,W,000.0,102.1,170617,,,A*74
$GPGGA,161305.252,3720.1311,N,12142.9694,W,1,09,0.9,437.6,M,,,,0000*1C
$GPGSA,A,3,30,07,08,09,11,27,28,05,23,,,,1.5,0.9,1.2*32
$GPRMC,161305.252,A,3720.1311,N,12142.9694,W,000.0,102.1,170617,,,A*7F
$GPGGA,161306.252,3720.1312,N,12142.9697,W,1,09,0.9,437.4,M,,,,0000*1D
$GPGSA,A,3,30,07,08,09,11,27,28,05,23,,,,1.5,0.9,1.2*32
$GPGSV,3,1,10,30,65,336,46,07,58,065,30,08,33,056,34,09,35,158,36*7E
$GPGSV,3,2,10,11,18,110,32,27,06,034,29,28,63,250,42,05,19,279,45*70
$GPGSV,3,3,10,23,05,149,26,20,02,319,*7F
$GPRMC,161306.252,A,3720.1312,N,12142.9697,W,000.0,102.1,170617,,,A*7C
$GPGGA,161307.252,3720.1312,N,12142.9699,W,1,08,0.9,437.5,M,,,,0000*12
$GPGSA,A,3,30,08,09,11,27,28,05,23,,,,,1.6,0.9,1.3*37
$GPRMC,161307.252,A,3720.1312,N,12142.9699,W,000.0,102.1,170617,,,A*73
$GPGGA,161308.252,3720.1314,N,12142.9701,W,1,09,0.9,437.5,M,,,,0000*1A
$GPGSA,A,3,30,07,08,09,11,27,28,05,23,,,,1.5,0.9,1.2*32
$GPRMC,161308.252,A,3720.1314,N,12142.9701,W,000.0,102.1,170617,,,A*7A
$GPGGA,161309.252,3720.1316,N,12142.9703,W,1,09,0.9,437.8,M,,,,0000*16
$GPGSA,A,3,30,07,08,09,11,27,28,05,23,,,,1.5,0.9,1.2*32
$GPGSV,3,1,10,30,65,336,46,07,58,065,27,08,33,056,39,09,35,158,38*7B
$GPGSV,3,2,10,11,18,110,31,27,06,034,28,28,63,250,44,05,19,279,42*73
$GPGSV,3,3,10,23,05,149,26,20,02,319,*7F
$GPRMC,161309.252,A,3720.1316,N,12142.9703,W,000.0,102.1,170617,,,A*7B
$GPGGA,161310.252,3720.1320,N,12142.9705,W,1,09,0.9,438.5,M,,,,0000*1F
$GPGSA,A,3,30,07,08,09,11,27,28,05,23,,,,1.5,0.9,1.2*32
$GPRMC,161310.252,A,3720.1320,N,12142.9705,W,000.0,102.1,170617,,,A*70
$GPGGA,161311.252,3720.1321,N,12142.9705,W,1,09,0.9,438.5,M,,,,0000*1F
$GPGSA,A,3,30,07,08,09,11,27,28,05,23,,,,1.5,0.9,1.2*32
$GPRMC,161311.252,A,3720.1321,N,12142.9705,W,000.0,102.1,170617,,,A*70
$GPGGA,161312.252,3720.1323,N,12142.9706,W,1,07,1.0,439.4,M,,,,0000*1B
$GPGSA,A,3,30,07,11,27,28,05,23,,,,,,1.6,1.0,1.2*38
$GPGSV,3,1,10,30,65,336,39,07,58,065,36,08,33,056,29,09,35,158,24*7F
$GPGSV,3,2,10,11,18,110,31,27,06,034,34,28,63,250,41,05,19,279,45*7C
$GPGSV,3,3,10,23,05,149,33,20,02,319,*7B
$GPRMC,161312.252,A,3720.1323,N,12142.9706,W,000.0,102.1,170617,,,A*72
$GPGGA,161313.252,3720.1323,N,12142.9706,W,1,09,0.9,439.4,M,,,,0000*1C
$GPGSA,A,3,30,07,08,09,11,27,28,05,23,,,,1.5,0.9,1.2*32
$GPRMC,161313.252,A,3720.1323,N,12142.9706,W,000.0,102.1,170617,,,A*73
$GPGGA,161314.252,3720.1325,N,12142.9706,W,1,09,0.9,439.2,M,,,,0000*1B
$GPGSA,A,3,30,07,08,09,11,27,28,05,23,,,,1.5,0.9,1.2*32
$GPRMC,161314.252,A,3720.1325,N,12142.9706,W,000.0,102.1,170617,,,A*72
$GPGGA,161315.252,3720.1324,N,12142.9705,W,1,09,0.9,439.3,M,,,,0000*19
$GPGSA,A,3,30,07,08,09,11,27,28,05,23,,,,1.5,0.9,1.2*32
$GPGSV,3,1,10,30,65,336,45,07,58,065,39,08,33,056,41,09,35,158,29*78
$GPGSV,3,2,10,11,18,110,36,27,06,034,31,28,63,250,37,05,19,279,39*74
$GPGSV,3,3,10,23,05,149,29,20,02,319,*70
$GPRMC,161315.252,A,3720.1324,N,12142.9705,W,000.0,102.1,170617,,,A*71
$GPGGA,161316.252,3720.1324,N,12142.9703,W,1,09,0.9,439.5,M,,,,0000*1A
$GPGSA,A,3,30,07,08,09,11,27,28,05,23,,,,1.5,0.9,1.2*32
$GPRMC,161316.252,A,3720.1324,N,12142.9703,W,000.0,102.1,170617,,,A*74
$GPGGA,161317.252,3720.1323,N,12142.9701,W,1,09,0.9,439.2,M,,,,0000*19
$GPGSA,A,3,30,07,08,09,11,27,28,05,23,,,,1.5,0.9,1.2*32
$GPRMC,161317.252,A,3720.1323,N,12142.9701,W,000.0,102.1,170617,,,A*70
$GPGGA,161318.252,3720.1323,N,12142.9699,W,1,09,0.9,439.3,M,,,,0000*17
$GPGSA,A,3,30,07,08,09,11,27,28,05,23,,,,1.5,0.9,1.2*32
$GPGSV,3,1,10,30,65,336,45,07,58,065,39,08,33,056,40,09,35,158,36*77
$GPGSV,3,2,10,11,18,110,37,27,06,034,30,28,63,250,31,05,19,279,38*73
$GPGSV,3,3,10,23,05,149,27,20,02,319,*7E
$GPRMC,161318.252,A,3720.1323,N,12142.9699,W,000.0,102.1,170617,,,A*7F
$GPGGA,161319.252,3720.1325,N,12142.9698,W,1,08,1.1,439.3,M,,,,0000*19
$GPGSA,A,3,30,07,08,09,11,28,05,23,,,,,1.8,1.1,1.5*34
$GPRMC,161319.252,A,3720.1325,N,12142.9698,W,000.0,102.1,170617,,,A*79
$GPGGA,161320.252,3720.1324,N,12142.9698,W,1,08,0.9,439.3,M,,,,0000*1B
$GPGSA,A,3,30,07,08,09,11,27,05,23,,,,,1.6,0.9,1.3*3A
$GPRMC,161320.252,A,3720.1324,N,12142.9698,W,000.0,102.1,170617,,,A*72
$GPGGA,161321.252,3720.1324,N,12142.9697,W,1,08,0.9,439.3,M,,,,0000*15
$GPGSA,A,3,30,07,08,09,11,27,05,23,,,,,1.6,0.9,1.3*3A
$GPGSV,3,1,10,30,65,336,42,07,58,065,40,08,33,056,38,09,35,158,39*7E
$GPGSV,3,2,10,11,18,110,33,27,06,034,30,28,63,250,24,05,19,278,27*7C
$GPGSV,3,3,10,23,05,149,29,20,02,319,*70
$GPRMC,161321.252,A,3720.1324,N,12142.9697,W,000.0,102.1,170617,,,A*7C
$GPGGA,161322.252,3720.1323,N,12142.9697,W,1,08,0.9,439.3,M,,,,0000*11
$GPGSA,A,3,30,07,08,09,11,27,05,23,,,,,1.6,0.9,1.3*3A
$GPRMC,161322.252,A,3720.1323,N,12142.9697,W,000.0,102.1,170617,,,A*78
$GPGGA,161323.252,3720.1323,N,12142.9697,W,1,08,1.3,439.3,M,,,,0000*1B
$GPGSA,A,3,30,07,08,09,11,27,28,23,,,,,2.1,1.3,1.6*3F
$GPRMC,161323.252,A,3720.1323,N,12142.9697,W,000.0,102.1,170617,,,A*79
$GPGGA,161324.252,3720.1322,N,12142.9696,W,1,09,0.9,439.3,M,,,,0000*16
$GPGSA,A,3,30,07,08,09,11,27,28,05,23,,,,1.5,0.9,1.2*32
$GPGSV,3,1,10,30,65,336,42,07,57,065,39,08,33,056,40,09,35,158,40*7E
$GPGSV,3,2,10,11,18,110,32,27,06,034,27,28,63,250,33,05,19,278,31*7A
$GPGSV,3,3,10,23,05,149,34,20,02,319,*7C
$GPRMC,161324.252,A,3720.1322,N,12142.9696,W,000.0,102.1,170617,,,A*7E
$GPGGA,161325.252,3720.1322,N,12142.9696,W,1,09,0.9,439.4,M,,,,0000*10
$GPGSA,A,3,30,07,08,09,11,27,28,05,23,,,,1.5,0.9,1.2*32
$GPRMC,161325.252,A,3720.1322,N,12142.9696,W,000.0,102.1,170617,,,A*7F
$GPGGA,161326.252,3720.1322,N,12142.9695,W,1,09,0.9,439.5,M,,,,0000*11
$GPGSA,A,3,30,07,08,09,11,27,28,05,23,,,,1.5,0.9,1.2*32
$GPRMC,161326.252,A,3720.1322,N,12142.9695,W,000.0,102.1,170617,,,A*7F
$GPGGA,161327.252,3720.1321,N,12142.9695,W,1,09,0.9,439.5,M,,,,0000*13
$GPGSA,A,3,30,07,08,09,11,27,28,05,23,,,,1.5,0.9,1.2*32
$GPGSV,3,1,10,30,65,336,39,07,57,065,38,08,33,056,38,09,35,158,37*7C
$GPGSV,3,2,10,11,18,110,30,27,06,034,24,28,63,250,29,05,19,278,34*75
$GPGSV,3,3,10,23,05,149,34,20,02,319,*7C
$GPRMC,161327.252,A,3720.1321,N,12142.9695,W,000.0,102.1,170617,,,A*7D
$GPGGA,161328.252,3720.1320,N,12142.9694,W,1,09,0.9,439.7,M,,,,0000*1E
$GPGSA,A,3,30,07,08,09,11,27,28,05,23,,,,1.5,0.9,1.2*32
$GPRMC,161328.252,A,3720.1320,N,12142.9694,W,000.0,102.1,170617,,,A*72
$GPGGA,161329.252,3720.1318,N,12142.9694,W,1,09,0.9,439.7,M,,,,0000*14
$GPGSA,A,3,30,07,08,09,11,27,28,05,23,,,,1.5,0.9,1.2*32
$GPRMC,161329.252,A,3720.1318,N,12142.9694,W,000.0,102.1,170617,,,A*78
$GPGGA,161330.252,3720.1317,N,12142.9693,W,1,09,0.9,439.6,M,,,,0000*15
$GPGSA,A,3,30,07,08,09,11,27,28,05,23,,,,1.5,0.9,1.2*32
$GPGSV,3,1,10,30,65,336,44,07,57,065,39,08,33,056,39,09,35,158,38*79
$GPGSV,3,2,10,11,18,110,33,27,06,034,30,28,63,250,30,05,19,278,35*7A
$GPGSV,3,3,10,23,05,149,34,20,02,319,*7C
$GPRMC,161330.252,A,3720.1317,N,12142.9693,W,000.0,102.1,170617,,,A*78
$GPGGA,161331.252,3720.1317,N,12142.9692,W,1,08,0.9,439.7,M,,,,0000*15
$GPGSA,A,3,30,07,08,09,27,28,05,23,,,,,1.5,0.9,1.2*32
$GPRMC,161331.252,A,3720.1317,N,12142.9692,W,000.0,102.1,170617,,,A*78
$GPGGA,161332.252,3720.1317,N,12142.9692,W,1,07,1.0,439.6,M,,,,0000*10
$GPGSA,A,3,30,07,08,27,28,05,23,,,,,,1.6,1.0,1.2*30
$GPRMC,161332.252,A,3720.1317,N,12142.9692,W,000.0,102.1,170617,,,A*7B
$GPGGA,161333.252,3720.1317,N,12142.9692,W,1,08,1.1,439.5,M,,,,0000*1C
$GPGSA,A,3,30,07,08,09,11,28,05,23,,,,,1.8,1.1,1.5*34
$GPGSV,3,1,10,30,65,336,40,07,57,065,34,08,33,056,40,09,35,158,30*76
$GPGSV,3,2,10,11,18,110,26,27,06,034,24,28,63,250,35,05,19,278,38*73
$GPGSV,3,3,10,23,05,149,29,20,02,319,*70
$GPRMC,161333.252,A,3720.1317,N,12142.9692,W,000.0,102.1,170617,,,A*7A
$GPGGA,161334.252,3720.1316,N,12142.9692,W,1,09,0.9,439.5,M,,,,0000*12
$GPGSA,A,3,30,07,08,09,11,27,28,05,23,,,,1.5,0.9,1.2*32
$GPRMC,161334.252,A,3720.1316,N,12142.9692,W,000.0,102.1,170617,,,A*7C
$GPGGA,161335.252,3720.1317,N,12142.9692,W,1,09,0.9,439.4,M,,,,0000*13
$GPGSA,A,3,30,07,08,09,11,27,28,05,23,,,,1.5,0.9,1.2*32
$GPRMC,161335.252,A,3720.1317,N,12142.9692,W,000.0,102.1,170617,,,A*7C
$GPGGA,161336.252,3720.1317,N,12142.9692,W,1,09,0.9,439.4,M,,,,0000*10
$GPGSA,A,3,30,07,08,09,11,27,28,05,23,,,,1.5,0.9,1.2*32
$GPGSV,3,1,10,30,65,336,37,07,57,065,35,08,33,056,39,09,35,158,24*7C
$GPGSV,3,2,10,11,18,110,25,27,06,034,24,28,63,250,26,05,19,278,40*7D
$GPGSV,3,3,10,23,05,149,32,20,02,319,*7A
$GPRMC,161336.252,A,3720.1317,N,12142.9692,W,000.0,102.1,170617,,,A*7F
$GPGGA,161337.252,3720.1317,N,12142.9691,W,1,09,0.9,439.3,M,,,,0000*15
$GPGSA,A,3,30,07,08,09,11,27,28,05,23,,,,1.5,0.9,1.2*32
$GPRMC,161337.252,A,3720.1317,N,12142.9691,W,000.0,102.1,170617,,,A*7D
$GPGGA,161338.252,3720.1317,N,12142.9690,W,1,09,0.9,439.3,M,,,,0000*1B
$GPGSA,A,3,30,07,08,09,11,27,28,05,23,,,,1.5,0.9,1.2*32
$GPRMC,161338.252,A,3720.1317,N,12142.9690,W,000.0,102.1,170617,,,A*73
$GPGGA,161339.252,3720.1317,N,12142.9690,W,1,09,0.9,439.3,M,,,,0000*1A
$GPGSA,A,3,30,07,08,09,11,27,28,05,23,,,,1.5,0.9,1.2*32
$GPGSV,3,1,10,30,65,336,37,07,57,065,41,08,33,056,33,09,35,158,27*76
$GPGSV,3,2,10,11,18,110,24,27,06,034,23,28,63,250,30,05,19,278,41*7D
$GPGSV,3,3,10,23,05,149,30,20,02,319,*78
$GPRMC,161339.252,A,3720.1317,N,12142.9690,W,000.0,102.1,170617,,,A*72
$GPGGA,161340.252,3720.1317,N,12142.9689,W,1,09,0.9,439.3,M,,,,0000*1C
$GPGSA,A,3,30,07,08,09,11,27,28,05,23,,,,1.5,0.9,1.2*32
$GPRMC,161340.252,A,3720.1317,N,12142.9689,W,000.0,102.1,170617,,,A*74
$GPGGA,161341.252,3720.1317,N,12142.9689,W,1,08,0.9,439.3,M,,,,0000*1C
$GPGSA,A,3,30,07,08,09,11,27,05,23,,,,,1.6,0.9,1.3*3A
$GPRMC,161341.252,A,3720.1317,N,12142.9689,W,000.0,102.1,170617,,,A*75
$GPGGA,161342.252,3720.1317,N,12142.9689,W,1,08,0.9,439.3,M,,,,0000*1F
$GPGSA,A,3,30,07,08,09,11,27,05,23,,,,,1.6,0.9,1.3*3A
$GPGSV,3,1,10,30,65,336,33,07,57,065,37,08,33,056,38,09,35,158,29*76
$GPGSV,3,2,10,11,18,110,26,27,06,034,23,28,63,250,23,05,19,278,37*7C
$GPGSV,3,3,10,23,05,149,31,20,02,319,*79
$GPRMC,161342.252,A,3720.1317,N,12142.9689,W,000.0,102.1,170617,,,A*76
$GPGGA,161343.252,3720.1317,N,12142.9689,W,1,09,0.9,439.2,M,,,,0000*1E
$GPGSA,A,3,30,07,08,09,11,27,28,05,23,,,,1.5,0.9,1.2*32
$GPRMC,161343.252,A,3720.1317,N,12142.9689,W,000.0,102.1,170617,,,A*77
$GPGGA,161344.252,3720.1316,N,12142.9689,W,1,09,0.9,439.2,M,,,,0000*18
$GPGSA,A,3,30,07,08,09,11,27,28,05,23,,,,1.5,0.9,1.2*32
$GPRMC,161344.252,A,3720.1316,N,12142.9689,W,000.0,102.1,170617,,,A*71
$GPGGA,161345.252,3720.1315,N,12142.9689,W,1,08,0.9,439.2,M,,,,0000*1B
$GPGSA,A,3,30,07,08,09,11,27,05,23,,,,,1.6,0.9,1.3*3A
$GPGSV,3,1,10,30,65,336,39,07,57,065,38,08,33,056,30,09,35,158,34*77
$GPGSV,3,2,10,11,18,110,31,27,06,034,26,28,63,250,26,05,19,278,38*75
$GPGSV,3,3,10,23,05,149,25,20,02,319,*7C
$GPRMC,161345.252,A,3720.1315,N,12142.9689,W,000.0,102.1,170617,,,A*73
$GPGGA,161346.252,3720.1315,N,12142.9689,W,1,09,0.9,439.1,M,,,,0000*1A
$GPGSA,A,3,30,07,08,09,11,27,28,05,23,,,,1.5,0.9,1.2*32
$GPRMC,161346.252,A,3720.1315,N,12142.9689,W,000.0,102.1,170617,,,A*70
$GPGGA,161347.252,3720.1316,N,12142.9689,W,1,08,1.0,439.1,M,,,,0000*11
$GPGSA,A,3,30,07,08,09,11,27,28,05,,,,,1.6,1.0,1.3*39
$GPRMC,161347.252,A,3720.1316,N,12142.9689,W,000.0,102.1,170617,,,A*72
$GPGGA,161348.252,3720.1316,N,12142.9689,W,1,07,1.2,439.1,M,,,,0000*13
$GPGSA,A,3,30,07,08,09,11,28,05,,,,,,2.0,1.2,1.7*3F
$GPGSV,3,1,10,30,65,336,32,07,57,065,35,08,33,056,40,09,35,158,30*72
$GPGSV,3,2,10,11,18,110,25,27,06,034,23,28,63,250,27,05,19,278,37*7B
$GPGSV,3,3,10,23,05,149,24,20,02,319,*7D
$GPRMC,161348.252,A,3720.1316,N,12142.9689,W,000.0,102.1,170617,,,A*7D
$GPGGA,161349.252,3720.1316,N,12142.9689,W,1,08,1.1,439.1,M,,,,0000*1E
$GPGSA,A,3,30,07,08,09,11,28,05,23,,,,,1.8,1.1,1.5*34
$GPRMC,161349.252,A,3720.1316,N,12142.9689,W,000.0,102.1,170617,,,A*7C
$GPGGA,161350.252,3720.1316,N,12142.9689,W,1,09,0.9,439.0,M,,,,0000*1F
$GPGSA,A,3,30,07,08,09,11,27,28,05,23,,,,1.5,0.9,1.2*32
$GPRMC,161350.252,A,3720.1316,N,12142.9689,W,000.0,102.1,170617,,,A*74
$GPGGA,161351.252,3720.1316,N,12142.9689,W,1,09,0.9,439.0,M,,,,0000*1E
$GPGSA,A,3,30,07,08,09,11,27,28,05,23,,,,1.5,0.9,1.2*32
$GPGSV,3,1,10,30,65,336,38,07,57,065,34,08,33,056,41,09,35,158,33*7B
$GPGSV,3,2,10,11,18,110,25,27,06,034,24,28,63,250,30,05,19,278,26*7A
$GPGSV,3,3,10,23,05,149,23,20,02,319,*7A
$GPRMC,161351.252,A,3720.1316,N,12142.9689,W,000.0,102.1,170617,,,A*75
$GPGGA,161352.252,3720.1316,N,12142.9689,W,1,09,0.9,439.1,M,,,,0000*1C
$GPGSA,A,3,30,07,08,09,11,27,28,05,23,,,,1.5,0.9,1.2*32
$GPRMC,161352.252,A,3720.1316,N,12142.9689,W,000.0,102.1,170617,,,A*76
$GPGGA,161353.252,3720.1316,N,12142.9690,W,1,08,1.1,439.2,M,,,,0000*1E
$GPGSA,A,3,30,07,08,09,11,28,05,23,,,,,1.8,1.1,1.5*34
$GPRMC,161353.252,A,3720.1316,N,12142.9690,W,000.0,102.1,170617,,,A*7F
$GPGGA,161354.252,3720.1316,N,12142.9690,W,1,08,1.1,439.2,M,,,,0000*19
$GPGSA,A,3,30,07,08,09,11,28,05,23,,,,,1.8,1.1,1.5*34
$GPGSV,3,1,10,30,65,336,37,07,57,066,33,08,33,056,33,09,35,158,28*7F
$GPGSV,3,2,10,11,18,110,26,27,06,034,23,28,63,250,35,05,19,278,35*79
$GPGSV,3,3,10,23,05,149,21,20,02,319,*78
$GPRMC,161354.252,A,3720.1316,N,12142.9690,W,000.0,102.1,170617,,,A*78
$GPGGA,161355.252,3720.1316,N,12142.9690,W,1,09,0.9,439.2,M,,,,0000*10
$GPGSA,A,3,30,07,08,09,11,27,28,05,23,,,,1.5,0.9,1.2*32
$GPRMC,161355.252,A,3720.1316,N,12142.9690,W,000.0,102.1,170617,,,A*79
$GPGGA,161356.252,3720.1316,N,12142.9690,W,1,09,0.9,439.2,M,,,,0000*13
$GPGSA,A,3,30,07,08,09,11,27,28,05,23,,,,1.5,0.9,1.2*32
$GPRMC,161356.252,A,3720.1316,N,12142.9690,W,000.0,102.1,170617,,,A*7A
$GPGGA,161357.252,3720.1316,N,12142.9690,W,1,07,1.0,439.1,M,,,,0000*17
$GPGSA,A,3,30,08,09,27,28,05,23,,,,,,1.6,1.0,1.3*3F
$GPGSV,3,1,10,30,65,336,34,07,57,066,28,08,33,056,35,09,34,158,31*79
$GPGSV,3,2,10,11,18,109,26,27,06,034,22,28,63,250,34,05,19,278,40*73
$GPGSV,3,3,10,23,05,149,29,20,02,319,*70
$GPRMC,161357.252,A,3720.1316,N,12142.9690,W,000.0,102.1,170617,,,A*7B
$GPGGA,161358.252,3720.1317,N,12142.9691,W,1,08,0.9,439.3,M,,,,0000*1D
$GPGSA,A,3,30,08,09,11,27,28,05,23,,,,,1.6,0.9,1.3*37
$GPRMC,161358.252,A,3720.1317,N,12142.9691,W,000.0,102.1,170617,,,A*74
$GPGGA,161359.252,3720.1318,N,12142.9691,W,1,09,0.9,439.3,M,,,,0000*12
$GPGSA,A,3,30,07,08,09,11,27,28,05,23,,,,1.5,0.9,1.2*32
$GPRMC,161359.252,A,3720.1318,N,12142.9691,W,000.9,004.9,170617,,,A*7C
$GPGGA,161400.252,3720.1319,N,12142.9690,W,1,09,0.9,439.2,M,,,,0000*18
$GPGSA,A,3,30,07,08,09,11,27,28,05,23,,,,1.5,0.9,1.2*32
$GPGSV,3,1,10,30,65,336,35,07,57,066,30,08,33,056,41,09,34,158,39*7A
$GPGSV,3,2,10,11,18,109,33,27,06,034,27,28,63,250,40,05,19,278,28*7F
$GPGSV,3,3,10,23,05,149,29,20,02,319,*70
$GPRMC,161400.252,A,3720.1319,N,12142.9690,W,000.0,004.9,170617,,,A*7E
$GPGGA,161401.252,3720.1319,N,12142.9690,W,1,09,0.9,439.1,M,,,,0000*1A
$GPGSA,A,3,30,07,08,09,11,27,28,05,23,,,,1.5,0.9,1.2*32
$GPRMC,161401.252,A,3720.1319,N,12142.9690,W,000.0,004.9,170617,,,A*7F
$GPGGA,161402.252,3720.1319,N,12142.9689,W,1,08,1.0,439.1,M,,,,0000*18
$GPGSA,A,3,30,07,08,11,27,28,05,23,,,,,1.5,1.0,1.2*33
$GPRMC,161402.252,A,3720.1319,N,12142.9689,W,000.0,004.9,170617,,,A*74
$GPGGA,161403.252,3720.1319,N,12142.9689,W,1,09,0.9,439.1,M,,,,0000*10
$GPGSA,A,3,30,07,08,09,11,27,28,05,23,,,,1.5,0.9,1.2*32
$GPGSV,3,1,10,30,65,336,33,07,57,066,36,08,33,056,41,09,34,158,28*7A
$GPGSV,3,2,10,11,18,109,31,27,06,034,24,28,63,250,28,05,19,278,34*7D
$GPGSV,3,3,10,23,05,149,25,20,02,319,*7C
$GPRMC,161403.252,A,3720.1319,N,12142.9689,W,000.0,004.9,170617,,,A*75
$GPGGA,161404.252,3720.1319,N,12142.9689,W,1,05,4.0,439.1,M,,,,0000*16
$GPGSA,A,3,07,08,09,11,23,,,,,,,,5.2,4.0,3.3*36
$GPRMC,161404.252,A,3720.1319,N,12142.9689,W,000.0,004.9,170617,,,A*72
$GPGGA,161405.252,3720.1319,N,12142.9689,W,1,08,1.1,439.1,M,,,,0000*1E
$GPGSA,A,3,30,07,08,09,11,28,05,23,,,,,1.8,1.1,1.5*34
$GPRMC,161405.252,A,3720.1319,N,12142.9689,W,000.0,004.9,170617,,,A*73
$GPGGA,161406.252,3720.1319,N,12142.9689,W,1,07,1.1,439.1,M,,,,0000*12
$GPGSA,A,3,30,07,08,09,28,05,23,,,,,,1.9,1.1,1.5*35
$GPGSV,3,1,10,30,65,336,41,07,57,066,40,08,33,056,41,09,34,158,41*71
$GPGSV,3,2,10,11,18,109,23,27,06,034,22,28,63,250,33,05,19,278,40*71
$GPGSV,3,3,10,23,05,149,37,20,02,319,*7F
$GPRMC,161406.252,A,3720.1319,N,12142.9689,W,000.0,004.9,170617,,,A*70
$GPGGA,161407.252,3720.1319,N,12142.9689,W,1,09,0.9,439.1,M,,,,0000*14
$GPGSA,A,3,30,07,08,09,11,27,28,05,23,,,,1.5,0.9,1.1*31
$GPRMC,161407.252,A,3720.1319,N,12142.9689,W,000.0,004.9,170617,,,A*71
$GPGGA,161408.252,3720.1319,N,12142.9689,W,1,08,0.9,439.1,M,,,,0000*1A
$GPGSA,A,3,30,07,09,11,27,28,05,23,,,,,1.5,0.9,1.2*3A
$GPRMC,161408.252,A,3720.1319,N,12142.9689,W,000.0,004.9,170617,,,A*7E
$GPGGA,161409.252,3720.1319,N,12142.9689,W,1,07,1.5,439.1,M,,,,0000*19
$GPGSA,A,3,30,07,08,09,11,27,28,,,,,,2.4,1.5,1.9*32
$GPGSV,3,1,10,30,65,337,33,07,57,066,25,08,33,056,29,09,34,158,27*78
$GPGSV,3,2,10,11,18,109,25,27,06,034,20,28,63,250,42,05,19,278,28*7D
$GPGSV,3,3,10,23,05,149,23,20,02,319,*7A
$GPRMC,161409.252,A,3720.1319,N,12142.9689,W,000.0,004.9,170617,,,A*7F
$GPGGA,161410.252,3720.1319,N,12142.9689,W,1,08,1.0,439.2,M,,,,0000*18
$GPGSA,A,3,30,07,08,09,11,27,28,05,,,,,1.6,1.0,1.3*39
$GPRMC,161410.252,A,3720.1319,N,12142.9689,W,000.0,004.9,170617,,,A*77
$GPGGA,161411.252,3720.1319,N,12142.9688,W,1,07,1.2,439.2,M,,,,0000*15
$GPGSA,A,3,30,07,08,09,11,28,05,,,,,,2.0,1.2,1.7*3F
$GPRMC,161411.252,A,3720.1319,N,12142.9688,W,000.0,004.9,170617,,,A*77
$GPGGA,161412.252,3720.1319,N,12142.9688,W,1,08,0.9,439.1,M,,,,0000*10
$GPGSA,A,3,30,08,09,11,27,28,05,23,,,,,1.6,0.9,1.3*37
$GPGSV,3,1,10,30,65,337,31,07,57,066,27,08,33,056,33,09,34,158,27*73
$GPGSV,3,2,10,11,18,109,33,27,06,034,18,28,63,250,39,05,19,278,45*76
$GPGSV,3,3,10,23,05,149,25,20,02,319,*7C
$GPRMC,161412.252,A,3720.1319,N,12142.9688,W,000.0,004.9,170617,,,A*74
$GPGGA,161413.252,3720.1319,N,12142.9689,W,1,07,1.0,439.1,M,,,,0000*17
$GPGSA,A,3,30,07,08,27,28,05,23,,,,,,1.6,1.0,1.2*30
$GPRMC,161413.252,A,3720.1319,N,12142.9689,W,000.0,004.9,170617,,,A*74
$GPGGA,161414.252,3720.1319,N,12142.9689,W,1,08,1.0,439.1,M,,,,0000*1F
$GPGSA,A,3,30,07,08,09,11,27,28,05,,,,,1.6,1.0,1.3*39
$GPRMC,161414.252,A,3720.1319,N,12142.9689,W,000.0,004.9,170617,,,A*73
$GPGGA,161415.252,3720.1318,N,12142.9689,W,1,08,1.0,439.1,M,,,,0000*1F
$GPGSA,A,3,30,07,08,09,11,27,28,05,,,,,1.6,1.0,1.3*39
$GPGSV,3,1,10,30,65,337,34,07,57,066,33,08,33,056,33,09,34,158,34*71
$GPGSV,3,2,10,11,18,109,32,27,06,034,20,28,63,250,40,05,19,278,28*79
$GPGSV,3,3,10,23,05,149,22,20,02,319,*7B
$GPRMC,161415.252,A,3720.1318,N,12142.9689,W,000.0,004.9,170617,,,A*73
$GPGGA,161416.252,3720.1319,N,12142.9689,W,1,08,1.0,439.0,M,,,,0000*1C
$GPGSA,A,3,30,07,08,09,11,27,28,05,,,,,1.6,1.0,1.3*39
$GPRMC,161416.252,A,3720.1319,N,12142.9689,W,000.0,004.9,170617,,,A*71
$GPGGA,161417.252,3720.1319,N,12142.9689,W,1,08,1.1,439.0,M,,,,0000*1C
$GPGSA,A,3,30,07,08,09,11,28,05,23,,,,,1.8,1.1,1.5*34
$GPRMC,161417.252,A,3720.1319,N,12142.9689,W,000.0,004.9,170617,,,A*70
$GPGGA,161418.252,3720.1319,N,12142.9689,W,1,08,1.1,439.0,M,,,,0000*13
$GPGSA,A,3,30,07,08,09,11,28,05,23,,,,,1.8,1.1,1.5*34
$GPGSV,3,1,10,30,65,337,39,07,57,066,37,08,33,056,30,09,34,158,24*7A
$GPGSV,3,2,10,11,18,109,31,27,06,034,17,28,63,250,44,05,19,278,35*76
$GPGSV,3,3,10,23,04,149,26,20,02,319,*7E
$GPRMC,161418.252,A,3720.1319,N,12142.9689,W,000.0,004.9,170617,,,A*7F
$GPGGA,161419.252,3720.1319,N,12142.9689,W,1,08,1.0,438.9,M,,,,0000*1B
$GPGSA,A,3,30,07,08,09,11,27,28,05,,,,,1.6,1.0,1.3*39
$GPRMC,161419.252,A,3720.1319,N,12142.9689,W,000.0,004.9,170617,,,A*7E
$GPGGA,161420.252,3720.1319,N,12142.9689,W,1,08,1.0,438.9,M,,,,0000*11
$GPGSA,A,3,30,07,08,09,11,27,28,05,,,,,1.6,1.0,1.3*39
$GPRMC,161420.252,A,3720.1319,N,12142.9689,W,000.0,004.9,170617,,,A*74
$GPGGA,161421.252,3720.1319,N,12142.9689,W,1,08,1.0,438.9,M,,,,0000*10
$GPGSA,A,3,30,07,08,09,11,27,28,05,,,,,1.6,1.0,1.3*39
$GPGSV,3,1,10,30,65,337,40,07,57,066,38,08,33,056,29,09,34,158,31*77
$GPGSV,3,2,10,11,18,109,30,27,06,034,19,28,63,250,30,05,19,278,39*76
$GPGSV,3,3,10,23,04,149,25,20,02,319,*7D
$GPRMC,161421.252,A,3720.1319,N,12142.9689,W,000.0,004.9,170617,,,A*75
$GPGGA,161422.252,3720.1318,N,12142.9689,W,1,07,1.3,438.9,M,,,,0000*1E
$GPGSA,A,3,30,07,08,11,27,28,05,,,,,,1.8,1.3,1.3*3D
$GPRMC,161422.252,A,3720.1318,N,12142.9689,W,000.0,004.9,170617,,,A*77
$GPGGA,161423.252,3720.1318,N,12142.9690,W,1,07,1.3,438.9,M,,,,0000*17
$GPGSA,A,3,30,07,08,11,27,28,05,,,,,,1.8,1.3,1.3*3D
$GPRMC,161423.252,A,3720.1318,N,12142.9690,W,000.0,004.9,170617,,,A*7E
$GPGGA,161424.252,3720.1318,N,12142.9689,W,1,07,1.3,438.8,M,,,,0000*19
$GPGSA,A,3,30,07,08,11,27,28,05,,,,,,1.8,1.3,1.3*3D
$GPGSV,3,1,10,30,65,337,39,07,57,066,32,08,33,056,32,09,34,158,31*79
$GPGSV,3,2,10,11,18,109,33,27,06,034,17,28,64,251,41,05,19,278,42*77
$GPGSV,3,3,10,23,04,149,27,20,02,319,*7F
$GPRMC,161424.252,A,3720.1318,N,12142.9689,W,000.0,004.9,170617,,,A*71
$GPGGA,161425.252,3720.1318,N,12142.9689,W,1,08,1.0,438.8,M,,,,0000*14
$GPGSA,A,3,30,07,08,09,11,27,28,05,,,,,1.6,1.0,1.3*39
$GPRMC,161425.252,A,3720.1318,N,12142.9689,W,000.0,004.9,170617,,,A*70
$GPGGA,161426.252,3720.1318,N,12142.9689,W,1,08,1.0,438.8,M,,,,0000*17
$GPGSA,A,3,30,07,08,09,11,27,28,05,,,,,1.6,1.0,1.3*39
$GPRMC,161426.252,A,3720.1318,N,12142.9689,W,000.0,004.9,170617,,,A*73
$GPGGA,161427.252,3720.1318,N,12142.9689,W,1,08,1.0,438.8,M,,,,0000*16
$GPGSA,A,3,30,07,08,09,11,27,28,05,,,,,1.6,1.0,1.3*39
$GPGSV,3,1,10,30,65,337,31,07,57,066,32,08,33,056,33,09,34,158,41*77
$GPGSV,3,2,10,11,18,109,31,27,06,034,16,28,64,251,41,05,19,278,32*73
$GPGSV,3,3,10,23,04,149,33,20,02,319,*7A
$GPRMC,161427.252,A,3720.1318,N,12142.9689,W,000.0,004.9,170617,,,A*72
$GPGGA,161428.252,3720.1318,N,12142.9689,W,1,07,1.0,438.8,M,,,,0000*16
$GPGSA,A,3,30,07,09,11,27,28,05,,,,,,1.7,1.0,1.3*30
$GPRMC,161428.252,A,3720.1318,N,12142.9689,W,000.0,004.9,170617,,,A*7D
$GPGGA,161429.252,3720.1318,N,12142.9689,W,1,08,1.0,438.9,M,,,,0000*19
$GPGSA,A,3,30,07,08,09,11,27,28,05,,,,,1.6,1.0,1.3*39
$GPRMC,161429.252,A,3720.1318,N,12142.9689,W,000.0,004.9,170617,,,A*7C
$GPGGA,161430.252,3720.1318,N,12142.9689,W,1,06,1.2,438.9,M,,,,0000*1D
$GPGSA,A,3,30,07,08,09,28,05,,,,,,,2.3,1.2,1.9*32
$GPGSV,3,1,10,30,65,337,35,07,57,066,29,08,33,055,31,09,34,158,39*77
$GPGSV,3,2,10,11,18,109,28,27,06,034,15,28,64,251,40,05,19,278,41*7D
$GPGSV,3,3,10,23,04,149,29,20,02,319,*71
$GPRMC,161430.252,A,3720.1318,N,12142.9689,W,000.0,004.9,170617,,,A*74
$GPGGA,161431.252,3720.1318,N,12142.9689,W,1,07,1.2,438.8,M,,,,0000*1C
$GPGSA,A,3,30,07,08,09,11,28,05,,,,,,2.0,1.2,1.7*3F
$GPRMC,161431.252,A,3720.1318,N,12142.9689,W,000.0,004.9,170617,,,A*75
$GPGGA,161432.252,3720.1318,N,12142.9689,W,1,08,1.0,438.9,M,,,,0000*13
$GPGSA,A,3,30,07,08,09,11,27,28,05,,,,,1.6,1.0,1.3*39
$GPRMC,161432.252,A,3720.1318,N,12142.9689,W,000.0,004.9,170617,,,A*76
$GPGGA,161433.252,3720.1318,N,12142.9689,W,1,07,1.0,438.9,M,,,,0000*1D
$GPGSA,A,3,30,08,09,11,27,28,05,,,,,,1.8,1.0,1.5*36
$GPGSV,3,1,10,30,65,337,43,07,57,066,25,08,33,055,30,09,34,158,29*7A
$GPGSV,3,2,10,11,18,109,26,27,06,034,14,28,64,251,42,05,19,278,46*77
$GPGSV,3,3,10,23,04,149,25,20,02,319,*7D
$GPRMC,161433.252,A,3720.1318,N,12142.9689,W,000.0,004.9,170617,,,A*77
$GPGGA,161434.252,3720.1319,N,12142.9689,W,1,07,1.2,438.7,M,,,,0000*17
$GPGSA,A,3,30,07,08,09,11,28,05,,,,,,2.0,1.2,1.7*3F
$GPRMC,161434.252,A,3720.1319,N,12142.9689,W,000.0,004.9,170617,,,A*71
$GPGGA,161435.252,3720.1319,N,12142.9690,W,1,07,1.2,438.6,M,,,,0000*1F
$GPGSA,A,3,30,07,08,09,11,28,05,,,,,,2.0,1.2,1.7*3F
$GPRMC,161435.252,A,3720.1319,N,12142.9690,W,000.0,004.9,170617,,,A*78
$GPGGA,161436.252,3720.1319,N,12142.9689,W,1,07,1.2,438.7,M,,,,0000*15
$GPGSA,A,3,30,07,08,09,11,28,05,,,,,,2.0,1.2,1.7*3F
$GPGSV,3,1,10,30,65,337,41,07,57,066,34,08,33,055,25,09,34,158,27*72
$GPGSV,3,2,10,11,18,109,24,27,06,034,15,28,64,251,41,05,19,278,45*74
$GPGSV,3,3,10,23,04,149,21,20,02,319,*79
$GPRMC,161436.252,A,3720.1319,N,12142.9689,W,000.0,004.9,170617,,,A*73
$GPGGA,161437.252,3720.1319,N,12142.9688,W,1,08,1.0,438.9,M,,,,0000*16
$GPGSA,A,3,30,07,08,09,11,27,28,05,,,,,1.6,1.0,1.3*39
$GPRMC,161437.252,A,3720.1319,N,12142.9688,W,000.0,004.9,170617,,,A*73
$GPGGA,161438.252,3720.1319,N,12142.9688,W,1,07,1.2,439.0,M,,,,0000*1C
$GPGSA,A,3,30,07,08,09,11,28,05,,,,,,2.0,1.2,1.6*3E
$GPRMC,161438.252,A,3720.1319,N,12142.9688,W,000.0,004.9,170617,,,A*7C
$GPGGA,161439.252,3720.1319,N,12142.9688,W,1,07,1.2,439.0,M,,,,0000*1D
$GPGSA,A,3,30,07,08,09,11,28,05,,,,,,2.0,1.2,1.6*3E
$GPGSV,3,1,10,30,65,337,42,07,57,066,31,08,33,055,32,09,34,158,29*7C
$GPGSV,3,2,10,11,18,109,25,27,06,034,14,28,64,251,41,05,19,278,45*74
$GPGSV,3,3,10,23,04,149,20,20,02,319,*78
$GPRMC,161439.252,A,3720.1319,N,12142.9688,W,000.0,004.9,170617,,,A*7D
$GPGGA,161440.252,3720.1319,N,12142.9688,W,1,06,1.2,438.9,M,,,,0000*1A
$GPGSA,A,3,30,07,08,09,28,05,,,,,,,2.3,1.2,1.9*32
$GPRMC,161440.252,A,3720.1319,N,12142.9688,W,000.0,004.9,170617,,,A*73
$GPGGA,161441.252,3720.1319,N,12142.9688,W,1,06,1.2,438.9,M,,,,0000*1B
$GPGSA,A,3,30,07,08,09,28,05,,,,,,,2.3,1.2,1.9*32
$GPRMC,161441.252,A,3720.1319,N,12142.9688,W,000.0,004.9,170617,,,A*72
$GPGGA,161442.252,3720.1319,N,12142.9688,W,1,07,1.2,439.0,M,,,,0000*11
$GPGSA,A,3,30,07,08,09,11,28,05,,,,,,2.0,1.2,1.6*3E
$GPGSV,3,1,10,30,65,337,39,07,57,066,33,08,33,055,29,09,34,158,27*76
$GPGSV,3,2,10,11,18,109,25,27,06,034,12,28,64,251,41,05,19,278,45*72
$GPGSV,3,3,10,23,04,149,24,20,02,319,*7C
$GPRMC,161442.252,A,3720.1319,N,12142.9688,W,000.0,004.9,170617,,,A*71
$GPGGA,161443.252,3720.1319,N,12142.9688,W,1,07,1.2,439.0,M,,,,0000*10
$GPGSA,A,3,30,07,08,09,11,28,05,,,,,,2.0,1.2,1.6*3E
$GPRMC,161443.252,A,3720.1319,N,12142.9688,W,000.0,004.9,170617,,,A*70
$GPGGA,161444.252,3720.1319,N,12142.9689,W,1,07,1.2,439.0,M,,,,0000*16
$GPGSA,A,3,30,07,08,09,11,28,05,,,,,,2.0,1.2,1.6*3E
$GPRMC,161444.252,A,3720.1319,N,12142.9689,W,000.0,004.9,170617,,,A*76
$GPGGA,161445.252,3720.1319,N,12142.9689,W,1,06,1.2,439.0,M,,,,0000*16
$GPGSA,A,3,30,07,08,09,28,05,,,,,,,2.3,1.2,1.9*32
$GPGSV,3,1,10,30,65,337,42,07,57,066,30,08,33,055,30,09,34,158,32*75
$GPGSV,3,2,10,11,18,109,22,27,06,034,08,28,64,251,41,05,19,278,42*79
$GPGSV,3,3,10,23,04,149,24,20,02,319,*7C
$GPRMC,161445.252,A,3720.1319,N,12142.9689,W,000.0,004.9,170617,,,A*77
$GPGGA,161446.252,3720.1319,N,12142.9689,W,1,06,1.2,439.0,M,,,,0000*15
$GPGSA,A,3,30,07,08,09,28,05,,,,,,,2.3,1.2,1.9*32
$GPRMC,161446.252,A,3720.1319,N,12142.9689,W,000.0,004.9,170617,,,A*74
$GPGGA,161447.252,3720.1319,N,12142.9689,W,1,07,1.2,438.9,M,,,,0000*1D
$GPGSA,A,3,30,07,08,09,11,28,05,,,,,,2.0,1.2,1.6*3E
$GPRMC,161447.252,A,3720.1319,N,12142.9689,W,000.0,004.9,170617,,,A*75
$GPGGA,161448.252,3720.1319,N,12142.9689,W,1,07,1.2,439.0,M,,,,0000*1A
$GPGSA,A,3,30,07,08,09,11,28,05,,,,,,2.0,1.2,1.6*3E
$GPGSV,3,1,10,30,65,337,38,07,57,066,32,08,33,055,27,09,34,158,35*7B
$GPGSV,3,2,10,11,18,109,22,27,06,034,09,28,64,251,40,05,19,278,44*7F
$GPGSV,3,3,10,23,04,149,25,20,02,319,*7D
$GPRMC,161448.252,A,3720.1319,N,12142.9689,W,001.0,064.8,170617,,,A*7C
$GPGGA,161449.252,3720.1319,N,12142.9689,W,1,07,1.2,439.0,M,,,,0000*1B
$GPGSA,A,3,30,07,08,09,11,28,05,,,,,,2.0,1.2,1.6*3E
$GPRMC,161449.252,A,3720.1319,N,12142.9689,W,001.1,055.4,170617,,,A*72
$GPGGA,161450.252,3720.1319,N,12142.9689,W,1,07,1.2,439.0,M,,,,0000*13
$GPGSA,A,3,30,07,08,09,11,28,05,,,,,,2.0,1.2,1.6*3E
$GPRMC,161450.252,A,3720.1319,N,12142.9689,W,001.0,054.6,170617,,,A*78
$GPGGA,161451.252,3720.1319,N,12142.9689,W,1,06,1.7,439.0,M,,,,0000*16
$GPGSA,A,3,30,07,08,11,28,05,,,,,,,2.4,1.7,1.7*37
$GPGSV,3,1,10,30,65,337,38,07,57,066,29,08,33,055,28,09,34,158,29*73
$GPGSV,3,2,10,11,18,109,23,27,06,034,10,28,64,251,41,05,19,278,41*72
$GPGSV,3,3,10,23,04,149,27,20,02,319,*7F
$GPRMC,161451.252,A,3720.1319,N,12142.9689,W,000.9,047.3,170617,,,A*76
$GPGGA,161452.252,3720.1319,N,12142.9689,W,1,07,1.2,439.1,M,,,,0000*10
$GPGSA,A,3,30,07,08,09,11,28,05,,,,,,2.0,1.2,1.6*3E
$GPRMC,161452.252,A,3720.1319,N,12142.9689,W,000.9,059.4,170617,,,A*7D
$GPGGA,161453.252,3720.1319,N,12142.9689,W,1,06,1.7,439.1,M,,,,0000*15
$GPGSA,A,3,30,07,08,11,28,05,,,,,,,2.4,1.7,1.7*37
$GPRMC,161453.252,A,3720.1319,N,12142.9689,W,001.0,044.2,170617,,,A*7E
$GPGGA,161454.252,3720.1319,N,12142.9689,W,1,07,1.2,439.1,M,,,,0000*16
$GPGSA,A,3,30,07,08,09,11,28,05,,,,,,2.0,1.2,1.6*3E
$GPGSV,3,1,10,30,65,337,38,07,57,066,32,08,33,055,25,09,34,158,30*7C
$GPGSV,3,2,10,11,18,109,26,28,64,251,44,05,19,278,42,23,04,149,26*79
$GPGSV,3,3,10,27,06,034,,20,02,319,*77
$GPRMC,161454.252,A,3720.1319,N,12142.9689,W,001.1,037.8,170617,,,A*76
$GPGGA,161455.252,3720.1319,N,12142.9689,W,1,07,1.2,439.2,M,,,,0000*14
$GPGSA,A,3,30,07,08,09,11,28,05,,,,,,2.0,1.2,1.6*3E
$GPRMC,161455.252,A,3720.1319,N,12142.9689,W,001.1,041.1,170617,,,A*7F
$GPGGA,161456.252,3720.1322,N,12142.9686,W,1,07,1.2,439.7,M,,,,0000*15
$GPGSA,A,3,30,07,08,09,11,28,05,,,,,,2.0,1.2,1.6*3E
$GPRMC,161456.252,A,3720.1322,N,12142.9686,W,001.2,040.9,170617,,,A*71
$GPGGA,161457.252,3720.1324,N,12142.9684,W,1,07,1.2,440.3,M,,,,0000*1A
$GPGSA,A,3,30,07,08,09,11,28,05,,,,,,2.0,1.2,1.6*3E
$GPGSV,3,1,10,30,65,337,32,07,57,066,33,08,33,055,28,09,34,158,25*7E
