$GPGGA,183618.000,0000.0000,N,00000.0000,E,0,00,0.0,0.0,M,,,,0000*0B
$GPGSA,A,1,,,,,,,,,,,,,0.0,0.0,0.0*30
$GPGSV,2,1,07,10,00,000,46,32,00,000,41,04,00,000,39,14,00,000,40*75
$GPGSV,2,2,07,20,00,000,38,21,00,000,37,27,00,000,38*4E
$GPRMC,183618.000,V,0000.0000,N,00000.0000,E,000.0,000.0,241118,,,N*7C
$GPGGA,183619.000,0000.0000,N,00000.0000,E,0,00,0.0,0.0,M,,,,0000*0A
$GPGSA,A,1,,,,,,,,,,,,,0.0,0.0,0.0*30
$GPRMC,183619.000,V,0000.0000,N,00000.0000,E,000.0,000.0,241118,,,N*7D
$GPGGA,183620.000,0000.0000,N,00000.0000,E,0,00,0.0,0.0,M,,,,0000*00
$GPGSA,A,1,,,,,,,,,,,,,0.0,0.0,0.0*30
$GPRMC,183620.000,V,0000.0000,N,00000.0000,E,000.0,000.0,241118,,,N*77
$GPGGA,183621.000,0000.0000,N,00000.0000,E,0,00,0.0,0.0,M,,,,0000*01
$GPGSA,A,1,,,,,,,,,,,,,0.0,0.0,0.0*30
$GPGSV,2,1,07,10,00,000,46,32,00,000,43,04,00,000,41,14,00,000,41*79
$GPGSV,2,2,07,20,00,000,39,21,00,000,37,27,00,000,40*40
$GPRMC,183621.000,V,0000.0000,N,00000.0000,E,000.0,000.0,241118,,,N*76
$GPGGA,183622.000,0000.0000,N,00000.0000,E,0,00,0.0,0.0,M,,,,0000*02
$GPGSA,A,1,,,,,,,,,,,,,0.0,0.0,0.0*30
$GPRMC,183622.000,V,0000.0000,N,00000.0000,E,000.0,000.0,241118,,,N*75
$GPGGA,183623.000,0000.0000,N,00000.0000,E,0,00,0.0,0.0,M,,,,0000*03
$GPGSA,A,1,,,,,,,,,,,,,0.0,0.0,0.0*30
$GPRMC,183623.000,V,0000.0000,N,00000.0000,E,000.0,000.0,241118,,,N*74
$GPGGA,183624.000,0000.0000,N,00000.0000,E,0,00,0.0,0.0,M,,,,0000*04
$GPGSA,A,1,,,,,,,,,,,,,0.0,0.0,0.0*30
$GPGSV,2,1,07,10,00,000,46,32,00,000,43,04,00,000,41,14,00,000,41*79
$GPGSV,2,2,07,20,00,000,39,21,00,000,36,27,00,000,39*4F
$GPRMC,183624.000,V,0000.0000,N,00000.0000,E,000.0,000.0,241118,,,N*73
$GPGGA,183625.000,0000.0000,N,00000.0000,E,0,00,0.0,0.0,M,,,,0000*05
$GPGSA,A,1,,,,,,,,,,,,,0.0,0.0,0.0*30
$GPRMC,183625.000,V,0000.0000,N,00000.0000,E,000.0,000.0,241118,,,N*72
$GPGGA,183626.000,0000.0000,N,00000.0000,E,0,00,0.0,0.0,M,,,,0000*06
$GPGSA,A,1,,,,,,,,,,,,,0.0,0.0,0.0*30
$GPRMC,183626.000,V,0000.0000,N,00000.0000,E,000.0,000.0,241118,,,N*71
$GPGGA,183627.000,0000.0000,N,00000.0000,E,0,00,0.0,0.0,M,,,,0000*07
$GPGSA,A,1,,,,,,,,,,,,,0.0,0.0,0.0*30
$GPGSV,2,1,07,10,00,000,46,32,00,000,43,04,00,000,41,14,00,000,42*7A
$GPGSV,2,2,07,20,00,000,41,21,00,000,34,27,00,000,39*42
$GPRMC,183627.000,V,0000.0000,N,00000.0000,E,000.0,000.0,241118,,,N*70
$GPGGA,183628.927,3804.9750,N,12255.9389,W,1,03,5.9,-0.0,M,,,,0000*3B
$GPGSA,A,2,32,20,27,,,,,,,,,,5.9,5.9,0.0*35
$GPRMC,183628.927,A,3804.9750,N,12255.9389,W,000.0,000.0,241118,,,A*77
$GPGGA,183629.927,3804.9749,N,12255.9389,W,1,03,20.0,0.1,M,,,,0000*20
$GPGSA,A,2,32,20,27,,,,,,,,,,20.0,20.0,20.0*07
$GPRMC,183629.927,A,3804.9749,N,12255.9389,W,000.0,000.0,241118,,,A*7E
$GPGGA,183630.927,3804.9749,N,12255.9389,W,1,03,20.0,0.0,M,,,,0000*29
$GPGSA,A,2,32,20,27,,,,,,,,,,20.0,20.0,20.0*07
$GPGSV,2,1,08,10,00,000,41,32,71,190,45,04,34,220,41,14,00,000,41*7E
$GPGSV,2,2,08,20,42,067,38,21,00,000,34,27,45,241,40,08,00,000,38*7F
$GPRMC,183630.927,A,3804.9749,N,12255.9389,W,000.0,000.0,241118,,,A*76
$GPGGA,183631.927,3804.9749,N,12255.9389,W,1,03,20.0,0.0,M,,,,0000*28
$GPGSA,A,2,32,20,27,,,,,,,,,,20.0,20.0,20.0*07
$GPRMC,183631.927,A,3804.9749,N,12255.9389,W,000.0,000.0,241118,,,A*77
$GPGGA,183632.927,3804.9749,N,12255.9389,W,1,03,20.0,0.1,M,,,,0000*2A
$GPGSA,A,2,32,20,27,,,,,,,,,,20.0,20.0,20.0*07
$GPRMC,183632.927,A,3804.9749,N,12255.9389,W,000.0,000.0,241118,,,A*74
$GPGGA,183633.927,3804.9749,N,12255.9390,W,1,03,20.0,0.1,M,,,,0000*23
$GPGSA,A,2,32,20,27,,,,,,,,,,20.0,20.0,20.0*07
$GPGSV,2,1,08,10,00,000,33,32,71,190,40,04,34,220,41,14,00,000,41*7E
$GPGSV,2,2,08,20,42,067,39,21,00,000,38,27,45,241,45,08,00,000,42*7A
$GPRMC,183633.927,A,3804.9749,N,12255.9390,W,000.0,000.0,241118,,,A*7D
$GPGGA,183634.927,3804.9737,N,12255.9387,W,1,05,2.0,-2.6,M,,,,0000*35
$GPGSA,A,3,32,14,20,21,27,,,,,,,,4.2,2.0,3.7*32
$GPRMC,183634.927,A,3804.9737,N,12255.9387,W,000.0,000.0,241118,,,A*75
$GPGGA,183635.927,3804.9742,N,12255.9398,W,1,05,2.0,-3.8,M,,,,0000*37
$GPGSA,A,3,32,14,20,21,27,,,,,,,,4.2,2.0,3.7*32
$GPRMC,183635.927,A,3804.9742,N,12255.9398,W,000.0,000.0,241118,,,A*78
$GPGGA,183636.927,3804.9739,N,12255.9395,W,1,05,2.0,-4.5,M,,,,0000*3F
$GPGSA,A,3,32,14,20,21,27,,,,,,,,4.2,2.0,3.7*32
$GPGSV,2,1,08,10,00,000,35,32,71,190,39,04,34,220,35,14,49,200,42*79
$GPGSV,2,2,08,20,42,067,26,21,27,130,37,27,45,241,40,08,00,000,42*79
$GPRMC,183636.927,A,3804.9739,N,12255.9395,W,000.0,000.0,241118,,,A*7A
$GPGGA,183637.927,3804.9726,N,12255.9395,W,1,05,2.0,-6.3,M,,,,0000*34
$GPGSA,A,3,32,14,20,21,27,,,,,,,,4.2,2.0,3.7*32
$GPRMC,183637.927,A,3804.9726,N,12255.9395,W,000.0,000.0,241118,,,A*75
$GPGGA,183638.927,3804.9724,N,12255.9396,W,1,05,2.0,-7.6,M,,,,0000*3E
$GPGSA,A,3,32,14,20,21,27,,,,,,,,4.2,2.0,3.7*32
$GPRMC,183638.927,A,3804.9724,N,12255.9396,W,000.0,000.0,241118,,,A*7B
$GPGGA,183639.927,3804.9721,N,12255.9390,W,1,05,2.0,-7.5,M,,,,0000*3F
$GPGSA,A,3,32,14,20,21,27,,,,,,,,4.2,2.0,3.7*32
$GPGSV,2,1,08,10,00,000,39,32,71,190,42,04,34,220,38,14,49,200,42*74
$GPGSV,2,2,08,20,42,067,34,21,27,130,35,27,45,241,40,08,00,000,41*7B
$GPRMC,183639.927,A,3804.9721,N,12255.9390,W,000.0,000.0,241118,,,A*79
$GPGGA,183640.927,3804.9718,N,12255.9388,W,1,05,2.0,-7.1,M,,,,0000*36
$GPGSA,A,3,32,14,20,21,27,,,,,,,,4.2,2.0,3.7*32
$GPRMC,183640.927,A,3804.9718,N,12255.9388,W,000.0,000.0,241118,,,A*74
$GPGGA,183641.927,3804.9718,N,12255.9388,W,1,05,2.0,-7.1,M,,,,0000*37
$GPGSA,A,3,32,14,20,21,27,,,,,,,,4.2,2.0,3.7*32
$GPRMC,183641.927,A,3804.9718,N,12255.9388,W,000.0,000.0,241118,,,A*75
$GPGGA,183642.927,3804.9718,N,12255.9388,W,1,05,2.0,-7.1,M,,,,0000*34
$GPGSA,A,3,32,14,20,21,27,,,,,,,,4.2,2.0,3.7*32
$GPGSV,2,1,08,10,00,000,38,32,71,189,38,04,34,220,40,14,49,200,43*7E
$GPGSV,2,2,08,20,42,067,34,21,27,130,35,27,45,241,41,08,00,000,41*7A
$GPRMC,183642.927,A,3804.9718,N,12255.9388,W,000.0,000.0,241118,,,A*76
$GPGGA,183643.927,3804.9718,N,12255.9388,W,1,05,2.0,-7.2,M,,,,0000*36
$GPGSA,A,3,32,14,20,21,27,,,,,,,,4.2,2.0,3.7*32
$GPRMC,183643.927,A,3804.9718,N,12255.9388,W,000.0,000.0,241118,,,A*77
$GPGGA,183644.927,3804.9718,N,12255.9387,W,1,05,2.0,-7.3,M,,,,0000*3F
$GPGSA,A,3,32,14,20,21,27,,,,,,,,4.2,2.0,3.7*32
$GPRMC,183644.927,A,3804.9718,N,12255.9387,W,000.0,000.0,241118,,,A*7F
$GPGGA,183645.927,3804.9718,N,12255.9387,W,1,05,2.0,-7.3,M,,,,0000*3E
$GPGSA,A,3,32,14,20,21,27,,,,,,,,4.2,2.0,3.7*32
$GPGSV,2,1,08,10,00,000,41,32,71,189,36,04,34,220,36,14,50,200,37*74
$GPGSV,2,2,08,20,41,067,31,21,27,130,32,27,45,241,34,08,00,000,35*7A
$GPRMC,183645.927,A,3804.9718,N,12255.9387,W,000.0,000.0,241118,,,A*7E
$GPGGA,183646.927,3804.9718,N,12255.9388,W,1,05,2.0,-7.3,M,,,,0000*32
$GPGSA,A,3,32,14,20,21,27,,,,,,,,4.2,2.0,3.6*33
$GPRMC,183646.927,A,3804.9718,N,12255.9388,W,000.0,000.0,241118,,,A*72
$GPGGA,183647.927,3804.9718,N,12255.9388,W,1,04,3.6,-7.3,M,,,,0000*35
$GPGSA,A,3,32,14,20,27,,,,,,,,,6.4,3.6,5.3*30
$GPRMC,183647.927,A,3804.9718,N,12255.9388,W,000.0,000.0,241118,,,A*73
$GPGGA,183648.927,3804.9717,N,12255.9386,W,1,05,2.0,-7.7,M,,,,0000*39
$GPGSA,A,3,32,14,20,21,27,,,,,,,,4.2,2.0,3.6*33
$GPGSV,2,1,07,10,00,000,29,32,71,189,46,04,34,220,43,14,50,200,40*70
$GPGSV,2,2,07,20,41,067,34,21,27,130,41,27,45,241,44*4D
$GPRMC,183648.927,A,3804.9717,N,12255.9386,W,000.0,000.0,241118,,,A*7D
$GPGGA,183649.927,3804.9716,N,12255.9385,W,1,05,2.1,-8.1,M,,,,0000*32
$GPGSA,A,3,32,14,20,21,27,,,,,,,,4.2,2.1,3.6*32
$GPRMC,183649.927,A,3804.9716,N,12255.9385,W,000.0,000.0,241118,,,A*7E
$GPGGA,183650.927,3804.9716,N,12255.9383,W,1,05,2.1,-8.3,M,,,,0000*3E
$GPGSA,A,3,32,14,20,21,27,,,,,,,,4.2,2.1,3.6*32
$GPRMC,183650.927,A,3804.9716,N,12255.9383,W,000.0,000.0,241118,,,A*70
$GPGGA,183651.927,3804.9715,N,12255.9382,W,1,05,2.1,-8.5,M,,,,0000*3B
$GPGSA,A,3,32,14,20,21,27,,,,,,,,4.2,2.1,3.6*32
$GPGSV,2,1,07,10,00,000,35,32,71,189,44,04,34,220,42,14,50,200,39*70
$GPGSV,2,2,07,20,41,067,36,21,27,130,42,27,45,241,44*4C
$GPRMC,183651.927,A,3804.9715,N,12255.9382,W,000.0,000.0,241118,,,A*73
$GPGGA,183652.927,3804.9715,N,12255.9380,W,1,05,2.1,-8.7,M,,,,0000*38
$GPGSA,A,3,32,14,20,21,27,,,,,,,,4.2,2.1,3.6*32
$GPRMC,183652.927,A,3804.9715,N,12255.9380,W,000.0,000.0,241118,,,A*72
$GPGGA,183653.927,3804.9714,N,12255.9378,W,1,05,2.1,-9.0,M,,,,0000*39
$GPGSA,A,3,32,14,20,21,27,,,,,,,,4.2,2.1,3.6*32
$GPRMC,183653.927,A,3804.9714,N,12255.9378,W,000.0,000.0,241118,,,A*75
$GPGGA,183654.927,3804.9714,N,12255.9377,W,1,05,2.1,-9.2,M,,,,0000*33
$GPGSA,A,3,32,14,20,21,27,,,,,,,,4.2,2.1,3.6*32
$GPGSV,2,1,07,10,00,000,36,32,71,189,44,04,34,220,42,14,50,200,40*7D
$GPGSV,2,2,07,20,41,067,35,21,27,130,42,27,45,240,44*4E
$GPRMC,183654.927,A,3804.9714,N,12255.9377,W,000.0,000.0,241118,,,A*7D
$GPGGA,183655.927,3804.9713,N,12255.9376,W,1,05,2.1,-9.3,M,,,,0000*35
$GPGSA,A,3,32,14,20,21,27,,,,,,,,4.2,2.1,3.6*32
$GPRMC,183655.927,A,3804.9713,N,12255.9376,W,000.0,000.0,241118,,,A*7A
$GPGGA,183656.927,3804.9713,N,12255.9373,W,1,05,2.1,-9.5,M,,,,0000*35
$GPGSA,A,3,32,14,20,21,27,,,,,,,,4.2,2.1,3.6*32
$GPRMC,183656.927,A,3804.9713,N,12255.9373,W,000.0,000.0,241118,,,A*7C
$GPGGA,183657.927,3804.9712,N,12255.9371,W,1,05,2.1,-9.6,M,,,,0000*34
$GPGSA,A,3,32,14,20,21,27,,,,,,,,4.2,2.1,3.6*32
$GPGSV,2,1,07,10,00,000,36,32,71,189,44,04,34,220,43,14,50,200,40*7C
$GPGSV,2,2,07,20,41,067,35,21,27,130,42,27,45,240,44*4E
$GPRMC,183657.927,A,3804.9712,N,12255.9371,W,000.0,000.0,241118,,,A*7E
$GPGGA,183658.927,3804.9712,N,12255.9371,W,1,05,2.1,-9.7,M,,,,0000*3A
$GPGSA,A,3,32,14,20,21,27,,,,,,,,4.2,2.1,3.6*32
$GPRMC,183658.927,A,3804.9712,N,12255.9371,W,000.0,000.0,241118,,,A*71
$GPGGA,183659.927,3804.9711,N,12255.9371,W,1,05,2.1,-10.0,M,,,,0000*07
$GPGSA,A,3,32,14,20,21,27,,,,,,,,4.2,2.1,3.6*32
$GPRMC,183659.927,A,3804.9711,N,12255.9371,W,000.0,000.0,241118,,,A*73
$GPGGA,183700.927,3804.9711,N,12255.9369,W,1,05,2.1,-10.2,M,,,,0000*01
$GPGSA,A,3,32,14,20,21,27,,,,,,,,4.2,2.1,3.6*32
$GPGSV,2,1,07,10,00,000,36,32,71,189,44,04,34,220,38,14,50,200,41*71
$GPGSV,2,2,07,20,41,067,36,21,27,130,41,27,45,240,37*4A
$GPRMC,183700.927,A,3804.9711,N,12255.9369,W,000.0,000.0,241118,,,A*77
$GPGGA,183701.927,3804.9712,N,12255.9366,W,1,05,2.1,-10.3,M,,,,0000*0D
$GPGSA,A,3,32,14,20,21,27,,,,,,,,4.2,2.1,3.6*32
$GPRMC,183701.927,A,3804.9712,N,12255.9366,W,000.0,000.0,241118,,,A*7A
$GPGGA,183702.927,3804.9712,N,12255.9365,W,1,05,2.1,-10.5,M,,,,0000*0B
$GPGSA,A,3,32,14,20,21,27,,,,,,,,4.2,2.1,3.6*32
$GPRMC,183702.927,A,3804.9712,N,12255.9365,W,000.0,000.0,241118,,,A*7A
$GPGGA,183703.927,3804.9712,N,12255.9364,W,1,05,2.1,-10.6,M,,,,0000*08
$GPGSA,A,3,32,14,20,21,27,,,,,,,,4.2,2.1,3.6*32
$GPGSV,2,1,07,10,00,000,39,32,72,189,42,04,34,220,39,14,50,200,42*79
$GPGSV,2,2,07,20,41,067,34,21,27,130,40,27,45,240,35*4B
$GPRMC,183703.927,A,3804.9712,N,12255.9364,W,000.0,000.0,241118,,,A*7A
$GPGGA,183704.927,3804.9687,N,12255.9336,W,1,06,1.9,-14.9,M,,,,0000*06
$GPGSA,A,3,10,32,14,20,21,27,,,,,,,4.0,1.9,3.6*3A
$GPRMC,183704.927,A,3804.9687,N,12255.9336,W,000.0,000.0,241118,,,A*77
$GPGGA,183705.927,3804.9690,N,12255.9337,W,1,06,1.9,-14.0,M,,,,0000*09
$GPGSA,A,3,10,32,14,20,21,27,,,,,,,4.0,1.9,3.5*39
$GPRMC,183705.927,A,3804.9690,N,12255.9337,W,000.0,000.0,241118,,,A*71
$GPGGA,183706.927,3804.9701,N,12255.9337,W,1,06,1.9,-15.4,M,,,,0000*06
$GPGSA,A,3,10,32,14,20,21,27,,,,,,,4.0,1.9,3.5*39
$GPGSV,2,1,07,10,63,031,38,32,72,189,44,04,34,220,34,14,50,200,40*76
$GPGSV,2,2,07,20,41,067,35,21,27,130,42,27,45,240,39*44
$GPRMC,183706.927,A,3804.9701,N,12255.9337,W,000.0,000.0,241118,,,A*7B
$GPGGA,183707.927,3804.9704,N,12255.9343,W,1,06,1.9,-17.0,M,,,,0000*07
$GPGSA,A,3,10,32,14,20,21,27,,,,,,,4.0,1.9,3.5*39
$GPRMC,183707.927,A,3804.9704,N,12255.9343,W,000.0,000.0,241118,,,A*7C
$GPGGA,183708.927,3804.9703,N,12255.9349,W,1,06,1.9,-18.9,M,,,,0000*03
$GPGSA,A,3,10,32,14,20,21,27,,,,,,,4.0,1.9,3.5*39
$GPRMC,183708.927,A,3804.9703,N,12255.9349,W,000.0,000.0,241118,,,A*7E
$GPGGA,183709.927,3804.9705,N,12255.9369,W,1,06,1.9,-20.7,M,,,,0000*03
$GPGSA,A,3,10,32,14,20,21,27,,,,,,,4.0,1.9,3.5*39
$GPGSV,2,1,07,10,63,031,35,32,72,189,44,04,34,220,43,14,50,200,39*75
$GPGSV,2,2,07,20,41,067,34,21,27,130,43,27,45,240,45*4F
$GPRMC,183709.927,A,3804.9705,N,12255.9369,W,000.0,000.0,241118,,,A*7B
$GPGGA,183710.927,3804.9706,N,12255.9375,W,1,06,1.9,-21.6,M,,,,0000*05
$GPGSA,A,3,10,32,14,20,21,27,,,,,,,4.0,1.9,3.5*39
$GPRMC,183710.927,A,3804.9706,N,12255.9375,W,000.0,000.0,241118,,,A*7D
$GPGGA,183711.927,3804.9706,N,12255.9376,W,1,06,1.9,-21.6,M,,,,0000*07
$GPGSA,A,3,10,32,14,20,21,27,,,,,,,4.0,1.9,3.5*39
$GPRMC,183711.927,A,3804.9706,N,12255.9376,W,000.0,000.0,241118,,,A*7F
$GPGGA,183712.927,3804.9706,N,12255.9375,W,1,06,1.9,-21.6,M,,,,0000*07
$GPGSA,A,3,10,32,14,20,21,27,,,,,,,4.0,1.9,3.5*39
$GPGSV,2,1,07,10,63,031,35,32,72,189,44,04,34,220,43,14,50,200,40*7B
$GPGSV,2,2,07,20,41,067,37,21,27,130,42,27,45,240,45*4D
$GPRMC,183712.927,A,3804.9706,N,12255.9375,W,000.0,000.0,241118,,,A*7F
$GPGGA,183713.927,3804.9706,N,12255.9376,W,1,06,1.9,-21.7,M,,,,0000*04
$GPGSA,A,3,10,32,14,20,21,27,,,,,,,4.0,1.9,3.5*39
$GPRMC,183713.927,A,3804.9706,N,12255.9376,W,000.0,000.0,241118,,,A*7D
$GPGGA,183714.927,3804.9706,N,12255.9375,W,1,06,1.9,-21.7,M,,,,0000*00
$GPGSA,A,3,10,32,14,20,21,27,,,,,,,4.0,1.9,3.5*39
$GPRMC,183714.927,A,3804.9706,N,12255.9375,W,000.0,000.0,241118,,,A*79
$GPGGA,183715.927,3804.9706,N,12255.9375,W,1,06,1.9,-21.6,M,,,,0000*00
$GPGSA,A,3,10,32,14,20,21,27,,,,,,,4.0,1.9,3.5*39
$GPGSV,2,1,07,10,63,031,34,32,72,189,44,04,34,220,42,14,50,200,40*7B
$GPGSV,2,2,07,20,41,067,31,21,27,130,41,27,45,240,45*48
$GPRMC,183715.927,A,3804.9706,N,12255.9375,W,000.0,000.0,241118,,,A*78
$GPGGA,183716.927,3804.9706,N,12255.9375,W,1,06,1.9,-21.8,M,,,,0000*0D
$GPGSA,A,3,10,32,14,20,21,27,,,,,,,4.0,1.9,3.5*39
$GPRMC,183716.927,A,3804.9706,N,12255.9375,W,000.0,000.0,241118,,,A*7B
$GPGGA,183717.927,3804.9706,N,12255.9376,W,1,06,1.9,-21.8,M,,,,0000*0F
$GPGSA,A,3,10,32,14,20,21,27,,,,,,,4.0,1.9,3.5*39
$GPRMC,183717.927,A,3804.9706,N,12255.9376,W,000.0,000.0,241118,,,A*79
$GPGGA,183718.927,3804.9706,N,12255.9376,W,1,06,1.9,-21.8,M,,,,0000*00
$GPGSA,A,3,10,32,14,20,21,27,,,,,,,4.0,1.9,3.5*39
$GPGSV,2,1,08,10,63,031,35,32,72,189,44,04,34,220,42,14,50,200,40*75
$GPGSV,2,2,08,20,41,068,34,21,27,130,42,27,45,240,44,08,00,000,44*77
$GPRMC,183718.927,A,3804.9706,N,12255.9376,W,000.0,000.0,241118,,,A*76
$GPGGA,183719.927,3804.9706,N,12255.9376,W,1,06,1.9,-21.9,M,,,,0000*00
$GPGSA,A,3,10,32,14,20,21,27,,,,,,,4.0,1.9,3.5*39
$GPRMC,183719.927,A,3804.9706,N,12255.9376,W,000.0,000.0,241118,,,A*77
$GPGGA,183720.927,3804.9706,N,12255.9375,W,1,06,1.9,-21.9,M,,,,0000*09
$GPGSA,A,3,10,32,14,20,21,27,,,,,,,4.0,1.9,3.5*39
$GPRMC,183720.927,A,3804.9706,N,12255.9375,W,000.0,000.0,241118,,,A*7E
$GPGGA,183721.927,3804.9705,N,12255.9375,W,1,06,1.9,-22.0,M,,,,0000*01
$GPGSA,A,3,10,32,14,20,21,27,,,,,,,4.0,1.9,3.5*39
$GPGSV,2,1,08,10,63,031,35,32,72,189,43,04,34,220,42,14,50,200,40*72
$GPGSV,2,2,08,20,41,068,34,21,27,130,42,27,45,240,45,08,00,000,44*76
$GPRMC,183721.927,A,3804.9705,N,12255.9375,W,000.0,000.0,241118,,,A*7C
$GPGGA,183722.927,3804.9705,N,12255.9376,W,1,06,1.9,-22.0,M,,,,0000*01
$GPGSA,A,3,10,32,14,20,21,27,,,,,,,4.0,1.9,3.5*39
$GPRMC,183722.927,A,3804.9705,N,12255.9376,W,000.0,000.0,241118,,,A*7C
$GPGGA,183723.927,3804.9705,N,12255.9376,W,1,06,1.9,-22.0,M,,,,0000*00
$GPGSA,A,3,10,32,14,20,21,27,,,,,,,4.0,1.9,3.5*39
$GPRMC,183723.927,A,3804.9705,N,12255.9376,W,000.0,000.0,241118,,,A*7D
$GPGGA,183724.927,3804.9706,N,12255.9377,W,1,06,1.9,-22.2,M,,,,0000*07
$GPGSA,A,3,10,32,14,20,21,27,,,,,,,4.0,1.9,3.5*39
$GPGSV,2,1,08,10,63,031,34,32,72,189,43,04,34,220,42,14,50,200,40*73
$GPGSV,2,2,08,20,41,068,34,21,27,130,41,27,45,240,45,08,00,000,43*72
$GPRMC,183724.927,A,3804.9706,N,12255.9377,W,000.0,000.0,241118,,,A*78
$GPGGA,183725.927,3804.9705,N,12255.9377,W,1,06,1.9,-22.3,M,,,,0000*04
$GPGSA,A,3,10,32,14,20,21,27,,,,,,,4.0,1.9,3.5*39
$GPRMC,183725.927,A,3804.9705,N,12255.9377,W,000.0,000.0,241118,,,A*7A
$GPGGA,183726.927,3804.9705,N,12255.9378,W,1,06,1.9,-22.5,M,,,,0000*0E
$GPGSA,A,3,10,32,14,20,21,27,,,,,,,4.0,1.9,3.5*39
$GPRMC,183726.927,A,3804.9705,N,12255.9378,W,000.0,000.0,241118,,,A*76
$GPGGA,183727.927,3804.9705,N,12255.9379,W,1,06,1.9,-22.8,M,,,,0000*03
$GPGSA,A,3,10,32,14,20,21,27,,,,,,,4.0,1.9,3.5*39
$GPGSV,2,1,08,10,63,031,34,32,72,189,44,04,34,220,42,14,50,200,40*74
$GPGSV,2,2,08,20,41,068,34,21,27,130,42,27,45,240,45,08,00,000,44*76
$GPRMC,183727.927,A,3804.9705,N,12255.9379,W,000.0,000.0,241118,,,A*76
$GPGGA,183728.927,3804.9706,N,12255.9379,W,1,06,1.9,-22.9,M,,,,0000*0E
$GPGSA,A,3,10,32,14,20,21,27,,,,,,,4.0,1.9,3.5*39
$GPRMC,183728.927,A,3804.9706,N,12255.9379,W,000.0,000.0,241118,,,A*7A
$GPGGA,183729.927,3804.9707,N,12255.9379,W,1,06,1.9,-23.2,M,,,,0000*04
$GPGSA,A,3,10,32,14,20,21,27,,,,,,,4.0,1.9,3.5*39
$GPRMC,183729.927,A,3804.9707,N,12255.9379,W,000.0,000.0,241118,,,A*7A
$GPGGA,183730.927,3804.9707,N,12255.9379,W,1,06,1.9,-23.3,M,,,,0000*0D
$GPGSA,A,3,10,32,14,20,21,27,,,,,,,4.0,1.9,3.5*39
$GPGSV,2,1,08,10,63,031,33,32,72,189,44,04,34,219,41,14,50,200,39*74
$GPGSV,2,2,08,20,41,068,35,21,27,130,41,27,45,240,45,08,00,000,44*74
$GPRMC,183730.927,A,3804.9707,N,12255.9379,W,000.0,000.0,241118,,,A*72
$GPGGA,183731.927,3804.9707,N,12255.9380,W,1,06,1.9,-23.4,M,,,,0000*0D
$GPGSA,A,3,10,32,14,20,21,27,,,,,,,4.0,1.9,3.5*39
$GPRMC,183731.927,A,3804.9707,N,12255.9380,W,000.0,000.0,241118,,,A*75
$GPGGA,183732.927,3804.9708,N,12255.9380,W,1,06,1.9,-23.5,M,,,,0000*00
$GPGSA,A,3,10,32,14,20,21,27,,,,,,,4.0,1.9,3.5*39
$GPRMC,183732.927,A,3804.9708,N,12255.9380,W,000.0,000.0,241118,,,A*79
$GPGGA,183733.927,3804.9708,N,12255.9380,W,1,06,1.9,-23.5,M,,,,0000*01
$GPGSA,A,3,10,32,14,20,21,27,,,,,,,4.0,1.9,3.5*39
$GPGSV,2,1,08,10,63,031,34,32,72,189,44,04,34,219,42,14,50,200,40*7E
$GPGSV,2,2,08,20,41,068,35,21,27,130,42,27,45,240,45,08,00,000,44*77
$GPRMC,183733.927,A,3804.9708,N,12255.9380,W,000.0,000.0,241118,,,A*78
$GPGGA,183734.927,3804.9708,N,12255.9379,W,1,06,1.9,-23.5,M,,,,0000*00
$GPGSA,A,3,10,32,14,20,21,27,,,,,,,4.0,1.9,3.5*39
$GPRMC,183734.927,A,3804.9708,N,12255.9379,W,000.0,000.0,241118,,,A*79
$GPGGA,183735.927,3804.9700,N,12255.9366,W,1,07,1.2,-20.7,M,,,,0000*0C
$GPGSA,A,3,10,32,14,20,21,27,08,,,,,,2.8,1.2,2.6*36
$GPRMC,183735.927,A,3804.9700,N,12255.9366,W,000.0,000.0,241118,,,A*7E
$GPGGA,183736.927,3804.9703,N,12255.9366,W,1,07,1.2,-21.4,M,,,,0000*0E
$GPGSA,A,3,10,32,14,20,21,27,08,,,,,,2.8,1.2,2.6*36
$GPGSV,2,1,08,10,63,031,35,32,72,189,44,04,34,219,43,14,50,200,40*7E
$GPGSV,2,2,08,20,41,068,37,21,27,130,32,27,45,240,45,08,39,284,39*7C
$GPRMC,183736.927,A,3804.9703,N,12255.9366,W,000.0,000.0,241118,,,A*7E
$GPGGA,183737.927,3804.9705,N,12255.9371,W,1,07,1.2,-22.6,M,,,,0000*0E
$GPGSA,A,3,10,32,14,20,21,27,08,,,,,,2.8,1.2,2.6*36
$GPRMC,183737.927,A,3804.9705,N,12255.9371,W,000.0,000.0,241118,,,A*7F
$GPGGA,183738.927,3804.9708,N,12255.9372,W,1,07,1.2,-22.5,M,,,,0000*0C
$GPGSA,A,3,10,32,14,20,21,27,08,,,,,,2.8,1.2,2.6*36
$GPRMC,183738.927,A,3804.9708,N,12255.9372,W,001.1,270.8,241118,,,A*73
$GPGGA,183739.927,3804.9711,N,12255.9377,W,1,07,1.2,-22.8,M,,,,0000*0D
$GPGSA,A,3,10,32,14,20,21,27,08,,,,,,2.8,1.2,2.6*36
$GPGSV,2,1,08,10,63,031,44,32,72,189,47,04,34,219,41,14,50,200,42*7B
$GPGSV,2,2,08,20,41,068,40,21,27,130,28,27,44,240,42,08,39,284,39*71
$GPRMC,183739.927,A,3804.9711,N,12255.9377,W,002.0,268.2,241118,,,A*7E
$GPGGA,183740.927,3804.9713,N,12255.9387,W,1,07,1.2,-23.6,M,,,,0000*01
$GPGSA,A,3,10,32,14,20,21,27,08,,,,,,2.8,1.2,2.6*36
$GPRMC,183740.927,A,3804.9713,N,12255.9387,W,002.2,269.5,241118,,,A*79
$GPGGA,183741.927,3804.9713,N,12255.9394,W,1,07,1.2,-23.0,M,,,,0000*04
$GPGSA,A,3,10,32,14,20,21,27,08,,,,,,2.8,1.2,2.6*36
$GPRMC,183741.927,A,3804.9713,N,12255.9394,W,002.2,263.1,241118,,,A*74
$GPGGA,183742.927,3804.9712,N,12255.9402,W,1,07,1.2,-23.0,M,,,,0000*0E
$GPGSA,A,3,10,32,14,20,21,27,08,,,,,,2.8,1.2,2.6*36
$GPGSV,2,1,08,10,63,031,40,32,72,189,47,04,34,219,45,14,50,200,43*7A
$GPGSV,2,2,08,20,41,068,38,21,27,130,40,27,44,240,40,08,39,284,46*7A
$GPRMC,183742.927,A,3804.9712,N,12255.9402,W,002.2,261.5,241118,,,A*78
$GPGGA,183743.927,3804.9711,N,12255.9410,W,1,07,1.2,-23.0,M,,,,0000*0F
$GPGSA,A,3,10,32,14,20,21,27,08,,,,,,2.8,1.2,2.6*36
$GPRMC,183743.927,A,3804.9711,N,12255.9410,W,002.3,260.9,241118,,,A*75
$GPGGA,183744.927,3804.9710,N,12255.9418,W,1,07,1.2,-23.1,M,,,,0000*00
$GPGSA,A,3,10,32,14,20,21,27,08,,,,,,2.8,1.2,2.6*36
$GPRMC,183744.927,A,3804.9710,N,12255.9418,W,002.3,259.8,241118,,,A*70
$GPGGA,183745.927,3804.9708,N,12255.9428,W,1,07,1.2,-23.0,M,,,,0000*0A
$GPGSA,A,3,10,32,14,20,21,27,08,,,,,,2.8,1.2,2.6*36
$GPGSV,2,1,08,10,63,031,45,32,72,189,46,04,34,219,43,14,50,200,45*7E
$GPGSV,2,2,08,20,41,068,43,21,27,130,41,27,44,240,43,08,39,284,41*73
$GPRMC,183745.927,A,3804.9708,N,12255.9428,W,002.4,259.6,241118,,,A*72
$GPGGA,183746.927,3804.9708,N,12255.9437,W,1,07,1.2,-23.1,M,,,,0000*06
$GPGSA,A,3,10,32,14,20,21,27,08,,,,,,2.8,1.2,2.6*36
$GPRMC,183746.927,A,3804.9708,N,12255.9437,W,002.4,259.6,241118,,,A*7F
$GPGGA,183747.927,3804.9706,N,12255.9445,W,1,07,1.2,-23.2,M,,,,0000*0F
$GPGSA,A,3,10,32,14,20,21,27,08,,,,,,2.8,1.2,2.6*36
$GPRMC,183747.927,A,3804.9706,N,12255.9445,W,002.3,256.4,241118,,,A*7F
$GPGGA,183748.927,3804.9700,N,12255.9453,W,1,07,1.2,-23.1,M,,,,0000*02
$GPGSA,A,3,10,32,14,20,21,27,08,,,,,,2.8,1.2,2.5*35
$GPGSV,2,1,08,10,63,031,45,32,72,189,47,04,34,219,33,14,50,200,41*7C
$GPGSV,2,2,08,20,41,068,38,21,26,130,27,27,44,240,41,08,39,284,40*7D
$GPRMC,183748.927,A,3804.9700,N,12255.9453,W,002.3,248.6,241118,,,A*7C
$GPGGA,183749.927,3804.9698,N,12255.9461,W,1,06,1.6,-23.2,M,,,,0000*04
$GPGSA,A,3,10,32,14,20,27,08,,,,,,,4.1,1.6,3.7*3E
$GPRMC,183749.927,A,3804.9698,N,12255.9461,W,002.2,248.7,241118,,,A*7C
$GPGGA,183750.927,3804.9697,N,12255.9469,W,1,07,1.2,-23.2,M,,,,0000*0E
$GPGSA,A,3,10,32,14,20,21,27,08,,,,,,2.8,1.2,2.5*35
$GPRMC,183750.927,A,3804.9697,N,12255.9469,W,002.1,257.9,241118,,,A*70
$GPGGA,183751.927,3804.9698,N,12255.9477,W,1,07,1.2,-23.8,M,,,,0000*05
$GPGSA,A,3,10,32,14,20,21,27,08,,,,,,2.8,1.2,2.5*35
$GPGSV,2,1,08,10,63,031,45,32,72,189,47,04,34,219,41,14,50,200,44*7C
$GPGSV,2,2,08,20,41,068,38,21,26,130,35,27,44,240,39,08,39,284,38*7E
$GPRMC,183751.927,A,3804.9698,N,12255.9477,W,002.1,259.3,241118,,,A*75
$GPGGA,183752.927,3804.9696,N,12255.9484,W,1,07,1.2,-24.3,M,,,,0000*08
$GPGSA,A,3,10,32,14,20,21,27,08,,,,,,2.8,1.2,2.5*35
$GPRMC,183752.927,A,3804.9696,N,12255.9484,W,002.0,251.0,241118,,,A*7E
$GPGGA,183753.927,3804.9695,N,12255.9489,W,1,07,1.2,-24.7,M,,,,0000*03
$GPGSA,A,3,10,32,14,20,21,27,08,,,,,,2.8,1.2,2.5*35
$GPRMC,183753.927,A,3804.9695,N,12255.9489,W,001.5,249.1,241118,,,A*7F
$GPGGA,183754.927,3804.9696,N,12255.9492,W,1,07,1.2,-25.0,M,,,,0000*0B
$GPGSA,A,3,10,32,14,20,21,27,08,,,,,,2.8,1.2,2.5*35
$GPGSV,2,1,08,10,63,031,43,32,72,189,47,04,34,219,39,14,50,200,39*7F
$GPGSV,2,2,08,20,41,068,33,21,26,130,32,27,44,240,41,08,39,284,39*7C
$GPRMC,183754.927,A,3804.9696,N,12255.9492,W,000.0,249.1,241118,,,A*75
$GPGGA,183755.927,3804.9696,N,12255.9492,W,1,07,1.2,-25.0,M,,,,0000*0A
$GPGSA,A,3,10,32,14,20,21,27,08,,,,,,2.8,1.2,2.5*35
$GPRMC,183755.927,A,3804.9696,N,12255.9492,W,000.0,249.1,241118,,,A*74
$GPGGA,183756.927,3804.9697,N,12255.9492,W,1,07,1.2,-25.1,M,,,,0000*09
$GPGSA,A,3,10,32,14,20,21,27,08,,,,,,2.8,1.2,2.5*35
$GPRMC,183756.927,A,3804.9697,N,12255.9492,W,000.0,249.1,241118,,,A*76
$GPGGA,183757.927,3804.9699,N,12255.9493,W,1,07,1.2,-25.2,M,,,,0000*04
$GPGSA,A,3,10,32,14,20,21,27,08,,,,,,2.8,1.2,2.5*35
$GPGSV,2,1,08,10,63,031,43,32,72,189,46,04,34,219,41,14,50,200,42*7D
$GPGSV,2,2,08,20,41,068,37,21,26,130,25,27,44,240,42,08,39,284,38*7C
$GPRMC,183757.927,A,3804.9699,N,12255.9493,W,000.0,249.1,241118,,,A*78
$GPGGA,183758.927,3804.9698,N,12255.9492,W,1,07,1.2,-25.0,M,,,,0000*09
$GPGSA,A,3,10,32,14,20,21,27,08,,,,,,2.8,1.2,2.5*35
$GPRMC,183758.927,A,3804.9698,N,12255.9492,W,000.0,249.1,241118,,,A*77
$GPGGA,183759.927,3804.9698,N,12255.9491,W,1,07,1.2,-24.7,M,,,,0000*0D
$GPGSA,A,3,10,32,14,20,21,27,08,,,,,,2.8,1.2,2.5*35
$GPRMC,183759.927,A,3804.9698,N,12255.9491,W,000.0,249.1,241118,,,A*75
$GPGGA,183800.927,3804.9698,N,12255.9490,W,1,07,1.2,-24.6,M,,,,0000*0E
$GPGSA,A,3,10,32,14,20,21,27,08,,,,,,2.8,1.2,2.5*35
$GPGSV,2,1,08,10,63,031,44,32,72,189,45,04,34,219,41,14,50,200,42*79
$GPGSV,2,2,08,20,41,068,34,21,26,130,25,27,44,240,40,08,39,284,39*7C
$GPRMC,183800.927,A,3804.9698,N,12255.9490,W,000.0,249.1,241118,,,A*77
$GPGGA,183801.927,3804.9699,N,12255.9489,W,1,07,1.2,-24.5,M,,,,0000*05
$GPGSA,A,3,10,32,14,20,21,27,08,,,,,,2.8,1.2,2.5*35
$GPRMC,183801.927,A,3804.9699,N,12255.9489,W,000.0,249.1,241118,,,A*7F
$GPGGA,183802.927,3804.9698,N,12255.9489,W,1,07,1.2,-24.6,M,,,,0000*04
$GPGSA,A,3,10,32,14,20,21,27,08,,,,,,2.8,1.2,2.5*35
$GPRMC,183802.927,A,3804.9698,N,12255.9489,W,000.0,249.1,241118,,,A*7D
$GPGGA,183803.927,3804.9699,N,12255.9489,W,1,07,1.2,-24.7,M,,,,0000*05
$GPGSA,A,3,10,32,14,20,21,27,08,,,,,,2.8,1.2,2.5*35
$GPGSV,2,1,08,10,63,031,40,32,72,189,46,04,34,219,41,14,50,200,41*7D
$GPGSV,2,2,08,20,41,068,32,21,26,130,34,27,44,240,40,08,39,284,39*7A
$GPRMC,183803.927,A,3804.9699,N,12255.9489,W,000.0,249.1,241118,,,A*7D
$GPGGA,183804.927,3804.9699,N,12255.9488,W,1,07,1.2,-24.8,M,,,,0000*0C
$GPGSA,A,3,10,32,14,20,21,27,08,,,,,,2.8,1.2,2.5*35
$GPRMC,183804.927,A,3804.9699,N,12255.9488,W,000.0,249.1,241118,,,A*7B
$GPGGA,183805.927,3804.9699,N,12255.9489,W,1,07,1.2,-25.0,M,,,,0000*05
$GPGSA,A,3,10,32,14,20,21,27,08,,,,,,2.8,1.2,2.5*35
$GPRMC,183805.927,A,3804.9699,N,12255.9489,W,000.0,249.1,241118,,,A*7B
$GPGGA,183806.927,3804.9699,N,12255.9489,W,1,07,1.2,-25.2,M,,,,0000*04
$GPGSA,A,3,10,32,14,20,21,27,08,,,,,,2.8,1.2,2.5*35
$GPGSV,2,1,08,10,63,031,42,32,72,189,46,04,34,219,41,14,50,200,42*7C
$GPGSV,2,2,08,20,41,068,30,21,26,130,31,27,44,240,40,08,39,284,39*7D
$GPRMC,183806.927,A,3804.9699,N,12255.9489,W,000.0,249.1,241118,,,A*78
$GPGGA,183807.927,3804.9699,N,12255.9488,W,1,07,1.2,-25.0,M,,,,0000*06
$GPGSA,A,3,10,32,14,20,21,27,08,,,,,,2.8,1.2,2.5*35
$GPRMC,183807.927,A,3804.9699,N,12255.9488,W,000.0,249.1,241118,,,A*78
$GPGGA,183808.927,3804.9699,N,12255.9488,W,1,07,1.2,-25.1,M,,,,0000*08
$GPGSA,A,3,10,32,14,20,21,27,08,,,,,,2.8,1.2,2.5*35
$GPRMC,183808.927,A,3804.9699,N,12255.9488,W,000.0,249.1,241118,,,A*77
$GPGGA,183809.927,3804.9699,N,12255.9488,W,1,07,1.2,-25.4,M,,,,0000*0C
$GPGSA,A,3,10,32,14,20,21,27,08,,,,,,2.8,1.2,2.5*35
$GPGSV,2,1,08,10,63,031,41,32,72,189,45,04,34,219,41,14,50,200,41*7F
$GPGSV,2,2,08,20,41,068,33,21,26,130,33,27,44,240,39,08,39,284,39*72
$GPRMC,183809.927,A,3804.9699,N,12255.9488,W,000.0,249.1,241118,,,A*76
$GPGGA,183810.927,3804.9699,N,12255.9489,W,1,07,1.2,-25.7,M,,,,0000*06
$GPGSA,A,3,10,32,14,20,21,27,08,,,,,,2.8,1.2,2.5*35
$GPRMC,183810.927,A,3804.9699,N,12255.9489,W,000.0,249.1,241118,,,A*7F
$GPGGA,183811.927,3804.9697,N,12255.9490,W,1,07,1.2,-25.6,M,,,,0000*00
$GPGSA,A,3,10,32,14,20,21,27,08,,,,,,2.8,1.2,2.5*35
$GPRMC,183811.927,A,3804.9697,N,12255.9490,W,000.0,249.1,241118,,,A*78
$GPGGA,183812.927,3804.9697,N,12255.9490,W,1,07,1.2,-25.4,M,,,,0000*01
$GPGSA,A,3,10,32,14,20,21,27,08,,,,,,2.8,1.2,2.5*35
$GPGSV,2,1,08,10,63,031,42,32,72,189,46,04,34,219,42,14,50,200,41*7C
$GPGSV,2,2,08,20,41,068,32,21,26,130,30,27,44,240,39,08,39,284,39*70
$GPRMC,183812.927,A,3804.9697,N,12255.9490,W,000.0,249.1,241118,,,A*7B
$GPGGA,183813.927,3804.9697,N,12255.9491,W,1,06,1.6,-25.2,M,,,,0000*02
$GPGSA,A,3,10,32,14,20,27,08,,,,,,,4.1,1.6,3.7*3E
$GPRMC,183813.927,A,3804.9697,N,12255.9491,W,000.0,249.1,241118,,,A*7B
$GPGGA,183814.927,3804.9696,N,12255.9492,W,1,06,1.6,-25.2,M,,,,0000*07
$GPGSA,A,3,10,32,14,20,27,08,,,,,,,4.1,1.6,3.7*3E
$GPRMC,183814.927,A,3804.9696,N,12255.9492,W,000.0,249.1,241118,,,A*7E
$GPGGA,183815.927,3804.9697,N,12255.9494,W,1,06,1.6,-25.6,M,,,,0000*05
$GPGSA,A,3,10,32,14,20,27,08,,,,,,,4.1,1.6,3.7*3E
$GPGSV,2,1,08,10,63,032,40,32,72,189,46,04,33,219,44,14,50,200,41*7C
$GPGSV,2,2,08,20,41,068,40,21,26,130,22,27,44,240,42,08,39,284,43*77
$GPRMC,183815.927,A,3804.9697,N,12255.9494,W,000.0,249.1,241118,,,A*78
$GPGGA,183816.927,3804.9697,N,12255.9494,W,1,06,1.5,-25.4,M,,,,0000*07
$GPGSA,A,3,10,32,14,21,27,08,,,,,,,3.0,1.5,2.6*3A
$GPRMC,183816.927,A,3804.9697,N,12255.9494,W,000.8,221.2,241118,,,A*7E
$GPGGA,183817.927,3804.9695,N,12255.9493,W,1,07,1.2,-25.7,M,,,,0000*06
$GPGSA,A,3,10,32,14,20,21,27,08,,,,,,2.8,1.2,2.5*35
$GPRMC,183817.927,A,3804.9695,N,12255.9493,W,001.3,209.5,241118,,,A*7D
$GPGGA,183818.927,3804.9691,N,12255.9492,W,1,07,1.2,-26.2,M,,,,0000*0A
$GPGSA,A,3,10,32,14,20,21,27,08,,,,,,2.8,1.2,2.5*35
$GPGSV,2,1,08,10,63,032,46,32,72,189,46,04,33,219,39,14,50,200,43*72
$GPGSV,2,2,08,20,41,068,41,21,26,130,40,27,44,240,42,08,39,284,33*75
$GPRMC,183818.927,A,3804.9691,N,12255.9492,W,001.2,200.3,241118,,,A*79
$GPGGA,183819.927,3804.9686,N,12255.9495,W,1,07,1.2,-26.5,M,,,,0000*0D
$GPGSA,A,3,10,32,14,20,21,27,08,,,,,,2.8,1.2,2.5*35
$GPRMC,183819.927,A,3804.9686,N,12255.9495,W,001.1,195.3,241118,,,A*75
$GPGGA,183820.927,3804.9683,N,12255.9495,W,1,07,1.2,-26.7,M,,,,0000*00
$GPGSA,A,3,10,32,14,20,21,27,08,,,,,,2.8,1.2,2.5*35
$GPRMC,183820.927,A,3804.9683,N,12255.9495,W,000.9,188.4,241118,,,A*78
$GPGGA,183821.927,3804.9682,N,12255.9497,W,1,07,1.2,-26.5,M,,,,0000*00
$GPGSA,A,3,10,32,14,20,21,27,08,,,,,,2.8,1.2,2.5*35
$GPGSV,2,1,08,10,63,032,39,32,72,189,46,04,33,219,42,14,50,200,42*77
$GPGSV,2,2,08,20,41,068,37,21,26,130,40,27,44,240,40,08,39,284,41*73
$GPRMC,183821.927,A,3804.9682,N,12255.9497,W,000.0,188.4,241118,,,A*73
$GPGGA,183822.927,3804.9680,N,12255.9496,W,1,07,1.2,-26.4,M,,,,0000*01
$GPGSA,A,3,10,32,14,20,21,27,08,,,,,,2.8,1.2,2.5*35
$GPRMC,183822.927,A,3804.9680,N,12255.9496,W,000.0,188.4,241118,,,A*73
$GPGGA,183823.927,3804.9679,N,12255.9495,W,1,07,1.2,-26.2,M,,,,0000*03
$GPGSA,A,3,10,32,14,20,21,27,08,,,,,,2.8,1.2,2.5*35
$GPRMC,183823.927,A,3804.9679,N,12255.9495,W,000.0,188.4,241118,,,A*77
$GPGGA,183824.927,3804.9679,N,12255.9496,W,1,07,1.2,-26.1,M,,,,0000*04
$GPGSA,A,3,10,32,14,20,21,27,08,,,,,,2.8,1.2,2.5*35
$GPGSV,2,1,08,10,63,032,44,32,72,189,48,04,33,219,43,14,50,200,43*73
$GPGSV,2,2,08,20,41,068,25,21,26,130,39,27,44,240,46,08,39,284,39*77
$GPRMC,183824.927,A,3804.9679,N,12255.9496,W,000.0,188.4,241118,,,A*73
$GPGGA,183825.927,3804.9677,N,12255.9494,W,1,07,1.2,-26.2,M,,,,0000*0A
$GPGSA,A,3,10,32,14,20,21,27,08,,,,,,2.8,1.2,2.5*35
$GPRMC,183825.927,A,3804.9677,N,12255.9494,W,000.0,188.4,241118,,,A*7E
$GPGGA,183826.927,3804.9676,N,12255.9493,W,1,07,1.2,-26.3,M,,,,0000*0E
$GPGSA,A,3,10,32,14,20,21,27,08,,,,,,2.8,1.2,2.5*35
$GPRMC,183826.927,A,3804.9676,N,12255.9493,W,000.0,188.4,241118,,,A*7B
$GPGGA,183827.927,3804.9675,N,12255.9492,W,1,07,1.2,-26.1,M,,,,0000*0F
$GPGSA,A,3,10,32,14,20,21,27,08,,,,,,2.8,1.2,2.5*35
$GPGSV,2,1,08,10,63,032,47,32,72,189,45,04,33,219,45,14,50,200,45*7D
$GPGSV,2,2,08,20,41,068,40,21,26,130,35,27,44,240,45,08,39,284,35*77
$GPRMC,183827.927,A,3804.9675,N,12255.9492,W,000.0,188.4,241118,,,A*78
$GPGGA,183828.927,3804.9675,N,12255.9493,W,1,07,1.2,-26.2,M,,,,0000*02
$GPGSA,A,3,10,32,14,20,21,27,08,,,,,,2.8,1.2,2.5*35
$GPRMC,183828.927,A,3804.9675,N,12255.9493,W,000.0,188.4,241118,,,A*76
$GPGGA,183829.927,3804.9676,N,12255.9494,W,1,07,1.2,-25.9,M,,,,0000*0F
$GPGSA,A,3,10,32,14,20,21,27,08,,,,,,2.8,1.2,2.5*35
$GPRMC,183829.927,A,3804.9676,N,12255.9494,W,000.0,188.4,241118,,,A*73
$GPGGA,183830.927,3804.9675,N,12255.9493,W,1,07,1.2,-25.9,M,,,,0000*03
$GPGSA,A,3,10,32,14,20,21,27,08,,,,,,2.8,1.2,2.5*35
$GPGSV,2,1,08,10,63,032,34,32,72,189,40,04,33,219,46,14,50,200,44*7E
$GPGSV,2,2,08,20,41,068,42,21,26,130,33,27,44,240,44,08,39,284,40*70
$GPRMC,183830.927,A,3804.9675,N,12255.9493,W,000.0,188.4,241118,,,A*7F
$GPGGA,183831.927,3804.9675,N,12255.9492,W,1,06,1.4,-26.0,M,,,,0000*0E
$GPGSA,A,3,32,14,20,21,27,08,,,,,,,3.2,1.4,2.8*34
$GPRMC,183831.927,A,3804.9675,N,12255.9492,W,000.0,188.4,241118,,,A*7F
$GPGGA,183832.927,3804.9675,N,12255.9491,W,1,07,1.2,-26.0,M,,,,0000*09
$GPGSA,A,3,10,32,14,20,21,27,08,,,,,,2.8,1.2,2.5*35
$GPRMC,183832.927,A,3804.9675,N,12255.9491,W,000.0,188.4,241118,,,A*7F
$GPGGA,183833.927,3804.9676,N,12255.9492,W,1,07,1.3,-26.1,M,,,,0000*08
$GPGSA,A,3,10,32,14,20,21,27,08,,,,,,2.8,1.3,2.5*34
$GPGSV,2,1,08,10,63,032,41,32,72,189,51,04,33,219,47,14,50,200,46*7F
$GPGSV,2,2,08,20,41,068,26,21,26,130,28,27,44,240,43,08,39,284,38*70
$GPRMC,183833.927,A,3804.9676,N,12255.9492,W,000.0,188.4,241118,,,A*7E
$GPGGA,183834.927,3804.9675,N,12255.9492,W,1,07,1.3,-26.1,M,,,,0000*0C
$GPGSA,A,3,10,32,14,20,21,27,08,,,,,,2.8,1.3,2.5*34
$GPRMC,183834.927,A,3804.9675,N,12255.9492,W,000.0,188.4,241118,,,A*7A
$GPGGA,183835.927,3804.9675,N,12255.9491,W,1,07,1.3,-25.9,M,,,,0000*05
$GPGSA,A,3,10,32,14,20,21,27,08,,,,,,2.8,1.3,2.5*34
$GPRMC,183835.927,A,3804.9675,N,12255.9491,W,000.0,188.4,241118,,,A*78
$GPGGA,183836.927,3804.9675,N,12255.9491,W,1,07,1.3,-25.9,M,,,,0000*06
$GPGSA,A,3,10,32,14,20,21,27,08,,,,,,2.8,1.3,2.5*34
$GPGSV,2,1,08,10,63,032,38,32,72,189,48,04,33,219,45,14,50,200,45*78
$GPGSV,2,2,08,20,41,068,32,21,26,130,33,27,44,240,37,08,39,284,31*75
$GPRMC,183836.927,A,3804.9675,N,12255.9491,W,000.0,188.4,241118,,,A*7B
$GPGGA,183837.927,3804.9676,N,12255.9491,W,1,07,1.3,-25.7,M,,,,0000*0A
$GPGSA,A,3,10,32,14,20,21,27,08,,,,,,2.8,1.3,2.5*34
$GPRMC,183837.927,A,3804.9676,N,12255.9491,W,000.0,188.4,241118,,,A*79
$GPGGA,183838.927,3804.9676,N,12255.9490,W,1,07,1.3,-25.6,M,,,,0000*05
$GPGSA,A,3,10,32,14,20,21,27,08,,,,,,2.8,1.3,2.5*34
$GPRMC,183838.927,A,3804.9676,N,12255.9490,W,000.0,188.4,241118,,,A*77
$GPGGA,183839.927,3804.9675,N,12255.9490,W,1,07,1.3,-25.6,M,,,,0000*07
$GPGSA,A,3,10,32,14,20,21,27,08,,,,,,2.8,1.3,2.5*34
$GPGSV,2,1,08,10,63,032,40,32,72,189,47,04,33,219,41,14,50,200,45*7C
$GPGSV,2,2,08,20,41,068,38,21,26,130,32,27,44,240,41,08,39,283,33*7A
$GPRMC,183839.927,A,3804.9675,N,12255.9490,W,001.1,197.6,241118,,,A*79
$GPGGA,183836.927,3804.9674,N,12255.9490,W,1,07,1.3,-25.8,M,,,,0000*07
$GPGSA,A,3,10,32,14,20,21,27,08,,,,,,2.8,1.3,2.5*34
$GPRMC,183836.927,A,3804.9674,N,12255.9490,W,001.3,194.8,241118,,,A*78
$GPGGA,183837.927,3804.9673,N,12255.9490,W,1,07,1.3,-25.6,M,,,,0000*0F
$GPGSA,A,3,10,32,14,20,21,27,08,,,,,,2.8,1.3,2.5*34
$GPRMC,183837.927,A,3804.9673,N,12255.9490,W,001.5,195.4,241118,,,A*75
$GPGGA,183838.927,3804.9668,N,12255.9492,W,1,07,1.3,-25.6,M,,,,0000*08
$GPGSA,A,3,10,32,14,20,21,27,08,,,,,,2.8,1.3,2.5*34
$GPGSV,2,1,08,10,63,032,39,32,72,189,40,04,33,219,41,14,50,200,40*70
$GPGSV,2,2,08,20,41,068,30,21,26,130,33,27,44,240,39,08,39,283,34*7B
$GPRMC,183838.927,A,3804.9668,N,12255.9492,W,001.5,199.1,241118,,,A*7B
$GPGGA,183839.927,3804.9664,N,12255.9494,W,1,06,1.5,-25.7,M,,,,0000*05
$GPGSA,A,3,10,32,14,21,27,08,,,,,,,3.0,1.5,2.6*3A
$GPRMC,183839.927,A,3804.9664,N,12255.9494,W,001.6,200.6,241118,,,A*77
$GPGGA,183840.927,3804.9660,N,12255.9496,W,1,07,1.3,-25.6,M,,,,0000*0B
$GPGSA,A,3,10,32,14,20,21,27,08,,,,,,2.8,1.3,2.5*34
$GPRMC,183840.927,A,3804.9660,N,12255.9496,W,001.6,202.0,241118,,,A*7B
$GPGGA,183841.927,3804.9656,N,12255.9498,W,1,07,1.3,-25.4,M,,,,0000*03
$GPGSA,A,3,10,32,14,20,21,27,08,,,,,,2.8,1.3,2.5*34
$GPGSV,2,1,08,10,63,032,34,32,72,189,40,04,33,219,41,14,50,200,42*7F
$GPGSV,2,2,08,20,41,068,26,21,26,130,37,27,44,240,40,08,39,283,37*75
$GPRMC,183841.927,A,3804.9656,N,12255.9498,W,001.5,201.3,241118,,,A*72
$GPGGA,183842.927,3804.9652,N,12255.9500,W,1,07,1.3,-25.2,M,,,,0000*02
$GPGSA,A,3,10,32,14,20,21,27,08,,,,,,2.8,1.3,2.5*34
$GPRMC,183842.927,A,3804.9652,N,12255.9500,W,001.5,201.3,241118,,,A*75
$GPGGA,183843.927,3804.9648,N,12255.9502,W,1,06,1.6,-25.1,M,,,,0000*0D
$GPGSA,A,3,10,32,14,20,27,08,,,,,,,4.0,1.6,3.7*3F
$GPRMC,183843.927,A,3804.9648,N,12255.9502,W,001.5,200.0,241118,,,A*7F
$GPGGA,183844.927,3804.9644,N,12255.9504,W,1,07,1.3,-25.4,M,,,,0000*01
$GPGSA,A,3,10,32,14,20,21,27,08,,,,,,2.8,1.3,2.5*34
$GPGSV,2,1,08,10,63,032,40,32,72,189,42,04,33,219,39,14,50,200,39*7D
$GPGSV,2,2,08,20,41,068,29,21,26,130,33,27,44,239,37,08,39,283,25*73
$GPRMC,183844.927,A,3804.9644,N,12255.9504,W,001.3,206.8,241118,,,A*7A
$GPGGA,183845.927,3804.9640,N,12255.9507,W,1,07,1.3,-25.8,M,,,,0000*0B
$GPGSA,A,3,10,32,14,20,21,27,08,,,,,,2.8,1.3,2.5*34
$GPRMC,183845.927,A,3804.9640,N,12255.9507,W,001.3,205.9,241118,,,A*7E
$GPGGA,183846.927,3804.9637,N,12255.9509,W,1,07,1.3,-25.9,M,,,,0000*07
$GPGSA,A,3,10,32,14,20,21,27,08,,,,,,2.8,1.3,2.5*34
$GPRMC,183846.927,A,3804.9637,N,12255.9509,W,001.3,206.4,241118,,,A*7D
$GPGGA,183847.927,3804.9632,N,12255.9511,W,1,06,1.3,-25.6,M,,,,0000*04
$GPGSA,A,3,10,14,20,21,27,08,,,,,,,3.7,1.3,3.5*3A
$GPGSV,2,1,08,10,62,032,33,32,72,189,27,04,33,219,40,14,50,200,38*74
$GPGSV,2,2,08,20,41,068,33,21,26,130,29,27,44,239,38,08,39,283,33*7B
$GPRMC,183847.927,A,3804.9632,N,12255.9511,W,001.3,205.6,241118,,,A*71
$GPGGA,183848.927,3804.9628,N,12255.9512,W,1,06,1.9,-26.0,M,,,,0000*0C
$GPGSA,A,3,10,32,14,20,21,27,,,,,,,3.9,1.9,3.5*37
$GPRMC,183848.927,A,3804.9628,N,12255.9512,W,001.3,204.2,241118,,,A*73
$GPGGA,183849.927,3804.9625,N,12255.9514,W,1,07,1.3,-26.1,M,,,,0000*0C
$GPGSA,A,3,10,32,14,20,21,27,08,,,,,,2.8,1.3,2.5*34
$GPRMC,183849.927,A,3804.9625,N,12255.9514,W,001.2,207.1,241118,,,A*78
$GPGGA,183850.927,3804.9622,N,12255.9515,W,1,07,1.3,-25.9,M,,,,0000*09
$GPGSA,A,3,10,32,14,20,21,27,08,,,,,,2.8,1.3,2.5*34
$GPGSV,2,1,08,10,62,032,30,32,72,189,33,04,33,219,30,14,51,200,34*78
$GPGSV,2,2,08,20,41,068,26,21,26,130,32,27,44,239,37,08,39,283,30*79
$GPRMC,183850.927,A,3804.9622,N,12255.9515,W,001.2,203.5,241118,,,A*76
$GPGGA,183851.927,3804.9620,N,12255.9517,W,1,07,1.3,-26.2,M,,,,0000*00
$GPGSA,A,3,10,32,14,20,21,27,08,,,,,,2.8,1.3,2.5*34
$GPRMC,183851.927,A,3804.9620,N,12255.9517,W,001.0,208.5,241118,,,A*7E
$GPGGA,183852.927,3804.9618,N,12255.9518,W,1,06,1.3,-26.3,M,,,,0000*07
$GPGSA,A,3,10,14,20,21,27,08,,,,,,,3.7,1.3,3.5*3A
$GPRMC,183852.927,A,3804.9618,N,12255.9518,W,001.0,206.4,241118,,,A*76
$GPGGA,183853.927,3804.9616,N,12255.9519,W,1,06,1.4,-26.8,M,,,,0000*05
$GPGSA,A,3,32,14,20,21,27,08,,,,,,,3.1,1.4,2.8*37
$GPGSV,3,1,09,10,62,032,24,32,72,189,27,04,33,219,28,14,51,200,31*74
$GPGSV,3,2,09,20,41,068,31,21,26,130,25,27,44,239,31,08,39,283,25*7B
$GPGSV,3,3,09,18,24,312,*4F
$GPRMC,183853.927,A,3804.9616,N,12255.9519,W,000.9,197.1,241118,,,A*7E
$GPGGA,183854.927,3804.9613,N,12255.9521,W,1,07,1.3,-27.1,M,,,,0000*02
$GPGSA,A,3,10,32,14,20,21,27,08,,,,,,2.8,1.3,2.5*34
$GPRMC,183854.927,A,3804.9613,N,12255.9521,W,001.1,204.9,241118,,,A*7F
$GPGGA,183855.927,3804.9610,N,12255.9522,W,1,07,1.3,-27.1,M,,,,0000*03
$GPGSA,A,3,10,32,14,20,21,27,08,,,,,,2.8,1.3,2.5*34
$GPRMC,183855.927,A,3804.9610,N,12255.9522,W,001.1,203.8,241118,,,A*78
$GPGGA,183856.927,3804.9601,N,12255.9519,W,1,06,1.3,-29.9,M,,,,0000*0F
$GPGSA,A,3,10,14,20,21,27,08,,,,,,,3.7,1.3,3.4*3B
$GPGSV,3,1,09,10,62,032,34,32,72,189,30,04,33,219,35,14,51,200,34*7A
$GPGSV,3,2,09,20,41,068,25,21,26,130,35,27,44,239,28,08,39,283,33*70
$GPGSV,3,3,09,18,24,312,*4F
$GPRMC,183856.927,A,3804.9601,N,12255.9519,W,001.6,177.4,241118,,,A*78
$GPGGA,183857.927,3804.9600,N,12255.9520,W,1,06,1.5,-31.9,M,,,,0000*0A
$GPGSA,A,3,10,32,14,21,27,08,,,,,,,3.0,1.5,2.6*3A
$GPRMC,183857.927,A,3804.9600,N,12255.9520,W,001.3,181.8,241118,,,A*72
$GPGGA,183858.927,3804.9596,N,12255.9515,W,1,06,1.5,-31.8,M,,,,0000*0E
$GPGSA,A,3,10,32,14,21,27,08,,,,,,,3.0,1.5,2.6*3A
$GPRMC,183858.927,A,3804.9596,N,12255.9515,W,001.2,186.2,241118,,,A*7B
$GPGGA,183859.927,3804.9594,N,12255.9514,W,1,06,1.5,-31.6,M,,,,0000*02
$GPGSA,A,3,10,32,14,21,27,08,,,,,,,3.0,1.5,2.6*3A
$GPGSV,3,1,09,10,62,032,28,32,73,189,43,04,33,219,40,14,51,200,40*73
$GPGSV,3,2,09,20,41,068,22,21,26,130,36,27,44,239,39,08,39,283,32*75
$GPGSV,3,3,09,18,24,312,*4F
$GPRMC,183859.927,A,3804.9594,N,12255.9514,W,001.1,189.9,241118,,,A*7E
$GPGGA,183900.927,3804.9590,N,12255.9516,W,1,07,1.3,-31.7,M,,,,0000*0F
$GPGSA,A,3,10,32,14,20,21,27,08,,,,,,2.8,1.3,2.5*34
$GPRMC,183900.927,A,3804.9590,N,12255.9516,W,001.2,194.5,241118,,,A*76
$GPGGA,183901.927,3804.9588,N,12255.9518,W,1,07,1.3,-31.7,M,,,,0000*09
$GPGSA,A,3,10,32,14,20,21,27,08,,,,,,2.8,1.3,2.5*34
$GPRMC,183901.927,A,3804.9588,N,12255.9518,W,001.1,201.6,241118,,,A*7F
$GPGGA,183902.927,3804.9585,N,12255.9520,W,1,07,1.3,-32.7,M,,,,0000*0F
$GPGSA,A,3,10,32,14,20,21,27,08,,,,,,2.8,1.3,2.5*34
$GPGSV,3,1,09,10,62,032,32,32,73,189,44,04,33,219,41,14,51,200,40*7E
$GPGSV,3,2,09,20,41,068,27,21,26,130,34,27,44,239,44,08,39,283,33*79
$GPGSV,3,3,09,18,24,312,*4F
$GPRMC,183902.927,A,3804.9585,N,12255.9520,W,001.0,203.7,241118,,,A*78
$GPGGA,183903.927,3804.9583,N,12255.9519,W,1,07,1.3,-32.1,M,,,,0000*04
$GPGSA,A,3,10,32,14,20,21,27,08,,,,,,2.8,1.3,2.5*34
$GPRMC,183903.927,A,3804.9583,N,12255.9519,W,001.0,208.5,241118,,,A*7C
$GPGGA,183904.927,3804.9582,N,12255.9519,W,1,07,1.3,-31.6,M,,,,0000*06
$GPGSA,A,3,10,32,14,20,21,27,08,,,,,,2.8,1.3,2.5*34
$GPRMC,183904.927,A,3804.9582,N,12255.9519,W,000.0,208.5,241118,,,A*7B
$GPGGA,183905.927,3804.9582,N,12255.9519,W,1,07,1.3,-31.1,M,,,,0000*00
$GPGSA,A,3,10,32,14,20,21,27,08,,,,,,2.8,1.3,2.5*34
$GPGSV,3,1,09,10,62,032,34,32,73,189,41,04,33,219,41,14,51,200,39*73
$GPGSV,3,2,09,20,41,068,32,21,26,130,32,27,44,239,42,08,39,283,33*7D
$GPGSV,3,3,09,18,24,312,*4F
$GPRMC,183905.927,A,3804.9582,N,12255.9519,W,000.9,205.0,241118,,,A*7B
$GPGGA,183906.927,3804.9582,N,12255.9518,W,1,07,1.3,-30.6,M,,,,0000*04
$GPGSA,A,3,10,32,14,20,21,27,08,,,,,,2.8,1.3,2.5*34
$GPRMC,183906.927,A,3804.9582,N,12255.9518,W,000.0,205.0,241118,,,A*70
$GPGGA,183907.927,3804.9582,N,12255.9520,W,1,07,1.3,-30.8,M,,,,0000*00
$GPGSA,A,3,10,32,14,20,21,27,08,,,,,,2.8,1.3,2.5*34
$GPRMC,183907.927,A,3804.9582,N,12255.9520,W,000.0,205.0,241118,,,A*7A
$GPGGA,183908.927,3804.9583,N,12255.9520,W,1,07,1.3,-31.0,M,,,,0000*07
$GPGSA,A,3,10,32,14,20,21,27,08,,,,,,2.8,1.3,2.5*34
$GPGSV,3,1,09,10,62,032,35,32,73,189,45,04,33,219,40,14,51,200,39*77
$GPGSV,3,2,09,20,41,068,30,21,26,130,32,27,44,239,42,08,39,283,34*78
$GPGSV,3,3,09,18,24,312,*4F
$GPRMC,183908.927,A,3804.9583,N,12255.9520,W,000.0,205.0,241118,,,A*74
$GPGGA,183909.927,3804.9582,N,12255.9519,W,1,07,1.3,-30.9,M,,,,0000*05
$GPGSA,A,3,10,32,14,20,21,27,08,,,,,,2.8,1.3,2.5*34
$GPRMC,183909.927,A,3804.9582,N,12255.9519,W,000.0,205.0,241118,,,A*7E
$GPGGA,183910.927,3804.9581,N,12255.9519,W,1,07,1.3,-30.8,M,,,,0000*0F
$GPGSA,A,3,10,32,14,20,21,27,08,,,,,,2.8,1.3,2.5*34
$GPRMC,183910.927,A,3804.9581,N,12255.9519,W,000.0,205.0,241118,,,A*75
$GPGGA,183911.927,3804.9581,N,12255.9520,W,1,07,1.3,-31.1,M,,,,0000*0C
$GPGSA,A,3,10,32,14,20,21,27,08,,,,,,2.8,1.3,2.5*34
$GPGSV,3,1,09,10,62,032,33,32,73,189,42,04,33,219,40,14,51,200,39*76
$GPGSV,3,2,09,20,41,068,32,21,26,130,29,27,44,239,42,08,39,283,33*77
$GPGSV,3,3,09,18,24,312,*4F
$GPRMC,183911.927,A,3804.9581,N,12255.9520,W,000.0,205.0,241118,,,A*7E
$GPGGA,183912.927,3804.9581,N,12255.9519,W,1,07,1.3,-31.3,M,,,,0000*07
$GPGSA,A,3,10,32,14,20,21,27,08,,,,,,2.8,1.3,2.5*34
$GPRMC,183912.927,A,3804.9581,N,12255.9519,W,000.0,205.0,241118,,,A*77
$GPGGA,183913.927,3804.9578,N,12255.9520,W,1,07,1.3,-31.2,M,,,,0000*0B
$GPGSA,A,3,10,32,14,20,21,27,08,,,,,,2.8,1.3,2.5*34
$GPRMC,183913.927,A,3804.9578,N,12255.9520,W,000.0,205.0,241118,,,A*7A
$GPGGA,183914.927,3804.9576,N,12255.9520,W,1,07,1.3,-31.7,M,,,,0000*07
$GPGSA,A,3,10,32,14,20,21,27,08,,,,,,2.8,1.3,2.5*34
$GPGSV,3,1,09,10,62,032,37,32,73,189,42,04,33,219,40,14,51,200,37*7C
$GPGSV,3,2,09,20,41,068,32,21,26,130,38,27,44,239,42,08,39,283,33*77
$GPGSV,3,3,09,18,24,312,*4F
$GPRMC,183914.927,A,3804.9576,N,12255.9520,W,000.0,205.0,241118,,,A*73
$GPGGA,183915.927,3804.9575,N,12255.9522,W,1,07,1.3,-31.6,M,,,,0000*06
$GPGSA,A,3,10,32,14,20,21,27,08,,,,,,2.8,1.3,2.5*34
$GPRMC,183915.927,A,3804.9575,N,12255.9522,W,000.0,205.0,241118,,,A*73
$GPGGA,183916.927,3804.9572,N,12255.9523,W,1,07,1.3,-31.7,M,,,,0000*02
$GPGSA,A,3,10,32,14,20,21,27,08,,,,,,2.8,1.3,2.5*34
$GPRMC,183916.927,A,3804.9572,N,12255.9523,W,001.1,208.5,241118,,,A*7E
$GPGGA,183917.927,3804.9572,N,12255.9523,W,1,06,1.5,-32.0,M,,,,0000*00
$GPGSA,A,3,10,32,14,21,27,08,,,,,,,2.9,1.5,2.6*32
$GPGSV,3,1,09,10,62,032,32,32,73,189,41,04,33,219,41,14,51,200,39*75
$GPGSV,3,2,09,20,41,068,24,21,26,130,32,27,44,239,33,08,39,283,32*7D
$GPGSV,3,3,09,18,24,312,*4F
$GPRMC,183917.927,A,3804.9572,N,12255.9523,W,001.2,208.9,241118,,,A*70
$GPGGA,183918.927,3804.9567,N,12255.9526,W,1,07,1.3,-31.7,M,,,,0000*0D
$GPGSA,A,3,10,32,14,20,21,27,08,,,,,,2.8,1.3,2.5*34
$GPRMC,183918.927,A,3804.9567,N,12255.9526,W,001.3,207.4,241118,,,A*7D
$GPGGA,183919.927,3804.9563,N,12255.9528,W,1,06,1.9,-31.9,M,,,,0000*03
$GPGSA,A,3,10,32,14,20,21,27,,,,,,,3.9,1.9,3.4*36
$GPRMC,183919.927,A,3804.9563,N,12255.9528,W,001.4,205.8,241118,,,A*7F
$GPGGA,183920.927,3804.9559,N,12255.9531,W,1,07,1.3,-31.6,M,,,,0000*0C
$GPGSA,A,3,10,32,14,20,21,27,08,,,,,,2.8,1.3,2.5*34
$GPGSV,3,1,09,10,62,032,30,32,73,189,40,04,33,219,35,14,51,200,42*79
$GPGSV,3,2,09,20,41,068,30,21,26,130,34,27,44,239,31,08,39,283,26*79
$GPGSV,3,3,09,18,24,312,*4F
$GPRMC,183920.927,A,3804.9559,N,12255.9531,W,001.3,210.3,241118,,,A*7C
$GPGGA,183921.927,3804.9556,N,12255.9533,W,1,06,1.3,-31.5,M,,,,0000*02
$GPGSA,A,3,10,32,14,20,21,08,,,,,,,2.9,1.3,2.5*30
$GPRMC,183921.927,A,3804.9556,N,12255.9533,W,001.2,206.3,241118,,,A*76
$GPGGA,183922.927,3804.9551,N,12255.9533,W,1,07,1.3,-31.8,M,,,,0000*0A
$GPGSA,A,3,10,32,14,20,21,27,08,,,,,,2.8,1.3,2.5*34
$GPRMC,183922.927,A,3804.9551,N,12255.9533,W,001.3,198.1,241118,,,A*75
$GPGGA,183923.927,3804.9547,N,12255.9535,W,1,07,1.3,-31.3,M,,,,0000*01
$GPGSA,A,3,10,32,14,20,21,27,08,,,,,,2.8,1.3,2.5*34
$GPGSV,3,1,09,10,62,032,33,32,73,189,40,04,33,219,33,14,51,200,39*70
$GPGSV,3,2,09,20,41,068,35,21,26,130,37,27,44,239,27,08,39,283,25*7B
$GPGSV,3,3,09,18,24,312,*4F
$GPRMC,183923.927,A,3804.9547,N,12255.9535,W,001.2,194.3,241118,,,A*7A
$GPGGA,183924.927,3804.9545,N,12255.9537,W,1,07,1.3,-31.4,M,,,,0000*01
$GPGSA,A,3,10,32,14,20,21,27,08,,,,,,2.8,1.3,2.5*34
$GPRMC,183924.927,A,3804.9545,N,12255.9537,W,001.2,194.6,241118,,,A*78
$GPGGA,183925.927,3804.9541,N,12255.9538,W,1,06,1.5,-31.6,M,,,,0000*0E
$GPGSA,A,3,10,32,14,21,27,08,,,,,,,2.9,1.5,2.6*32
$GPRMC,183925.927,A,3804.9541,N,12255.9538,W,001.2,191.8,241118,,,A*79
$GPGGA,183926.927,3804.9537,N,12255.9538,W,1,07,1.3,-31.4,M,,,,0000*09
$GPGSA,A,3,10,32,14,20,21,27,08,,,,,,2.8,1.3,2.5*34
$GPGSV,3,1,09,10,62,032,32,32,73,189,40,04,33,219,39,14,51,200,40*75
$GPGSV,3,2,09,20,41,068,33,21,26,130,35,27,44,239,31,08,39,283,32*7E
$GPGSV,3,3,09,18,24,312,*4F
$GPRMC,183926.927,A,3804.9537,N,12255.9538,W,001.3,183.7,241118,,,A*76
$GPGGA,183927.927,3804.9533,N,12255.9541,W,1,07,1.3,-32.2,M,,,,0000*07
$GPGSA,A,3,10,32,14,20,21,27,08,,,,,,2.8,1.3,2.5*34
$GPRMC,183927.927,A,3804.9533,N,12255.9541,W,001.4,192.3,241118,,,A*7E
$GPGGA,183928.927,3804.9531,N,12255.9544,W,1,07,1.3,-32.2,M,,,,0000*0F
$GPGSA,A,3,10,32,14,20,21,27,08,,,,,,2.8,1.3,2.5*34
$GPRMC,183928.927,A,3804.9531,N,12255.9544,W,001.3,195.9,241118,,,A*7C
$GPGGA,183929.927,3804.9527,N,12255.9547,W,1,07,1.3,-32.5,M,,,,0000*0D
$GPGSA,A,3,10,32,14,20,21,27,08,,,,,,2.8,1.3,2.5*34
$GPGSV,3,1,09,10,62,033,38,32,73,189,42,04,33,219,41,14,51,200,40*73
$GPGSV,3,2,09,20,41,068,28,21,26,130,36,27,44,239,39,08,39,283,34*79
$GPGSV,3,3,09,18,24,312,*4F
$GPRMC,183929.927,A,3804.9527,N,12255.9547,W,001.3,199.5,241118,,,A*79
$GPGGA,183930.927,3804.9523,N,12255.9548,W,1,06,1.9,-32.2,M,,,,0000*02
$GPGSA,A,3,10,32,14,20,21,27,,,,,,,3.9,1.9,3.4*36
$GPRMC,183930.927,A,3804.9523,N,12255.9548,W,001.4,200.0,241118,,,A*7B
$GPGGA,183931.927,3804.9518,N,12255.9549,W,1,07,1.3,-32.6,M,,,,0000*05
$GPGSA,A,3,10,32,14,20,21,27,08,,,,,,2.8,1.3,2.5*34
$GPRMC,183931.927,A,3804.9518,N,12255.9549,W,001.6,203.0,241118,,,A*72
$GPGGA,183932.927,3804.9513,N,12255.9553,W,1,07,1.3,-33.1,M,,,,0000*00
$GPGSA,A,3,10,32,14,20,21,27,08,,,,,,2.8,1.3,2.5*34
$GPGSV,3,1,09,10,62,033,37,32,73,189,41,04,33,219,41,14,51,200,38*70
$GPGSV,3,2,09,20,41,068,25,21,26,130,34,27,44,239,38,08,39,283,33*70
$GPGSV,3,3,09,18,24,312,*4F
$GPRMC,183932.927,A,3804.9513,N,12255.9553,W,001.7,204.8,241118,,,A*7F
$GPGGA,183933.927,3804.9507,N,12255.9557,W,1,07,1.3,-33.8,M,,,,0000*09
$GPGSA,A,3,10,32,14,20,21,27,08,,,,,,2.8,1.3,2.5*34
$GPRMC,183933.927,A,3804.9507,N,12255.9557,W,002.0,207.2,241118,,,A*72
$GPGGA,183934.927,3804.9502,N,12255.9561,W,1,07,1.3,-33.8,M,,,,0000*0E
$GPGSA,A,3,10,32,14,20,21,27,08,,,,,,2.8,1.3,2.5*34
$GPRMC,183934.927,A,3804.9502,N,12255.9561,W,002.0,211.2,241118,,,A*72
$GPGGA,183935.927,3804.9498,N,12255.9566,W,1,07,1.3,-34.4,M,,,,0000*01
$GPGSA,A,3,10,32,14,20,21,27,08,,,,,,2.8,1.3,2.5*34
$GPGSV,3,1,09,10,62,033,31,32,73,189,42,04,33,219,41,14,51,200,38*75
$GPGSV,3,2,09,20,41,068,31,21,26,130,32,27,44,239,40,08,39,283,35*7A
$GPGSV,3,3,09,18,24,312,*4F
$GPRMC,183935.927,A,3804.9498,N,12255.9566,W,002.0,214.0,241118,,,A*71
$GPGGA,183936.927,3804.9493,N,12255.9570,W,1,06,1.5,-34.5,M,,,,0000*08
$GPGSA,A,3,10,32,14,21,27,08,,,,,,,2.9,1.5,2.6*32
$GPRMC,183936.927,A,3804.9493,N,12255.9570,W,002.0,216.2,241118,,,A*7E
$GPGGA,183937.927,3804.9489,N,12255.9575,W,1,07,1.3,-34.9,M,,,,0000*0C
$GPGSA,A,3,10,32,14,20,21,27,08,,,,,,2.8,1.3,2.5*34
$GPRMC,183937.927,A,3804.9489,N,12255.9575,W,001.9,216.4,241118,,,A*7D
$GPGGA,183938.927,3804.9485,N,12255.9578,W,1,07,1.3,-34.8,M,,,,0000*03
$GPGSA,A,3,10,32,14,20,21,27,08,,,,,,2.8,1.3,2.5*34
$GPGSV,3,1,09,10,62,033,30,32,73,189,42,04,33,219,40,14,51,200,40*7A
$GPGSV,3,2,09,20,41,068,30,21,26,131,29,27,44,239,42,08,39,283,34*73
$GPGSV,3,3,09,18,24,312,*4F
$GPRMC,183938.927,A,3804.9485,N,12255.9578,W,001.8,216.6,241118,,,A*70
$GPGGA,183939.927,3804.9482,N,12255.9581,W,1,07,1.3,-34.3,M,,,,0000*08
$GPGSA,A,3,10,32,14,20,21,27,08,,,,,,2.8,1.3,2.5*34
$GPRMC,183939.927,A,3804.9482,N,12255.9581,W,001.7,217.6,241118,,,A*7E
$GPGGA,183940.927,3804.9478,N,12255.9587,W,1,07,1.3,-34.7,M,,,,0000*01
$GPGSA,A,3,10,32,14,20,21,27,08,,,,,,2.8,1.3,2.5*34
$GPRMC,183940.927,A,3804.9478,N,12255.9587,W,001.7,216.9,241118,,,A*7D
$GPGGA,183941.927,3804.9473,N,12255.9589,W,1,07,1.3,-33.7,M,,,,0000*02
$GPGSA,A,3,10,32,14,20,21,27,08,,,,,,2.8,1.3,2.5*34
$GPGSV,3,1,09,10,62,033,33,32,73,189,44,04,33,219,39,14,51,200,39*7F
$GPGSV,3,2,09,20,41,068,28,21,26,131,30,27,44,239,41,08,39,283,35*70
$GPGSV,3,3,09,18,24,312,*4F
$GPRMC,183941.927,A,3804.9473,N,12255.9589,W,001.6,214.5,241118,,,A*76
$GPGGA,183942.927,3804.9468,N,12255.9591,W,1,07,1.3,-33.6,M,,,,0000*03
$GPGSA,A,3,10,32,14,20,21,27,08,,,,,,2.8,1.3,2.5*34
$GPRMC,183942.927,A,3804.9468,N,12255.9591,W,001.5,212.2,241118,,,A*74
$GPGGA,183943.927,3804.9464,N,12255.9593,W,1,07,1.3,-33.3,M,,,,0000*09
$GPGSA,A,3,10,32,14,20,21,27,08,,,,,,2.8,1.3,2.5*34
$GPRMC,183943.927,A,3804.9464,N,12255.9593,W,001.5,212.9,241118,,,A*70
$GPGGA,183944.927,3804.9461,N,12255.9597,W,1,07,1.3,-34.8,M,,,,0000*03
$GPGSA,A,3,10,32,14,20,21,27,08,,,,,,2.8,1.3,2.5*34
$GPGSV,3,1,09,10,62,033,34,32,73,189,45,04,33,219,38,14,51,200,39*78
$GPGSV,3,2,09,20,41,068,29,21,26,131,30,27,44,239,41,08,39,283,33*77
$GPGSV,3,3,09,18,24,312,*4F
$GPRMC,183944.927,A,3804.9461,N,12255.9597,W,001.5,215.5,241118,,,A*7D
$GPGGA,183945.927,3804.9458,N,12255.9598,W,1,07,1.3,-34.8,M,,,,0000*07
$GPGSA,A,3,10,32,14,20,21,27,08,,,,,,2.8,1.3,2.5*34
$GPRMC,183945.927,A,3804.9458,N,12255.9598,W,001.4,214.2,241118,,,A*7E
$GPGGA,183946.927,3804.9454,N,12255.9602,W,1,07,1.3,-34.8,M,,,,0000*08
$GPGSA,A,3,10,32,14,20,21,27,08,,,,,,2.8,1.3,2.5*34
$GPRMC,183946.927,A,3804.9454,N,12255.9602,W,001.4,212.4,241118,,,A*71
$GPGGA,183947.927,3804.9453,N,12255.9604,W,1,07,1.3,-35.7,M,,,,0000*06
$GPGSA,A,3,10,32,14,20,21,27,08,,,,,,2.8,1.3,2.5*34
$GPGSV,3,1,09,10,62,033,34,32,73,189,44,04,33,219,37,14,51,200,40*78
$GPGSV,3,2,09,20,41,068,29,21,26,131,29,27,44,239,41,08,39,283,34*78
$GPGSV,3,3,09,18,24,312,*4F
$GPRMC,183947.927,A,3804.9453,N,12255.9604,W,001.3,215.3,241118,,,A*76
$GPGGA,183948.927,3804.9450,N,12255.9606,W,1,07,1.3,-35.3,M,,,,0000*0C
$GPGSA,A,3,10,32,14,20,21,27,08,,,,,,2.8,1.3,2.5*34
$GPRMC,183948.927,A,3804.9450,N,12255.9606,W,001.2,216.6,241118,,,A*7F
$GPGGA,183949.927,3804.9448,N,12255.9608,W,1,07,1.3,-34.8,M,,,,0000*00
$GPGSA,A,3,10,32,14,20,21,27,08,,,,,,2.8,1.3,2.5*34
$GPRMC,183949.927,A,3804.9448,N,12255.9608,W,001.2,218.2,241118,,,A*73
$GPGGA,183950.927,3804.9445,N,12255.9610,W,1,07,1.3,-34.6,M,,,,0000*02
$GPGSA,A,3,10,32,14,20,21,27,08,,,,,,2.8,1.3,2.5*34
$GPGSV,3,1,09,10,62,033,31,32,73,189,40,04,33,219,39,14,51,200,38*78
$GPGSV,3,2,09,20,40,069,27,21,26,131,25,27,44,239,42,08,39,283,33*7E
$GPGSV,3,3,09,18,24,312,*4F
$GPRMC,183950.927,A,3804.9445,N,12255.9610,W,001.1,216.4,241118,,,A*74
$GPGGA,183951.927,3804.9443,N,12255.9613,W,1,07,1.3,-34.5,M,,,,0000*05
$GPGSA,A,3,10,32,14,20,21,27,08,,,,,,2.8,1.3,2.5*34
$GPRMC,183951.927,A,3804.9443,N,12255.9613,W,001.1,217.9,241118,,,A*7C
$GPGGA,183952.927,3804.9440,N,12255.9615,W,1,07,1.3,-34.6,M,,,,0000*00
$GPGSA,A,3,10,32,14,20,21,27,08,,,,,,2.8,1.3,2.5*34
$GPRMC,183952.927,A,3804.9440,N,12255.9615,W,001.1,216.1,241118,,,A*73
$GPGGA,183953.927,3804.9437,N,12255.9616,W,1,07,1.3,-34.4,M,,,,0000*00
$GPGSA,A,3,10,32,14,20,21,27,08,,,,,,2.8,1.3,2.5*34
$GPGSV,3,1,09,10,62,033,33,32,73,189,40,04,33,219,39,14,51,200,38*7A
$GPGSV,3,2,09,20,40,069,29,21,26,131,27,27,44,239,42,08,39,283,32*73
$GPGSV,3,3,09,18,24,312,*4F
$GPRMC,183953.927,A,3804.9437,N,12255.9616,W,001.1,216.5,241118,,,A*75
$GPGGA,183954.927,3804.9434,N,12255.9617,W,1,07,1.3,-34.4,M,,,,0000*05
$GPGSA,A,3,10,32,14,20,21,27,08,,,,,,2.8,1.3,2.5*34
$GPRMC,183954.927,A,3804.9434,N,12255.9617,W,001.0,214.3,241118,,,A*75
$GPGGA,183955.927,3804.9431,N,12255.9618,W,1,07,1.3,-34.0,M,,,,0000*0A
$GPGSA,A,3,10,32,14,20,21,27,08,,,,,,2.8,1.3,2.5*34
$GPRMC,183955.927,A,3804.9431,N,12255.9618,W,001.0,212.5,241118,,,A*7E
$GPGGA,183956.927,3804.9426,N,12255.9619,W,1,07,1.3,-33.3,M,,,,0000*0A
$GPGSA,A,3,10,32,14,20,21,27,08,,,,,,2.8,1.3,2.5*34
$GPGSV,3,1,09,10,62,033,34,32,73,189,40,04,33,219,39,14,51,200,39*7C
$GPGSV,3,2,09,20,40,069,29,21,26,131,28,27,44,239,42,08,39,283,31*7F
$GPGSV,3,3,09,18,24,312,*4F
$GPRMC,183956.927,A,3804.9426,N,12255.9619,W,001.0,210.4,241118,,,A*79
$GPGGA,183957.927,3804.9427,N,12255.9621,W,1,07,1.3,-32.8,M,,,,0000*0B
$GPGSA,A,3,10,32,14,20,21,27,08,,,,,,2.8,1.3,2.5*34
$GPRMC,183957.927,A,3804.9427,N,12255.9621,W,000.9,213.6,241118,,,A*7B
$GPGGA,183958.927,3804.9424,N,12255.9621,W,1,07,1.3,-33.2,M,,,,0000*0C
$GPGSA,A,3,10,32,14,20,21,27,08,,,,,,2.8,1.3,2.5*34
$GPRMC,183958.927,A,3804.9424,N,12255.9621,W,000.9,207.1,241118,,,A*75
$GPGGA,183959.927,3804.9422,N,12255.9623,W,1,07,1.3,-32.6,M,,,,0000*0C
$GPGSA,A,3,10,32,14,20,21,27,08,,,,,,2.8,1.3,2.5*34
$GPGSV,3,1,09,10,62,033,32,32,73,189,42,04,33,219,37,14,51,200,39*76
$GPGSV,3,2,09,20,40,069,31,21,26,131,28,27,44,239,41,08,39,283,33*77
$GPGSV,3,3,09,18,24,312,*4F
$GPRMC,183959.927,A,3804.9422,N,12255.9623,W,000.9,213.5,241118,,,A*71
$GPGGA,184000.927,3804.9420,N,12255.9623,W,1,07,1.3,-31.4,M,,,,0000*0D
$GPGSA,A,3,10,32,14,20,21,27,08,,,,,,2.8,1.3,2.5*34
$GPRMC,184000.927,A,3804.9420,N,12255.9623,W,000.8,208.5,241118,,,A*7A
$GPGGA,184001.927,3804.9419,N,12255.9624,W,1,07,1.3,-31.7,M,,,,0000*02
$GPGSA,A,3,10,32,14,20,21,27,08,,,,,,2.8,1.3,2.5*34
$GPRMC,184001.927,A,3804.9419,N,12255.9624,W,000.0,208.5,241118,,,A*7E
$GPGGA,184002.927,3804.9417,N,12255.9623,W,1,07,1.3,-31.3,M,,,,0000*0C
$GPGSA,A,3,10,32,14,20,21,27,08,,,,,,2.8,1.3,2.5*34
$GPGSV,3,1,09,10,62,033,31,32,73,189,42,04,33,219,36,14,51,200,37*7A
$GPGSV,3,2,09,20,40,069,32,21,26,131,30,27,44,239,40,08,39,283,34*7B
$GPGSV,3,3,09,18,24,312,*4F
$GPRMC,184002.927,A,3804.9417,N,12255.9623,W,000.0,208.5,241118,,,A*74
$GPGGA,184003.927,3804.9416,N,12255.9624,W,1,07,1.3,-30.8,M,,,,0000*01
$GPGSA,A,3,10,32,14,20,21,27,08,,,,,,2.8,1.3,2.5*34
$GPRMC,184003.927,A,3804.9416,N,12255.9624,W,000.8,204.5,241118,,,A*77
$GPGGA,184004.927,3804.9415,N,12255.9623,W,1,07,1.3,-31.2,M,,,,0000*09
$GPGSA,A,3,10,32,14,20,21,27,08,,,,,,2.8,1.3,2.5*34
$GPRMC,184004.927,A,3804.9415,N,12255.9623,W,000.0,204.5,241118,,,A*7C
$GPGGA,184005.927,3804.9412,N,12255.9624,W,1,07,1.3,-31.0,M,,,,0000*0A
$GPGSA,A,3,10,32,14,20,21,27,08,,,,,,2.8,1.3,2.5*34
$GPGSV,3,1,09,10,62,033,35,32,73,189,42,04,33,219,34,14,51,200,31*7A
$GPGSV,3,2,09,20,40,069,31,21,26,131,27,27,44,239,34,08,39,283,31*78
$GPGSV,3,3,09,18,24,312,*4F
$GPRMC,184005.927,A,3804.9412,N,12255.9624,W,000.0,204.5,241118,,,A*7D
$GPGGA,184006.927,3804.9412,N,12255.9626,W,1,06,1.5,-31.2,M,,,,0000*0E
$GPGSA,A,3,10,32,14,21,27,08,,,,,,,2.9,1.5,2.5*31
$GPRMC,184006.927,A,3804.9412,N,12255.9626,W,000.0,204.5,241118,,,A*7C
$GPGGA,184007.927,3804.9412,N,12255.9626,W,1,07,1.3,-31.6,M,,,,0000*0C
$GPGSA,A,3,10,32,14,20,21,27,08,,,,,,2.8,1.3,2.5*34
$GPRMC,184007.927,A,3804.9412,N,12255.9626,W,000.0,204.5,241118,,,A*7D
$GPGGA,184008.927,3804.9410,N,12255.9627,W,1,07,1.3,-31.5,M,,,,0000*03
$GPGSA,A,3,10,32,14,20,21,27,08,,,,,,2.8,1.3,2.5*34
$GPGSV,3,1,09,10,62,033,33,32,73,189,40,04,33,219,38,14,51,200,38*7B
$GPGSV,3,2,09,20,40,069,32,21,26,131,25,27,44,239,40,08,39,282,25*7E
$GPGSV,3,3,09,18,24,312,*4F
$GPRMC,184008.927,A,3804.9410,N,12255.9627,W,000.0,204.5,241118,,,A*71
$GPGGA,184009.927,3804.9406,N,12255.9628,W,1,07,1.3,-31.7,M,,,,0000*08
$GPGSA,A,3,10,32,14,20,21,27,08,,,,,,2.8,1.3,2.5*34
$GPRMC,184009.927,A,3804.9406,N,12255.9628,W,000.0,204.5,241118,,,A*78
$GPGGA,184010.927,3804.9405,N,12255.9629,W,1,07,1.3,-31.6,M,,,,0000*03
$GPGSA,A,3,10,32,14,20,21,27,08,,,,,,2.8,1.3,2.5*34
$GPRMC,184010.927,A,3804.9405,N,12255.9629,W,000.9,205.3,241118,,,A*7C
$GPGGA,184011.927,3804.9402,N,12255.9630,W,1,07,1.3,-31.7,M,,,,0000*0C
$GPGSA,A,3,10,32,14,20,21,27,08,,,,,,2.8,1.3,2.5*34
$GPGSV,3,1,09,10,62,033,37,32,73,189,38,04,33,219,39,14,51,200,35*7C
$GPGSV,3,2,09,20,40,069,30,21,26,131,25,27,44,239,39,08,39,282,29*7E
$GPGSV,3,3,09,18,24,312,*4F
$GPRMC,184011.927,A,3804.9402,N,12255.9630,W,001.1,213.0,241118,,,A*7F
$GPGGA,184012.927,3804.9401,N,12255.9631,W,1,07,1.3,-31.6,M,,,,0000*0C
$GPGSA,A,3,10,32,14,20,21,27,08,,,,,,2.8,1.3,2.5*34
$GPRMC,184012.927,A,3804.9401,N,12255.9631,W,001.4,213.4,241118,,,A*7F
$GPGGA,184013.927,3804.9394,N,12255.9633,W,1,07,1.3,-31.4,M,,,,0000*06
$GPGSA,A,3,10,32,14,20,21,27,08,,,,,,2.8,1.3,2.5*34
$GPRMC,184013.927,A,3804.9394,N,12255.9633,W,001.8,208.7,241118,,,A*72
$GPGGA,184014.927,3804.9388,N,12255.9637,W,1,07,1.3,-31.6,M,,,,0000*0A
$GPGSA,A,3,10,32,14,20,21,27,08,,,,,,2.8,1.3,2.5*34
$GPGSV,3,1,09,10,62,033,34,32,73,189,34,04,33,219,38,14,51,200,34*73
$GPGSV,3,2,09,20,40,069,27,21,26,131,29,27,44,239,32,08,39,282,28*7E
$GPGSV,3,3,09,18,24,312,*4F
$GPRMC,184014.927,A,3804.9388,N,12255.9637,W,002.1,209.7,241118,,,A*77
$GPGGA,184015.927,3804.9381,N,12255.9641,W,1,07,1.3,-31.5,M,,,,0000*00
$GPGSA,A,3,10,32,14,20,21,27,08,,,,,,2.8,1.3,2.5*34
$GPRMC,184015.927,A,3804.9381,N,12255.9641,W,002.4,209.8,241118,,,A*74
$GPGGA,184016.927,3804.9374,N,12255.9647,W,1,07,1.3,-31.3,M,,,,0000*09
$GPGSA,A,3,10,32,14,20,21,27,08,,,,,,2.8,1.3,2.5*34
$GPRMC,184016.927,A,3804.9374,N,12255.9647,W,002.6,210.0,241118,,,A*79
$GPGGA,184017.927,3804.9365,N,12255.9652,W,1,07,1.3,-31.1,M,,,,0000*0E
$GPGSA,A,3,10,32,14,20,21,27,08,,,,,,2.8,1.3,2.5*34
$GPGSV,3,1,09,10,62,033,33,32,73,189,38,04,33,219,37,14,51,200,37*74
$GPGSV,3,2,09,20,40,069,30,21,26,131,28,27,44,239,30,08,39,282,27*74
$GPGSV,3,3,09,18,24,312,*4F
$GPRMC,184017.927,A,3804.9365,N,12255.9652,W,002.7,208.8,241118,,,A*7C
$GPGGA,184018.927,3804.9357,N,12255.9656,W,1,07,1.3,-31.3,M,,,,0000*06
$GPGSA,A,3,10,32,14,20,21,27,08,,,,,,2.8,1.3,2.5*34
$GPRMC,184018.927,A,3804.9357,N,12255.9656,W,002.7,206.8,241118,,,A*78
$GPGGA,184019.927,3804.9347,N,12255.9662,W,1,07,1.3,-31.0,M,,,,0000*02
$GPGSA,A,3,10,32,14,20,21,27,08,,,,,,2.8,1.3,2.5*34
$GPRMC,184019.927,A,3804.9347,N,12255.9662,W,002.9,206.3,241118,,,A*7A
$GPGGA,184020.927,3804.9339,N,12255.9667,W,1,07,1.3,-31.0,M,,,,0000*04
$GPGSA,A,3,10,32,14,20,21,27,08,,,,,,2.8,1.3,2.5*34
$GPGSV,3,1,09,10,62,033,33,32,73,189,35,04,33,219,37,14,51,200,35*7B
$GPGSV,3,2,09,20,40,069,29,21,25,131,31,27,44,239,32,08,39,282,28*7A
$GPGSV,3,3,09,18,24,312,*4F
$GPRMC,184020.927,A,3804.9339,N,12255.9667,W,003.0,204.9,241118,,,A*7C
$GPGGA,184021.927,3804.9331,N,12255.9672,W,1,07,1.3,-30.7,M,,,,0000*0F
$GPGSA,A,3,10,32,14,20,21,27,08,,,,,,2.8,1.3,2.5*34
$GPRMC,184021.927,A,3804.9331,N,12255.9672,W,002.9,203.7,241118,,,A*70
$GPGGA,184022.927,3804.9324,N,12255.9676,W,1,07,1.3,-31.5,M,,,,0000*0F
$GPGSA,A,3,10,32,14,20,21,27,08,,,,,,2.8,1.3,2.5*34
$GPRMC,184022.927,A,3804.9324,N,12255.9676,W,002.9,206.2,241118,,,A*73
