$OSTXT,WrongCheckSumHere,A*FF

$RPSTD,742698*6B
$IIMTW,+11.5,C*3D
$RPXDR,H,82.7,P,0*77
$IIRMB,A,0.23,R,,HMB-3   ,,,,,001.20,184,,V,A*1F
$IIRMC,015328,A,3730.077,N,12228.855,W,,,061216,15,E,A*3F
$IIVHW,,,359,M,00.0,N,,*6B
$IIVLW,08200,N,000.0,N*59
$IIVWR,046,L,03.1,N,,,,*7F
$RPMMB,30.0635,I,1.0180,B*70
$RPMTA,14.9,C*0B

$RPXDR,P,1.0180,B,0*78

$RPMDA,30.060,I,1.018,B,14.9,C,11.5,C,,,,,327.0,T,328.0,M,3.1,N,1.6,M*65

$OSMWV,314.0,T,003.1,N,A*23

$OSVWT,46.0,L,3.1,N,1.6,M,5.7,K*78

$OSMWD,327.0,T,312.0,M,3.1,N,1.6,M*5B

$OSVDR,180.0,T,165.0,M,0.0,N*2E
$RPSTD,743701*6B
$IIGLL,3730.077,N,12228.855,W,015329,A,A*4A
$IIHDG,359,,,15,E*19
$IIMTW,+11.5,C*3D
$RPXDR,H,82.7,P,0*77
$IIRMC,015329,A,3730.077,N,12228.855,W,,,061216,15,E,A*3E
$IIVHW,,,359,M,00.0,N,,*6B
$IIVLW,08200,N,000.0,N*59
$IIVWR,049,L,03.7,N,,,,*76
$OSMWV,311.0,T,003.7,N,A*20
$OSVWT,49.0,L,3.7,N,1.9,M,6.9,K*73

$OSMWD,324.0,T,309.0,M,3.7,N,1.9,M*5B

$OSVDR,180.0,T,165.0,M,0.0,N*2E

$RPMMB,30.0617,I,1.0179,B*76

$RPMTA,14.9,C*0B

$RPXDR,P,1.0179,B,0*7E

$RPMDA,30.058,I,1.018,B,14.9,C,11.5,C,,,,,324.0,T,325.0,M,3.7,N,1.9,M*69
$IIGLL,3730.077,N,12228.855,W,015330,A,A*42
$RPSTD,744707*6A
$IIHDG,358,,,15,E*18
$IIMTW,+11.5,C*3D
$RPXDR,H,82.7,P,0*77
$IIRMB,A,0.23,R,,HMB-3   ,,,,,001.20,184,,V,A*1F
$IIRMC,015330,A,3730.077,N,12228.855,W,,,061216,15,E,A*36
$IIVHW,,,358,M,00.0,N,,*6A
$IIVLW,08200,N,000.0,N*59
$OSMWV,313.0,T,003.6,N,A*23

$OSVWT,47.0,L,3.6,N,1.9,M,6.7,K*72

$OSMWD,325.0,T,310.0,M,3.6,N,1.9,M*53

$OSVDR,180.0,T,165.0,M,0.0,N*2E

$IIVWR,048,L,03.9,N,,,,*79

$RPSTD,745709*65
$RPMMB,30.0629,I,1.0179,B*7B
$RPMTA,14.9,C*0B
$RPXDR,P,1.0179,B,0*7E
$RPMDA,30.059,I,1.018,B,14.9,C,11.5,C,,,,,324.0,T,325.0,M,3.9,N,2.0,M*6C
$IIGLL,3730.077,N,12228.855,W,015331,A,A*43
$IIHDG,358,,,15,E*18
$IIMTW,+11.5,C*3D
$RPXDR,H,82.7,P,0*77
$IIRMC,015331,A,3730.077,N,12228.855,W,,,061216,15,E,A*37
$IIVHW,,,358,M,00.0,N,,*6A
$IIVLW,08200,N,000.0,N*59
$OSMWV,312.0,T,003.9,N,A*2D

$OSVWT,48.0,L,3.9,N,2.0,M,7.2,K*7C

$OSMWD,324.0,T,309.0,M,3.9,N,2.0,M*5F

$OSVDR,180.0,T,165.0,M,0.0,N*2E

$IIVWR,045,L,03.8,N,,,,*75

$RPSTD,746710*6E
$RPMMB,30.0647,I,1.0180,B*75
$RPMTA,14.9,C*0B
$RPXDR,P,1.0180,B,0*78
$RPMDA,30.061,I,1.018,B,14.9,C,11.5,C,,,,,327.0,T,328.0,M,3.8,N,2.0,M*68
$IIGLL,3730.076,N,12228.854,W,015332,A,A*40
$IIHDG,358,,,15,E*18
$IIMTW,+11.5,C*3D
$IIRMB,A,0.23,R,,HMB-3   ,,,,,001.20,184,,V,A*1F
$RPXDR,H,82.7,P,0*77
$OSMWV,315.0,T,003.8,N,A*2B
$OSVWT,45.0,L,3.8,N,2.0,M,7.0,K*72

$OSMWD,327.0,T,312.0,M,3.8,N,2.0,M*57

$OSVDR,180.0,T,165.0,M,0.0,N*2E
$IIRMC,015333,A,3730.076,N,12228.854,W,,,061216,15,E,A*35
$RPSTD,747712*6D
$IIVHW,,,358,M,00.0,N,,*6A
$IIVLW,08200,N,000.0,N*59
$RPMMB,30.0635,I,1.0180,B*70
$RPMTA,14.9,C*0B
$RPXDR,P,1.0180,B,0*78
$RPMDA,30.060,I,1.018,B,14.9,C,11.5,C,,,,,327.0,T,328.0,M,3.8,N,2.0,M*69
$IIVWR,044,L,03.7,N,,,,*7B
$IIGLL,3730.076,N,12228.854,W,015333,A,A*41
$IIHDG,358,,,15,E*18
$IIMTW,+11.5,C*3D
$RPXDR,H,82.7,P,0*77
$OSMWV,316.0,T,003.7,N,A*27
$OSVWT,44.0,L,3.7,N,1.9,M,6.9,K*7E

$OSMWD,328.0,T,313.0,M,3.7,N,1.9,M*5C

$OSVDR,180.0,T,165.0,M,0.0,N*2E
$IIRMB,A,0.23,R,,HMB-3   ,,,,,001.20,185,,V,A*1E
$RPSTD,748714*64
$IIRMC,015334,A,3730.076,N,12228.854,W,,,061216,15,E,A*32
$IIVHW,,,359,M,00.0,N,,*6B
$RPMMB,30.0653,I,1.0180,B*70
$RPMTA,14.9,C*0B
$RPXDR,P,1.0180,B,0*78

$RPMDA,30.062,I,1.018,B,14.9,C,11.5,C,,,,,329.0,T,330.0,M,3.7,N,1.9,M*69
$IIVLW,08200,N,000.0,N*59
$IIVWR,044,L,03.7,N,,,,*7B
$IIGLL,3730.076,N,12228.854,W,015334,A,A*46
$IIHDG,359,,,15,E*19
$IIMTW,+11.5,C*3D
$RPXDR,H,82.7,P,0*77
$OSMWV,316.0,T,003.3,N,A*23
$OSVWT,44.0,L,3.3,N,1.7,M,6.1,K*7C

$OSMWD,329.0,T,314.0,M,3.3,N,1.7,M*50

$OSVDR,180.0,T,165.0,M,0.0,N*2E

$RPSTD,749716*67
$IIRMC,015335,A,3730.076,N,12228.854,W,,,061216,15,E,A*33
$IIVHW,,,359,M,00.0,N,,*6B
$IIVLW,08200,N,000.0,N*59
$RPMMB,30.0635,I,1.0180,B*70
$RPMTA,14.9,C*0B
$RPXDR,P,1.0180,B,0*78
$RPMDA,30.060,I,1.018,B,14.9,C,11.5,C,,,,,329.0,T,330.0,M,3.3,N,1.7,M*61
$IIVWR,044,L,03.3,N,,,,*7F
$IIGLL,3730.076,N,12228.854,W,015335,A,A*47
$IIHDG,359,,,15,E*19
$IIMTW,+11.5,C*3D
$RPXDR,H,82.7,P,0*77
$OSMWV,311.0,T,003.7,N,A*20
$OSVWT,49.0,L,3.7,N,1.9,M,6.9,K*73
$OSMWD,324.0,T,309.0,M,3.7,N,1.9,M*5B
$OSVDR,180.0,T,165.0,M,0.0,N*2E
$RPSTD,750718*61
$IIRMB,A,0.23,R,,HMB-3   ,,,,,001.20,185,,V,A*1E
$IIRMC,015336,A,3730.076,N,12228.854,W,,,061216,15,E,A*30
$IIVHW,,,359,M,00.0,N,,*6B
$IIVLW,08200,N,000.0,N*59
$RPMMB,30.0653,I,1.0180,B*70
$RPMTA,14.9,C*0B
$RPXDR,P,1.0180,B,0*78
$RPMDA,30.062,I,1.018,B,14.9,C,11.5,C,,,,,324.0,T,325.0,M,3.7,N,1.9,M*60
$IIVWR,049,L,03.7,N,,,,*76
$IIGLL,3730.076,N,12228.854,W,015336,A,A*44
$RPXDR,H,82.7,P,0*77

$IIHDG,359,,,15,E*19
$IIMTW,+11.5,C*3D
$OSMWV,311.0,T,003.7,N,A*20
$OSVWT,49.0,L,3.7,N,1.9,M,6.9,K*73
$OSMWD,324.0,T,309.0,M,3.7,N,1.9,M*5B
$OSVDR,180.0,T,165.0,M,0.0,N*2E
$RPSTD,751720*6B
$IIRMC,015337,A,3730.076,N,12228.854,W,,,061216,15,E,A*31
$IIVHW,,,359,M,00.0,N,,*6B
$IIVLW,08200,N,000.0,N*59
$IIVWR,045,L,03.6,N,,,,*7B
$RPMMB,30.0653,I,1.0180,B*70
$RPMTA,14.9,C*0B

$RPXDR,P,1.0180,B,0*78

$RPMDA,30.062,I,1.018,B,14.9,C,11.5,C,,,,,328.0,T,329.0,M,3.6,N,1.9,M*61
$IIGLL,3730.076,N,12228.854,W,015337,A,A*45
$IIHDG,358,,,15,E*18
$RPXDR,H,82.7,P,0*77
$IIMTW,+11.5,C*3D
$OSMWV,315.0,T,003.6,N,A*25
$OSVWT,45.0,L,3.6,N,1.9,M,6.7,K*70
$RPSTD,752722*6A
$OSMWD,327.0,T,312.0,M,3.6,N,1.9,M*53
$OSVDR,165.0,T,150.0,M,0.0,N*23
$IIRMB,A,0.23,R,,HMB-3   ,,,,,001.20,185,,V,A*1E
$IIRMC,015338,A,3730.076,N,12228.853,W,,,061216,15,E,A*39
$IIVHW,,,358,M,00.0,N,,*6A
$IIVLW,08200,N,000.0,N*59
$IIVWR,043,L,03.6,N,,,,*7D
$RPMMB,30.0641,I,1.0180,B*73
$RPMTA,14.9,C*0B

$RPXDR,P,1.0180,B,0*78

$RPMDA,30.061,I,1.018,B,14.9,C,11.5,C,,,,,329.0,T,330.0,M,3.6,N,1.9,M*6B
$RPBAT,14.28,V,974,95*14
$RPXDR,U,14.281524658203125,V,0*60
$IIGLL,3730.076,N,12228.853,W,015339,A,A*4C
$RPSTD,753726*6F

$OSMWV,317.0,T,003.6,N,A*27

$OSVWT,43.0,L,3.6,N,1.9,M,6.7,K*76

$OSMWD,329.0,T,314.0,M,3.6,N,1.9,M*5B

$OSVDR,152.0,T,137.0,M,0.0,N*26

$IIHDG,359,,,15,E*19

$IIMTW,+11.5,C*3D

$RPXDR,H,82.7,P,0*77
$IIRMC,015339,A,3730.076,N,12228.853,W,,,061216,15,E,A*38
$IIVHW,,,359,M,00.0,N,,*6B

$IIVLW,08200,N,000.0,N*59
$IIVWR,042,L,03.9,N,,,,*73
$RPMMB,30.0635,I,1.0180,B*70
$RPMTA,14.9,C*0B
$RPXDR,P,1.0180,B,0*78
$RPMDA,30.060,I,1.018,B,14.9,C,11.5,C,,,,,331.0,T,332.0,M,3.9,N,2.0,M*64
$IIGLL,3730.076,N,12228.853,W,015340,A,A*42
$RPSTD,754729*67
$OSMWV,318.0,T,003.9,N,A*27
$OSVWT,42.0,L,3.9,N,2.0,M,7.2,K*76
$OSMWD,331.0,T,316.0,M,3.9,N,2.0,M*55
$OSVDR,142.0,T,127.0,M,0.0,N*26
$IIHDG,359,,,15,E*19
$IIMTW,+11.5,C*3D
$RPXDR,H,82.7,P,0*77
$IIRMB,A,0.23,R,,HMB-3   ,,,,,001.20,185,,V,A*1E
$IIRMC,015340,A,3730.076,N,12228.853,W,,,061216,15,E,A*36
$IIVHW,,,359,M,00.0,N,,*6B
$RPMMB,30.0623,I,1.0179,B*71
$RPMTA,14.9,C*0B
$RPXDR,P,1.0179,B,0*7E
$RPMDA,30.059,I,1.018,B,14.9,C,11.5,C,,,,,337.0,T,338.0,M,3.8,N,2.0,M*63
$IIVLW,08200,N,000.0,N*59
$IIVWR,030,L,04.0,N,,,,*78
$RPSTD,755730*6E
$OSMWV,330.0,T,004.0,N,A*23
$OSVWT,30.0,L,4.0,N,2.1,M,7.4,K*7A
$OSMWD,343.0,T,328.0,M,4.0,N,2.1,M*52
$OSVDR,142.0,T,127.0,M,0.0,N*26
$IIGLL,3730.076,N,12228.853,W,015341,A,A*43
$IIHDG,359,,,15,E*19
$IIMTW,+11.5,C*3D
$RPXDR,H,82.7,P,0*77
$IIRMC,015341,A,3730.076,N,12228.853,W,,,061216,15,E,A*37
$IIVHW,,,359,M,00.0,N,,*6B
$RPMMB,30.0647,I,1.0180,B*75
$RPMTA,14.9,C*0B
$RPXDR,P,1.0180,B,0*78
$RPMDA,30.061,I,1.018,B,14.9,C,11.5,C,,,,,343.0,T,344.0,M,4.0,N,2.1,M*6E
$IIVLW,08200,N,000.0,N*59
$IIVWR,027,L,04.2,N,,,,*7C
$RPSTD,756734*69
$OSMWV,333.0,T,004.2,N,A*22
$OSVWT,27.0,L,4.2,N,2.2,M,7.8,K*71

$OSMWD,346.0,T,331.0,M,4.2,N,2.2,M*5E

$OSVDR,152.0,T,137.0,M,0.0,N*26
$IIGLL,3730.076,N,12228.853,W,015342,A,A*40
$IIHDG,359,,,15,E*19
$IIMTW,+11.5,C*3D
$IIRMB,A,0.23,R,,HMB-3   ,,,,,001.20,185,,V,A*1E
$RPXDR,H,82.6,P,0*76
$RPMMB,30.0647,I,1.0180,B*75
$RPMTA,14.9,C*0B

$RPXDR,P,1.0180,B,0*78

$RPMDA,30.061,I,1.018,B,14.9,C,11.5,C,,,,,346.0,T,347.0,M,4.2,N,2.2,M*69
$IIRMC,015343,A,3730.076,N,12228.853,W,,,061216,15,E,A*35
$RPSTD,757736*6A
$IIVHW,,,359,M,00.0,N,,*6B
$OSMWV,333.0,T,004.2,N,A*22
$OSVWT,27.0,L,4.2,N,2.2,M,7.8,K*71
$OSMWD,346.0,T,331.0,M,4.2,N,2.2,M*5E
$OSVDR,152.0,T,137.0,M,0.0,N*26
$IIVLW,08200,N,000.0,N*59
$IIVWR,024,L,04.4,N,,,,*79
$IIGLL,3730.076,N,12228.853,W,015343,A,A*41
$IIHDG,359,,,15,E*19
$IIMTW,+11.5,C*3D
$RPXDR,H,82.7,P,0*77
$RPMMB,30.0635,I,1.0180,B*70
$RPMTA,14.9,C*0B

$RPXDR,P,1.0180,B,0*78

$RPMDA,30.060,I,1.018,B,14.9,C,11.5,C,,,,,349.0,T,350.0,M,4.4,N,2.3,M*66
$IIRMB,A,0.23,R,,HMB-3   ,,,,,001.20,185,,V,A*1E
$RPSTD,758739*6A
$OSMWV,336.0,T,004.4,N,A*21
$OSVWT,24.0,L,4.4,N,2.3,M,8.1,K*73
$OSMWD,349.0,T,334.0,M,4.4,N,2.3,M*53
$OSVDR,152.0,T,137.0,M,0.0,N*26
$IIRMC,015344,A,3730.076,N,12228.854,W,,,061216,15,E,A*35
$IIVHW,,,358,M,00.0,N,,*6A
$IIVLW,08200,N,000.0,N*59
$IIVWR,023,L,04.4,N,,,,*7E
$IIGLL,3730.076,N,12228.854,W,015344,A,A*41
$IIHDG,358,,,15,E*18
$IIMTW,+11.5,C*3D
$RPXDR,H,82.6,P,0*76
$RPMMB,30.0647,I,1.0180,B*75
$RPMTA,14.9,C*0B

$RPXDR,P,1.0180,B,0*78

$RPMDA,30.061,I,1.018,B,14.9,C,11.5,C,,,,,349.0,T,350.0,M,4.4,N,2.3,M*67
$RPSTD,759741*64
$OSMWV,337.0,T,004.5,N,A*21
$OSVWT,23.0,L,4.5,N,2.3,M,8.3,K*77
$OSMWD,349.0,T,334.0,M,4.5,N,2.3,M*52
$OSVDR,165.0,T,150.0,M,0.0,N*23
$IIRMC,015345,A,3730.076,N,12228.854,W,,,061216,15,E,A*34
$IIVHW,,,358,M,00.0,N,,*6A
$IIVLW,08200,N,000.0,N*59
$IIVWR,023,L,04.5,N,,,,*7F
$IIGLL,3730.076,N,12228.854,W,015345,A,A*40
$IIHDG,358,,,15,E*18
$IIMTW,+11.5,C*3D
$RPXDR,H,82.6,P,0*76
$RPMMB,30.0629,I,1.0179,B*7B
$RPMTA,14.9,C*0B
$RPXDR,P,1.0179,B,0*7E
$RPMDA,30.059,I,1.018,B,14.9,C,11.5,C,,,,,349.0,T,350.0,M,4.5,N,2.3,M*6D
$RPSTD,760744*6B
$IIRMB,A,0.23,R,,HMB-3   ,,,,,001.20,185,,V,A*1E
$OSMWV,336.0,T,004.9,N,A*2C
$OSVWT,24.0,L,4.9,N,2.5,M,9.1,K*79

$OSMWD,348.0,T,333.0,M,4.9,N,2.5,M*5E
$OSVDR,165.0,T,150.0,M,0.0,N*23
$IIRMC,015346,A,3730.076,N,12228.854,W,,,061216,15,E,A*37
$IIVHW,,,358,M,00.0,N,,*6A
$IIVLW,08200,N,000.0,N*59
$IIVWR,024,L,04.9,N,,,,*74
$IIGLL,3730.076,N,12228.854,W,015346,A,A*43
$RPXDR,H,82.6,P,0*76
$IIHDG,358,,,15,E*18
$RPMMB,30.0611,I,1.0179,B*70
$RPMTA,14.9,C*0B
$IIMTW,+11.5,C*3D
$RPXDR,P,1.0179,B,0*7E
$RPMDA,30.058,I,1.018,B,14.9,C,11.5,C,,,,,348.0,T,349.0,M,4.9,N,2.5,M*6F
$RPSTD,761746*68
$OSMWV,334.0,T,004.9,N,A*2E
$OSVWT,26.0,L,4.9,N,2.5,M,9.1,K*7B
$OSMWD,346.0,T,331.0,M,4.9,N,2.5,M*52

$OSVDR,165.0,T,150.0,M,0.0,N*23
$IIRMC,015347,A,3730.076,N,12228.854,W,,,061216,15,E,A*36
$IIVHW,,,358,M,00.0,N,,*6A
$IIVLW,08200,N,000.0,N*59
$IIVWR,026,L,04.9,N,,,,*76
$IIGLL,3730.076,N,12228.854,W,015347,A,A*42
$IIHDG,359,,,15,E*19
$RPXDR,H,82.6,P,0*76

$IIMTW,+11.5,C*3D
$RPSTD,762748*65
$RPMMB,30.0653,I,1.0180,B*70
$RPMTA,14.9,C*0B
$RPXDR,P,1.0180,B,0*78
$RPMDA,30.062,I,1.018,B,14.9,C,11.5,C,,,,,347.0,T,348.0,M,4.9,N,2.5,M*68
$OSMWV,333.0,T,004.8,N,A*28
$OSVWT,27.0,L,4.8,N,2.5,M,8.9,K*72
$OSMWD,346.0,T,331.0,M,4.8,N,2.5,M*53
$OSVDR,152.0,T,137.0,M,0.0,N*26
$IIRMB,A,0.23,R,,HMB-3   ,,,,,001.20,185,,V,A*1E
$IIRMC,015348,A,3730.077,N,12228.854,W,,,061216,15,E,A*38
$IIVHW,,,359,M,00.0,N,,*6B
$IIVLW,08200,N,000.0,N*59
$IIVWR,027,L,04.8,N,,,,*76
$IIGLL,3730.077,N,12228.854,W,015349,A,A*4D
$RPXDR,H,82.6,P,0*76

$RPSTD,763750*6D
$IIHDG,359,,,15,E*19
$IIMTW,+11.5,C*3D
$RPMMB,30.0611,I,1.0179,B*70
$RPMTA,14.9,C*0B

$RPXDR,P,1.0179,B,0*7E

$RPMDA,30.058,I,1.018,B,14.9,C,11.5,C,,,,,346.0,T,347.0,M,5.2,N,2.7,M*67
$OSMWV,333.0,T,005.2,N,A*23
$OSVWT,27.0,L,5.2,N,2.7,M,9.6,K*75
$OSMWD,346.0,T,331.0,M,5.2,N,2.7,M*5A
$OSVDR,142.0,T,127.0,M,0.0,N*26
$IIRMC,015349,A,3730.077,N,12228.854,W,,,061216,15,E,A*39
$IIVHW,,,359,M,00.0,N,,*6B
$IIVLW,08200,N,000.0,N*59
$IIVWR,027,L,05.2,N,,,,*7D
$RPBAT,14.28,V,974,95*14
$RPXDR,U,14.281524658203125,V,0*60
$IIGLL,3730.077,N,12228.854,W,015350,A,A*45
$RPSTD,764752*68

$IIHDG,359,,,15,E*19

$IIMTW,+11.5,C*3D
$RPXDR,H,82.6,P,0*76
$RPMMB,30.0641,I,1.0180,B*73
$RPMTA,14.9,C*0B
$RPXDR,P,1.0180,B,0*78
$OSMWV,331.0,T,005.4,N,A*27
$OSVWT,29.0,L,5.4,N,2.8,M,10.0,K*4C
$RPMDA,30.061,I,1.018,B,14.9,C,11.5,C,,,,,344.0,T,345.0,M,5.4,N,2.8,M*64
$OSMWD,344.0,T,329.0,M,5.4,N,2.8,M*58
$OSVDR,169.0,T,154.0,M,0.0,N*2B
$IIRMB,A,0.23,R,,HMB-3   ,,,,,001.20,185,,V,A*1E
$IIRMC,015350,A,3730.077,N,12228.854,W,,,061216,15,E,A*31
$IIVHW,,,359,M,00.0,N,,*6B
$IIVLW,08200,N,000.0,N*59
$IIVWR,029,L,05.1,N,,,,*70
$RPSTD,765754*6F
$IIGLL,3730.077,N,12228.853,W,015351,A,A*43
$IIHDG,359,,,15,E*19
$IIMTW,+11.5,C*3D
$OSMWV,331.0,T,005.1,N,A*22
$OSVWT,29.0,L,5.1,N,2.6,M,9.4,K*7B
$OSMWD,344.0,T,329.0,M,5.1,N,2.6,M*53
$OSVDR,169.0,T,154.0,M,0.0,N*2B
$RPXDR,H,82.6,P,0*76
$RPMMB,30.0641,I,1.0180,B*73
$RPMTA,14.9,C*0B
$RPXDR,P,1.0180,B,0*78
$RPMDA,30.061,I,1.018,B,14.9,C,11.5,C,,,,,344.0,T,345.0,M,5.1,N,2.6,M*6F
$IIRMC,015351,A,3730.077,N,12228.853,W,,,061216,15,E,A*37
$IIVHW,,,359,M,00.0,N,,*6B
$IIVLW,08200,N,000.0,N*59
$IIVWR,032,L,05.3,N,,,,*78
$RPSTD,766756*6E
$IIGLL,3730.077,N,12228.854,W,015352,A,A*47
$IIHDG,359,,,15,E*19
$IIMTW,+11.5,C*3D
$OSMWV,328.0,T,005.3,N,A*28
$OSVWT,32.0,L,5.3,N,2.7,M,9.8,K*7E
$OSMWD,341.0,T,326.0,M,5.3,N,2.7,M*5A
$OSVDR,149.0,T,134.0,M,0.1,N*2E
$RPMMB,30.0611,I,1.0179,B*70
$RPMTA,14.9,C*0B
$RPXDR,P,1.0179,B,0*7E
$RPMDA,30.058,I,1.018,B,14.9,C,11.5,C,,,,,341.0,T,342.0,M,5.3,N,2.7,M*64
$RPXDR,H,82.6,P,0*76
$IIRMB,A,0.23,R,,HMB-3   ,,,,,001.20,184,,V,A*1F
$IIRMC,015353,A,3730.078,N,12228.854,W,,,061216,15,E,A*3D
$RPSTD,767758*61
$IIVHW,,,359,M,00.0,N,,*6B
$IIVLW,08200,N,000.0,N*59
$IIVWR,033,L,05.0,N,,,,*7A
$OSMWV,327.0,T,005.0,N,A*24
$OSVWT,33.0,L,5.0,N,2.6,M,9.3,K*76
$OSMWD,340.0,T,325.0,M,5.0,N,2.6,M*5A
$OSVDR,149.0,T,134.0,M,0.1,N*2E
$IIGLL,3730.078,N,12228.854,W,015353,A,A*49
$IIHDG,359,,,15,E*19
$RPMMB,30.0647,I,1.0180,B*75
$RPMTA,14.9,C*0B
$RPXDR,P,1.0180,B,0*78
$IIMTW,+11.5,C*3D
$RPMDA,30.061,I,1.018,B,14.9,C,11.5,C,,,,,340.0,T,341.0,M,5.0,N,2.6,M*6E
$RPXDR,H,82.6,P,0*76
$IIRMB,A,0.23,R,,HMB-3   ,,,,,001.20,184,,V,A*1F
$RPSTD,768760*65
$IIRMC,015354,A,3730.078,N,12228.854,W,,,061216,15,E,A*3A
$IIVHW,,,000,M,00.0,N,,*64
$OSMWV,327.0,T,005.0,N,A*24
$OSVWT,33.0,L,5.0,N,2.6,M,9.3,K*76
$OSMWD,341.0,T,326.0,M,5.0,N,2.6,M*58
$OSVDR,142.0,T,127.0,M,0.0,N*26
$IIVLW,08200,N,000.0,N*59
$IIVWR,029,L,05.3,N,,,,*72
$IIGLL,3730.078,N,12228.854,W,015354,A,A*4E
$IIHDG,000,,,15,E*16
$RPMMB,30.0641,I,1.0180,B*73
$RPMTA,14.9,C*0B

$RPXDR,P,1.0180,B,0*78

$RPMDA,30.061,I,1.018,B,14.9,C,11.5,C,,,,,345.0,T,346.0,M,5.3,N,2.7,M*6E

$IIMTW,+11.5,C*3D
$RPXDR,H,82.6,P,0*76
$RPSTD,769761*65
$IIRMC,015355,A,3730.078,N,12228.854,W,,,061216,15,E,A*3B
$IIVHW,,,000,M,00.0,N,,*64
$OSMWV,333.0,T,005.1,N,A*20
$OSVWT,27.0,L,5.1,N,2.6,M,9.4,K*75
$IIVLW,08200,N,000.0,N*59
$OSMWD,347.0,T,332.0,M,5.1,N,2.6,M*5A
$OSVDR,142.0,T,127.0,M,0.0,N*26
$IIVWR,027,L,05.1,N,,,,*7E
$IIGLL,3730.078,N,12228.854,W,015355,A,A*4F
$IIHDG,000,,,15,E*16
$IIMTW,+11.5,C*3D
$RPMMB,30.0629,I,1.0179,B*7B
$RPMTA,14.9,C*0B
$RPXDR,P,1.0179,B,0*7E
$RPMDA,30.059,I,1.018,B,14.9,C,11.5,C,,,,,347.0,T,348.0,M,5.1,N,2.6,M*6A
$RPXDR,H,82.6,P,0*76
$RPSTD,770766*6A
$IIRMB,A,0.23,R,,HMB-3   ,,,,,001.20,184,,V,A*1F
$IIRMC,015356,A,3730.079,N,12228.855,W,,,061216,15,E,A*38
$IIVHW,,,359,M,00.0,N,,*6B
$OSMWV,332.0,T,004.9,N,A*28
$OSVWT,28.0,L,4.9,N,2.5,M,9.1,K*75
$OSMWD,345.0,T,330.0,M,4.9,N,2.5,M*50
$OSVDR,152.0,T,137.0,M,0.0,N*26
$IIVLW,08200,N,000.0,N*59
$IIVWR,028,L,04.9,N,,,,*78
$IIGLL,3730.079,N,12228.855,W,015356,A,A*4C
$RPMMB,30.0629,I,1.0179,B*7B
$RPMTA,14.9,C*0B
$RPXDR,P,1.0179,B,0*7E
$RPMDA,30.059,I,1.018,B,14.9,C,11.5,C,,,,,345.0,T,346.0,M,4.9,N,2.5,M*6C
$RPXDR,H,82.6,P,0*76
$IIHDG,359,,,15,E*19
$IIMTW,+11.5,C*3D
$RPSTD,771776*6A
$IIRMC,015357,A,3730.079,N,12228.855,W,,,061216,15,E,A*39
$IIVHW,,,359,M,00.0,N,,*6B
$OSMWV,331.0,T,004.8,N,A*2A
$OSVWT,29.0,L,4.8,N,2.5,M,8.9,K*7C
$OSMWD,344.0,T,329.0,M,4.8,N,2.5,M*58
$OSVDR,158.0,T,143.0,M,0.0,N*2F
$IIVLW,08200,N,000.0,N*59
$IIVWR,029,L,04.8,N,,,,*78
$IIGLL,3730.079,N,12228.855,W,015357,A,A*4D
$RPMMB,30.0611,I,1.0179,B*70
$RPMTA,14.9,C*0B

$RPXDR,P,1.0179,B,0*7E
$RPMDA,30.058,I,1.018,B,14.9,C,11.5,C,,,,,344.0,T,345.0,M,4.8,N,2.5,M*6E
$RPXDR,H,82.6,P,0*76
$IIHDG,359,,,15,E*19
$IIMTW,+11.5,C*3D
$RPSTD,772778*67
$IIRMB,A,0.23,R,,HMB-3   ,,,,,001.20,184,,V,A*1F
$OSMWV,329.0,T,004.8,N,A*23
$OSVWT,31.0,L,4.8,N,2.5,M,8.9,K*75
$OSMWD,342.0,T,327.0,M,4.8,N,2.5,M*50
$OSVDR,158.0,T,143.0,M,0.0,N*2F
$IIRMC,015358,A,3730.079,N,12228.854,W,,,061216,15,E,A*37
$IIVHW,,,359,M,00.0,N,,*6B
$IIVLW,08200,N,000.0,N*59
$IIVWR,031,L,04.8,N,,,,*71
$RPMMB,30.0653,I,1.0180,B*70
$RPMTA,14.9,C*0B
$RPXDR,P,1.0180,B,0*78
$RPMDA,30.062,I,1.018,B,14.9,C,11.5,C,,,,,342.0,T,343.0,M,4.8,N,2.5,M*67
$RPXDR,H,82.6,P,0*76
$IIGLL,3730.079,N,12228.855,W,015359,A,A*43

$IIHDG,359,,,15,E*19

$IIMTW,+11.5,C*3D

$RPSTD,773780*61
$OSMWV,329.0,T,004.4,N,A*2F
$IIRMC,015359,A,3730.079,N,12228.855,W,,,061216,15,E,A*37

$OSVWT,31.0,L,4.4,N,2.3,M,8.1,K*77

$OSMWD,342.0,T,327.0,M,4.4,N,2.3,M*5A

$OSVDR,142.0,T,127.0,M,0.0,N*26
$IIVHW,,,359,M,00.0,N,,*6B
$IIVLW,08200,N,000.0,N*59
$IIVWR,031,L,04.4,N,,,,*7D
$RPMMB,30.0659,I,1.0180,B*7A
$RPMTA,14.9,C*0B

$RPXDR,P,1.0180,B,0*78

$RPMDA,30.062,I,1.018,B,14.9,C,11.5,C,,,,,342.0,T,343.0,M,4.4,N,2.3,M*6D
$RPBAT,14.28,V,974,95*14
$RPXDR,U,14.281524658203125,V,0*60
$IIGLL,3730.079,N,12228.856,W,015400,A,A*4B
$IIHDG,359,,,15,E*19
$IIMTW,+11.5,C*3D
$RPSTD,774782*64
$RPXDR,H,82.6,P,0*76
$IIRMB,A,0.23,R,,HMB-3   ,,,,,001.20,184,,V,A*1F
$OSMWV,331.0,T,004.4,N,A*26
$OSVWT,29.0,L,4.4,N,2.3,M,8.1,K*7E
$OSMWD,344.0,T,329.0,M,4.4,N,2.3,M*52
$OSVDR,142.0,T,127.0,M,0.0,N*26
$IIRMC,015400,A,3730.079,N,12228.856,W,,,061216,15,E,A*3F
$IIVHW,,,359,M,00.0,N,,*6B
$RPMMB,30.0623,I,1.0179,B*71
$RPMTA,15.0,C*03

$RPXDR,P,1.0179,B,0*7E

$RPMDA,30.059,I,1.018,B,15.0,C,11.5,C,,,,,344.0,T,345.0,M,4.4,N,2.3,M*6D
$RPSTD,775784*63
$RPXDR,H,82.6,P,0*76
$OSMWV,331.0,T,004.4,N,A*26
$OSVWT,29.0,L,4.4,N,2.3,M,8.1,K*7E
$OSMWD,344.0,T,329.0,M,4.4,N,2.3,M*52
$OSVDR,180.0,T,165.0,M,0.0,N*2E
$RPMMB,30.0641,I,1.0180,B*73
$RPMTA,14.9,C*0B

$RPXDR,P,1.0180,B,0*78

$RPMDA,30.061,I,1.018,B,14.9,C,11.5,C,,,,,344.0,T,345.0,M,4.4,N,2.3,M*6E
$RPSTD,776787*63
$RPXDR,H,82.6,P,0*76
$OSMWV,331.0,T,004.4,N,A*26
$OSVWT,29.0,L,4.4,N,2.3,M,8.1,K*7E
$OSMWD,344.0,T,329.0,M,4.4,N,2.3,M*52
$OSVDR,180.0,T,165.0,M,0.0,N*2E
$RPMMB,30.0635,I,1.0180,B*70
$RPMTA,15.0,C*03

$RPXDR,P,1.0180,B,0*78

$RPMDA,30.060,I,1.018,B,15.0,C,11.5,C,,,,,344.0,T,345.0,M,4.4,N,2.3,M*67

$IIVLW,08200,N,000.0,N*59
$IIVWR,026,L,04.5,N,,,,*7A
$RPSTD,777789*6C
$IIGLL,3730.080,N,12228.856,W,015401,A,A*4C
$IIHDG,000,,,15,E*16
$IIMTW,+11.5,C*3D
$OSMWV,334.0,T,004.5,N,A*22
$OSVWT,26.0,L,4.5,N,2.3,M,8.3,K*72
$OSMWD,348.0,T,333.0,M,4.5,N,2.3,M*54
$IIRMC,015401,A,3730.080,N,12228.856,W,,,061216,15,E,A*38
$RPXDR,H,82.6,P,0*76
$OSVDR,180.0,T,165.0,M,0.0,N*2E
$IIVHW,,,000,M,00.0,N,,*64
$IIVLW,08200,N,000.0,N*59
$RPMMB,30.0653,I,1.0180,B*70

$RPMTA,14.9,C*0B

$RPXDR,P,1.0180,B,0*78

$RPMDA,30.062,I,1.018,B,14.9,C,11.5,C,,,,,348.0,T,349.0,M,4.5,N,2.3,M*6C
$IIVWR,024,L,04.1,N,,,,*7C
$RPSTD,778791*6A
$IIGLL,3730.080,N,12228.857,W,015404,A,A*48
$IIHDG,000,,,15,E*16
$IIMTW,+11.5,C*3D
$IIRMB,A,0.23,R,,HMB-3   ,,,,,001.20,184,,V,A*1F
$OSMWV,336.0,T,004.1,N,A*24
$OSVWT,24.0,L,4.1,N,2.1,M,7.6,K*7C
$OSMWD,350.0,T,335.0,M,4.1,N,2.1,M*5D
$RPXDR,H,82.6,P,0*76
$IIRMC,015405,A,3730.080,N,12228.857,W,,,061216,15,E,A*3D
$RPMMB,30.0641,I,1.0180,B*73

$RPMTA,15.0,C*03

$RPXDR,P,1.0180,B,0*78

$RPMDA,30.061,I,1.018,B,15.0,C,11.5,C,,,,,350.0,T,351.0,M,4.1,N,2.1,M*61

$IIVHW,,,000,M,00.0,N,,*64

$RPSTD,779793*69
$IIVLW,08200,N,000.0,N*59
$IIVWR,024,L,04.0,N,,,,*7D
$IIGLL,3730.080,N,12228.857,W,015405,A,A*49
$IIHDG,000,,,15,E*16
$IIMTW,+11.5,C*3D
$OSMWV,336.0,T,004.0,N,A*25
$OSVWT,24.0,L,4.0,N,2.1,M,7.4,K*7F
$OSMWD,350.0,T,335.0,M,4.0,N,2.1,M*5C
$RPXDR,H,82.6,P,0*76
$IIRMB,A,0.23,R,,HMB-3   ,,,,,001.20,184,,V,A*1F
$RPMMB,30.0641,I,1.0180,B*73
$RPMTA,14.9,C*0B
$RPXDR,P,1.0180,B,0*78
$RPMDA,30.061,I,1.018,B,14.9,C,11.5,C,,,,,350.0,T,351.0,M,4.0,N,2.1,M*68
$RPSTD,780795*69
$IIRMC,015406,A,3730.080,N,12228.857,W,,,061216,15,E,A*3E
$IIVHW,,,000,M,00.0,N,,*64
$IIVLW,08200,N,000.0,N*59
$IIVWR,024,L,03.8,N,,,,*72
$IIGLL,3730.080,N,12228.857,W,015406,A,A*4A
$IIHDG,000,,,15,E*16
$OSMWV,336.0,T,003.8,N,A*2A
$OSVWT,24.0,L,3.8,N,2.0,M,7.0,K*75
$OSMWD,350.0,T,335.0,M,3.8,N,2.0,M*52
$IIMTW,+11.5,C*3D
$OSVDR,270.0,T,255.0,M,0.0,N*22
$RPXDR,H,82.5,P,0*75
$RPSTD,781797*6A
$RPMMB,30.0641,I,1.0180,B*73

$RPMTA,15.0,C*03

$RPXDR,P,1.0180,B,0*78

$RPMDA,30.061,I,1.018,B,15.0,C,11.5,C,,,,,344.0,T,345.0,M,3.7,N,1.9,M*6B

$IIRMC,015407,A,3730.080,N,12228.856,W,,,061216,15,E,A*3E
$IIVHW,,,000,M,00.0,N,,*64
$IIVLW,08200,N,000.0,N*59
$IIVWR,030,L,03.7,N,,,,*78
$IIGLL,3730.080,N,12228.856,W,015407,A,A*4A
$IIHDG,000,,,15,E*16
$IIMTW,+11.5,C*3D
$OSMWV,330.0,T,003.7,N,A*23
$OSVWT,30.0,L,3.7,N,1.9,M,6.9,K*7D

$OSMWD,344.0,T,329.0,M,3.7,N,1.9,M*5F
$OSVDR,270.0,T,255.0,M,0.0,N*22
$RPXDR,H,82.5,P,0*75
$RPSTD,782800*68
$IIRMB,A,0.23,R,,HMB-3   ,,,,,001.20,184,,V,A*1F

$RPMMB,30.0659,I,1.0180,B*7A

$RPMTA,14.9,C*0B

$RPXDR,P,1.0180,B,0*78

$RPMDA,30.062,I,1.018,B,14.9,C,11.5,C,,,,,342.0,T,343.0,M,4.1,N,2.1,M*6A
$IIRMC,015408,A,3730.080,N,12228.856,W,,,061216,15,E,A*31
$IIVHW,,,000,M,00.0,N,,*64
$IIVLW,08200,N,000.0,N*59
$IIVWR,032,L,04.1,N,,,,*7B
$IIGLL,3730.080,N,12228.856,W,015408,A,A*45
$OSMWV,328.0,T,004.1,N,A*2B
$OSVWT,32.0,L,4.1,N,2.1,M,7.6,K*7B

$OSMWD,342.0,T,327.0,M,4.1,N,2.1,M*5D

$OSVDR,270.0,T,255.0,M,0.0,N*22
$IIHDG,000,,,15,E*16
$RPXDR,H,82.5,P,0*75

$IIMTW,+11.5,C*3D
$RPSTD,783803*6A
$IIRMC,015409,A,3730.079,N,12228.856,W,,,061216,15,E,A*36
$RPMMB,30.0641,I,1.0180,B*73
$RPMTA,15.0,C*03
$RPXDR,P,1.0180,B,0*78
$RPMDA,30.061,I,1.018,B,15.0,C,11.5,C,,,,,342.0,T,343.0,M,3.9,N,2.0,M*6F
$IIVHW,,,000,M,00.0,N,,*64
$IIVLW,08200,N,000.0,N*59
$IIVWR,032,L,03.9,N,,,,*74
$IIGLL,3730.079,N,12228.856,W,015409,A,A*42
$OSMWV,328.0,T,003.9,N,A*24
$OSVWT,32.0,L,3.9,N,2.0,M,7.2,K*71
$OSMWD,342.0,T,327.0,M,3.9,N,2.0,M*53
$OSVDR,270.0,T,255.0,M,0.0,N*22
$IIHDG,000,,,15,E*16
$IIMTW,+11.5,C*3D
$RPXDR,H,82.5,P,0*75
$RPSTD,784805*6B
$IIRMB,A,0.23,R,,HMB-3   ,,,,,001.20,184,,V,A*1F
$RPMMB,30.0653,I,1.0180,B*70
$RPMTA,15.0,C*03
$RPXDR,P,1.0180,B,0*78
$RPMDA,30.062,I,1.018,B,15.0,C,11.5,C,,,,,345.0,T,346.0,M,3.8,N,2.0,M*6F
$IIRMC,015410,A,3730.079,N,12228.856,W,,,061216,15,E,A*3E
$IIVHW,,,000,M,00.0,N,,*64
$IIVLW,08200,N,000.0,N*59
$IIVWR,029,L,03.8,N,,,,*7F
$OSMWV,331.0,T,003.8,N,A*2D
$OSVWT,29.0,L,3.8,N,2.0,M,7.0,K*78
$OSMWD,345.0,T,330.0,M,3.8,N,2.0,M*53
$OSVDR,270.0,T,255.0,M,0.0,N*22
$IIGLL,3730.079,N,12228.856,W,015411,A,A*4B
$IIHDG,000,,,15,E*16
$IIMTW,+11.5,C*3D
$RPSTD,785807*68
$RPXDR,H,82.5,P,0*75
$IIRMC,015411,A,3730.079,N,12228.856,W,,,061216,15,E,A*3F
$RPMMB,30.0653,I,1.0180,B*70
$RPMTA,15.0,C*03

$RPXDR,P,1.0180,B,0*78

$RPMDA,30.062,I,1.018,B,15.0,C,11.5,C,,,,,346.0,T,347.0,M,4.0,N,2.1,M*63
$IIVHW,,,000,M,00.0,N,,*64
$IIVLW,08200,N,000.0,N*59
$IIVWR,028,L,04.0,N,,,,*71
$OSMWV,332.0,T,004.0,N,A*21
$OSVWT,28.0,L,4.0,N,2.1,M,7.4,K*73
$OSMWD,346.0,T,331.0,M,4.0,N,2.1,M*5F
$OSVDR,270.0,T,255.0,M,0.0,N*22
$IIGLL,3730.080,N,12228.856,W,015412,A,A*4E
$IIHDG,359,,,15,E*19

$IIMTW,+11.5,C*3D
$RPSTD,786809*65
$IIRMB,A,0.23,R,,HMB-3   ,,,,,001.20,184,,V,A*1F
$RPXDR,H,82.5,P,0*75
$IIRMC,015412,A,3730.080,N,12228.856,W,,,061216,15,E,A*3A
$RPMMB,30.0641,I,1.0180,B*73
$RPMTA,15.0,C*03
$RPXDR,P,1.0180,B,0*78
$RPMDA,30.061,I,1.018,B,15.0,C,11.5,C,,,,,345.0,T,346.0,M,3.8,N,2.0,M*6C
$IIVHW,,,359,M,00.0,N,,*6B
$OSMWV,332.0,T,003.8,N,A*2E
$OSVWT,28.0,L,3.8,N,2.0,M,7.0,K*79
$OSMWD,345.0,T,330.0,M,3.8,N,2.0,M*53
$OSVDR,238.0,T,223.0,M,0.0,N*2F
$IIVLW,08200,N,000.0,N*59
$IIVWR,031,L,03.8,N,,,,*76
$RPSTD,787811*6D
$IIGLL,3730.080,N,12228.856,W,015413,A,A*4F
$IIHDG,359,,,15,E*19
$IIMTW,+11.5,C*3D
$RPXDR,H,82.5,P,0*75
$IIRMC,015413,A,3730.080,N,12228.856,W,,,061216,15,E,A*3B
$IIVHW,,,359,M,00.0,N,,*6B
$RPMMB,30.0641,I,1.0180,B*73
$RPMTA,15.0,C*03
$RPXDR,P,1.0180,B,0*78
$RPMDA,30.061,I,1.018,B,15.0,C,11.5,C,,,,,342.0,T,343.0,M,3.8,N,2.0,M*6E
$OSMWV,329.0,T,003.8,N,A*24
$OSVWT,31.0,L,3.8,N,2.0,M,7.0,K*71
$OSMWD,342.0,T,327.0,M,3.8,N,2.0,M*52
$OSVDR,270.0,T,255.0,M,0.0,N*22
$IIVLW,08200,N,000.0,N*59
$IIVWR,032,L,04.0,N,,,,*7A
$RPSTD,788813*60
$IIGLL,3730.080,N,12228.855,W,015414,A,A*4B
$IIHDG,359,,,15,E*19
$IIMTW,+11.5,C*3D
$IIRMB,A,0.23,R,,HMB-3   ,,,,,001.20,184,,V,A*1F
$RPXDR,H,82.5,P,0*75
$RPMMB,30.0629,I,1.0179,B*7B
$RPMTA,15.0,C*03
$RPXDR,P,1.0179,B,0*7E
$RPMDA,30.059,I,1.018,B,15.0,C,11.5,C,,,,,341.0,T,342.0,M,4.0,N,2.1,M*69
$OSMWV,328.0,T,004.0,N,A*2A
$OSVWT,32.0,L,4.0,N,2.1,M,7.4,K*78
$OSMWD,341.0,T,326.0,M,4.0,N,2.1,M*5E
$OSVDR,270.0,T,255.0,M,0.0,N*22
$IIRMC,015415,A,3730.080,N,12228.854,W,,,061216,15,E,A*3F
$IIVHW,,,359,M,00.0,N,,*6B
$RPSTD,789815*67
$IIVLW,08200,N,000.0,N*59
$IIVWR,032,L,03.8,N,,,,*75
$IIGLL,3730.080,N,12228.854,W,015415,A,A*4B
$IIHDG,359,,,15,E*19
$IIMTW,+11.5,C*3D
$OSMWV,328.0,T,003.8,N,A*25
$OSVWT,32.0,L,3.8,N,2.0,M,7.0,K*72
$RPXDR,H,82.5,P,0*75
$RPMMB,30.0635,I,1.0180,B*70
$RPMTA,15.0,C*03
$RPXDR,P,1.0180,B,0*78
$RPMDA,30.060,I,1.018,B,15.0,C,11.5,C,,,,,341.0,T,342.0,M,3.8,N,2.0,M*6D
$OSMWD,341.0,T,326.0,M,3.8,N,2.0,M*50
$OSVDR,270.0,T,255.0,M,0.0,N*22
$IIRMB,A,0.23,R,,HMB-3   ,,,,,001.20,184,,V,A*1F
$RPSTD,790818*62
$IIRMC,015416,A,3730.080,N,12228.855,W,,,061216,15,E,A*3D
$IIVHW,,,359,M,00.0,N,,*6B
$IIVLW,08200,N,000.0,N*59
$IIVWR,033,L,03.8,N,,,,*74
$IIGLL,3730.080,N,12228.855,W,015416,A,A*49
$IIHDG,359,,,15,E*19
$IIMTW,+11.5,C*3D
$OSMWV,327.0,T,003.8,N,A*2A
$OSVWT,33.0,L,3.8,N,2.0,M,7.0,K*73
$OSMWD,340.0,T,325.0,M,3.8,N,2.0,M*52
$RPMMB,30.0629,I,1.0179,B*7B
$RPMTA,15.0,C*03
$RPXDR,P,1.0179,B,0*7E
$RPMDA,30.059,I,1.018,B,15.0,C,11.5,C,,,,,340.0,T,341.0,M,3.8,N,2.0,M*65
$RPXDR,H,82.5,P,0*75
$RPSTD,791820*68
$IIRMC,015417,A,3730.079,N,12228.855,W,,,061216,15,E,A*3A

$IIVHW,,,358,M,00.0,N,,*6A
$IIVLW,08200,N,000.0,N*59
$IIVWR,037,L,04.0,N,,,,*7F
$IIGLL,3730.079,N,12228.855,W,015417,A,A*4E
$IIHDG,358,,,15,E*18
$IIMTW,+11.5,C*3D
$OSMWV,323.0,T,004.0,N,A*21
$OSVWT,37.0,L,4.0,N,2.1,M,7.4,K*7D
$OSMWD,335.0,T,320.0,M,4.0,N,2.1,M*5B
$OSVDR,322.0,T,307.0,M,0.0,N*22
$RPMMB,30.0623,I,1.0179,B*71
$RPMTA,15.0,C*03
$RPXDR,P,1.0179,B,0*7E
$RPMDA,30.059,I,1.018,B,15.0,C,11.5,C,,,,,335.0,T,336.0,M,4.0,N,2.1,M*69
$RPXDR,H,82.5,P,0*75
$RPSTD,792823*68
$IIRMB,A,0.23,R,,HMB-3   ,,,,,001.20,184,,V,A*1F
$IIRMC,015418,A,3730.079,N,12228.855,W,,,061216,15,E,A*35
$IIVHW,,,359,M,00.0,N,,*6B
$IIVLW,08200,N,000.0,N*59
$IIVWR,038,L,04.2,N,,,,*72
$IIGLL,3730.079,N,12228.855,W,015418,A,A*41
$OSMWV,322.0,T,004.2,N,A*22
$OSVWT,38.0,L,4.2,N,2.2,M,7.8,K*7F
$OSMWD,335.0,T,320.0,M,4.2,N,2.2,M*5A
$RPMMB,30.0647,I,1.0180,B*75
$RPMTA,15.0,C*03
$RPXDR,P,1.0180,B,0*78
$RPMDA,30.061,I,1.018,B,15.0,C,11.5,C,,,,,335.0,T,336.0,M,4.2,N,2.2,M*63
$RPXDR,H,82.5,P,0*75
$IIHDG,359,,,15,E*19
$IIMTW,+11.5,C*3D
$RPSTD,793826*6C
$IIRMC,015419,A,3730.079,N,12228.856,W,,,061216,15,E,A*37
$IIVHW,,,359,M,00.0,N,,*6B
$IIVLW,08200,N,000.0,N*59
$IIVWR,040,L,04.4,N,,,,*7B
$IIGLL,3730.079,N,12228.856,W,015419,A,A*43
$OSMWV,320.0,T,004.4,N,A*26
$OSVWT,40.0,L,4.4,N,2.3,M,8.1,K*71

$OSMWD,333.0,T,318.0,M,4.4,N,2.3,M*50
$RPMMB,30.0623,I,1.0179,B*71
$RPMTA,15.0,C*03

$RPXDR,P,1.0179,B,0*7E

$RPMDA,30.059,I,1.018,B,15.0,C,11.5,C,,,,,333.0,T,334.0,M,4.4,N,2.3,M*6B
$IIHDG,359,,,15,E*19
$IIMTW,+11.5,C*3D
$RPXDR,H,82.5,P,0*75
$RPSTD,794828*65
$IIRMB,A,0.23,R,,HMB-3   ,,,,,001.20,184,,V,A*1F
$IIRMC,015420,A,3730.078,N,12228.855,W,,,061216,15,E,A*3F
$IIVHW,,,359,M,00.0,N,,*6B
$IIVLW,08200,N,000.0,N*59
$IIVWR,043,L,04.1,N,,,,*7D
$OSMWV,317.0,T,004.1,N,A*27
$OSVWT,43.0,L,4.1,N,2.1,M,7.6,K*7D

$OSMWD,330.0,T,315.0,M,4.1,N,2.1,M*59

$OSVDR,322.0,T,307.0,M,0.0,N*22
$RPMMB,30.0623,I,1.0179,B*71
$RPMTA,15.0,C*03

$RPXDR,P,1.0179,B,0*7E

$RPMDA,30.059,I,1.018,B,15.0,C,11.5,C,,,,,330.0,T,331.0,M,4.1,N,2.1,M*6A
$IIGLL,3730.078,N,12228.855,W,015421,A,A*4A
$IIHDG,359,,,15,E*19
$IIMTW,+11.5,C*3D
$RPXDR,H,82.5,P,0*75
$RPSTD,795830*6D
$IIRMC,015421,A,3730.078,N,12228.855,W,,,061216,15,E,A*3E
$IIVHW,,,359,M,00.0,N,,*6B
$IIVLW,08200,N,000.0,N*59
$IIVWR,047,L,04.2,N,,,,*7A
$OSMWV,313.0,T,004.2,N,A*20
$OSVWT,47.0,L,4.2,N,2.2,M,7.8,K*77

$OSMWD,326.0,T,311.0,M,4.2,N,2.2,M*5A
$RPMMB,30.0617,I,1.0179,B*76
$RPMTA,15.0,C*03

$RPXDR,P,1.0179,B,0*7E

$RPMDA,30.058,I,1.018,B,15.0,C,11.5,C,,,,,326.0,T,327.0,M,4.2,N,2.2,M*6B

$IIGLL,3730.078,N,12228.855,W,015422,A,A*49
$IIHDG,358,,,15,E*18
$IIMTW,+11.5,C*3D
$RPSTD,796833*6D
$RPXDR,H,82.5,P,0*75
$IIRMB,A,0.23,R,,HMB-3   ,,,,,001.20,184,,V,A*1F
$IIRMC,015422,A,3730.078,N,12228.855,W,,,061216,15,E,A*3D
$IIVHW,,,358,M,00.0,N,,*6A
$OSMWV,318.0,T,004.4,N,A*2D
$OSVWT,42.0,L,4.4,N,2.3,M,8.1,K*73

$OSMWD,330.0,T,315.0,M,4.4,N,2.3,M*5E

$OSVDR,270.0,T,255.0,M,0.0,N*22
$IIVLW,08200,N,000.0,N*59
$IIVWR,040,L,04.1,N,,,,*7E
$RPMMB,30.0623,I,1.0179,B*71
$RPMTA,15.0,C*03
$RPXDR,P,1.0179,B,0*7E
$RPMDA,30.059,I,1.018,B,15.0,C,11.5,C,,,,,332.0,T,333.0,M,4.1,N,2.1,M*6A
$IIGLL,3730.078,N,12228.855,W,015423,A,A*48
$RPSTD,797838*67

$IIHDG,358,,,15,E*18
$IIMTW,+11.5,C*3D
$RPXDR,H,82.5,P,0*75
$IIRMC,015423,A,3730.078,N,12228.855,W,,,061216,15,E,A*3C
$IIVHW,,,358,M,00.0,N,,*6A
$OSMWV,320.0,T,004.1,N,A*23
$OSVWT,40.0,L,4.1,N,2.1,M,7.6,K*7E

$OSMWD,332.0,T,317.0,M,4.1,N,2.1,M*59

$OSVDR,270.0,T,255.0,M,0.0,N*22
$IIVLW,08200,N,000.0,N*59
$IIVWR,036,L,03.8,N,,,,*71
$RPMMB,30.0647,I,1.0180,B*75
$RPMTA,15.0,C*03
$RPXDR,P,1.0180,B,0*78
$RPMDA,30.061,I,1.018,B,15.0,C,11.5,C,,,,,336.0,T,337.0,M,3.8,N,2.0,M*6E
$IIGLL,3730.078,N,12228.856,W,015424,A,A*4C
$IIHDG,359,,,15,E*19
$RPSTD,798843*64
$IIMTW,+11.5,C*3D
$IIRMB,A,0.23,R,,HMB-3   ,,,,,001.20,184,,V,A*1F
$RPXDR,H,82.5,P,0*75
$OSMWV,324.0,T,003.8,N,A*29
$OSVWT,36.0,L,3.8,N,2.0,M,7.0,K*76

$OSMWD,337.0,T,322.0,M,3.8,N,2.0,M*55

$OSVDR,180.0,T,165.0,M,0.0,N*2E
$IIRMC,015425,A,3730.079,N,12228.856,W,,,061216,15,E,A*38
$IIVHW,,,358,M,00.0,N,,*6A
$IIVLW,08200,N,000.0,N*59
$RPMMB,30.0623,I,1.0179,B*71
$RPMTA,15.0,C*03
$RPSTD,799855*62
$RPXDR,P,1.0179,B,0*7E
$RPMDA,30.059,I,1.018,B,15.0,C,11.5,C,,,,,336.0,T,337.0,M,3.8,N,2.0,M*65
$IIVWR,036,L,03.7,N,,,,*7E
$IIGLL,3730.079,N,12228.856,W,015425,A,A*4C
$IIHDG,358,,,15,E*18
$IIMTW,+11.5,C*3D
$RPXDR,H,82.5,P,0*75
$OSMWV,324.0,T,003.7,N,A*26
$OSVWT,36.0,L,3.7,N,1.9,M,6.9,K*7B
$OSMWD,336.0,T,321.0,M,3.7,N,1.9,M*52
$IIRMB,A,0.23,R,,HMB-3   ,,,,,001.20,184,,V,A*1F
$IIRMC,015426,A,3730.079,N,12228.856,W,,,061216,15,E,A*3B
$RPSTD,800864*6F
$IIVHW,,,358,M,00.0,N,,*6A
$RPMMB,30.0641,I,1.0180,B*73
$RPMTA,15.0,C*03

$RPXDR,P,1.0180,B,0*78

$RPMDA,30.061,I,1.018,B,15.0,C,11.5,C,,,,,336.0,T,337.0,M,3.7,N,1.9,M*6B
$IIVLW,08200,N,000.0,N*59
$IIVWR,040,L,03.6,N,,,,*7E
$IIGLL,3730.079,N,12228.856,W,015426,A,A*4F
$IIHDG,358,,,15,E*18
$IIMTW,+11.5,C*3D
$RPXDR,H,82.5,P,0*75
$OSMWV,320.0,T,003.6,N,A*23
$OSVWT,40.0,L,3.6,N,1.9,M,6.7,K*75
$OSMWD,332.0,T,317.0,M,3.6,N,1.9,M*52
$IIRMC,015427,A,3730.079,N,12228.855,W,,,061216,15,E,A*39
$RPSTD,801866*6C

$IIVHW,,,359,M,00.0,N,,*6B
$IIVLW,08200,N,000.0,N*59
$RPMMB,30.0629,I,1.0179,B*7B
$RPMTA,15.0,C*03
$RPXDR,P,1.0179,B,0*7E
$RPMDA,30.059,I,1.018,B,15.0,C,11.5,C,,,,,324.0,T,325.0,M,3.1,N,1.6,M*69
$IIVWR,049,L,03.1,N,,,,*70
$IIGLL,3730.079,N,12228.855,W,015427,A,A*4D
$IIHDG,359,,,15,E*19
$IIMTW,+11.5,C*3D
$OSMWV,311.0,T,003.1,N,A*26
$OSVWT,49.0,L,3.1,N,1.6,M,5.7,K*77

$OSMWD,324.0,T,309.0,M,3.1,N,1.6,M*52
$RPXDR,H,82.5,P,0*75
$IIRMB,A,0.23,R,,HMB-3   ,,,,,001.20,184,,V,A*1F
$RPSTD,802868*61
$IIRMC,015428,A,3730.079,N,12228.855,W,,,061216,15,E,A*36
$IIVHW,,,358,M,00.0,N,,*6A
$RPMMB,30.0641,I,1.0180,B*73
$RPMTA,15.0,C*03

$RPXDR,P,1.0180,B,0*78

$RPMDA,30.061,I,1.018,B,15.0,C,11.5,C,,,,,319.0,T,320.0,M,3.2,N,1.6,M*6A
$IIVLW,08200,N,000.0,N*59
$IIVWR,053,L,03.2,N,,,,*78
$IIGLL,3730.079,N,12228.855,W,015428,A,A*42
$OSMWV,307.0,T,003.2,N,A*22
$OSVWT,53.0,L,3.2,N,1.6,M,5.9,K*71

$OSMWD,319.0,T,304.0,M,3.2,N,1.6,M*52

$OSVDR,38.0,T,23.0,M,0.0,N*2F
$RPXDR,H,82.5,P,0*75
$IIHDG,358,,,15,E*18
$IIMTW,+11.5,C*3D
$RPSTD,803870*69
$IIRMC,015429,A,3730.079,N,12228.855,W,,,061216,15,E,A*37
$IIVHW,,,358,M,00.0,N,,*6A
$IIVLW,08200,N,000.0,N*59
$RPMMB,30.0629,I,1.0179,B*7B
$RPMTA,15.0,C*03
$RPXDR,P,1.0179,B,0*7E
$RPMDA,30.059,I,1.018,B,15.0,C,11.5,C,,,,,316.0,T,317.0,M,2.8,N,1.4,M*63

$IIVWR,056,L,02.8,N,,,,*76
$IIGLL,3730.079,N,12228.855,W,015429,A,A*43
$OSMWV,304.0,T,002.8,N,A*2A
$OSVWT,56.0,L,2.8,N,1.4,M,5.2,K*76

$OSMWD,316.0,T,301.0,M,2.8,N,1.4,M*51

$OSVDR,38.0,T,23.0,M,0.0,N*2F
$IIHDG,358,,,15,E*18
$RPXDR,H,82.5,P,0*75
$IIMTW,+11.5,C*3D
$RPSTD,804872*6C
$IIRMB,A,0.23,R,,HMB-3   ,,,,,001.20,184,,V,A*1F
$IIRMC,015430,A,3730.079,N,12228.856,W,,,061216,15,E,A*3C
$IIVHW,,,358,M,00.0,N,,*6A
$RPMMB,30.0623,I,1.0179,B*71
$RPMTA,15.0,C*03
$RPXDR,P,1.0179,B,0*7E
$RPMDA,30.059,I,1.018,B,15.0,C,11.5,C,,,,,316.0,T,317.0,M,3.0,N,1.5,M*6B
$IIVLW,08200,N,000.0,N*59
$IIVWR,056,L,03.0,N,,,,*7F
$OSMWV,304.0,T,003.0,N,A*23
$OSVWT,56.0,L,3.0,N,1.5,M,5.6,K*7A

$OSMWD,316.0,T,301.0,M,3.0,N,1.5,M*59

$OSVDR,90.0,T,75.0,M,0.0,N*2E
$IIGLL,3730.079,N,12228.856,W,015431,A,A*49
$IIHDG,358,,,15,E*18
$IIMTW,+11.5,C*3D
$RPXDR,H,82.5,P,0*75
$RPSTD,805875*6A
$IIRMC,015431,A,3730.079,N,12228.856,W,,,061216,15,E,A*3D
$IIVHW,,,358,M,00.0,N,,*6A
$IIVLW,08200,N,000.0,N*59
$IIVWR,049,L,02.7,N,,,,*77
$RPMMB,30.0623,I,1.0179,B*71
$RPMTA,15.0,C*03
$RPXDR,P,1.0179,B,0*7E
$RPMDA,30.059,I,1.018,B,15.0,C,11.5,C,,,,,323.0,T,324.0,M,2.7,N,1.4,M*6A
$OSMWV,311.0,T,002.7,N,A*21
$OSVWT,49.0,L,2.7,N,1.4,M,5.0,K*75

$OSMWD,323.0,T,308.0,M,2.7,N,1.4,M*51
$IIGLL,3730.079,N,12228.855,W,015432,A,A*49
$IIHDG,358,,,15,E*18
$IIMTW,+11.5,C*3D
$RPSTD,806877*6B
$RPXDR,H,82.5,P,0*75
$IIRMB,A,0.23,R,,HMB-3   ,,,,,001.20,184,,V,A*1F
$IIRMC,015432,A,3730.079,N,12228.855,W,,,061216,15,E,A*3D
$IIVHW,,,358,M,00.0,N,,*6A
$RPMMB,30.0623,I,1.0179,B*71
$RPMTA,15.0,C*03
$RPXDR,P,1.0179,B,0*7E
$RPMDA,30.059,I,1.018,B,15.0,C,11.5,C,,,,,330.0,T,331.0,M,2.6,N,1.3,M*6A
$OSMWV,318.0,T,002.6,N,A*29
$OSVWT,42.0,L,2.6,N,1.3,M,4.8,K*71

$OSMWD,330.0,T,315.0,M,2.6,N,1.3,M*59
$IIVLW,08200,N,000.0,N*59
$IIVWR,038,L,02.9,N,,,,*7F
$IIGLL,3730.079,N,12228.855,W,015433,A,A*48
$IIHDG,358,,,15,E*18
$RPSTD,807879*64
$IIMTW,+11.5,C*3D
$RPXDR,H,82.4,P,0*74
$IIRMC,015433,A,3730.079,N,12228.855,W,,,061216,15,E,A*3C
$IIVHW,,,358,M,00.0,N,,*6A
$RPMMB,30.0623,I,1.0179,B*71
$RPMTA,15.0,C*03
$RPXDR,P,1.0179,B,0*7E
$RPMDA,30.059,I,1.018,B,15.0,C,11.5,C,,,,,334.0,T,335.0,M,2.9,N,1.5,M*63
$OSMWV,322.0,T,002.9,N,A*2F
$OSVWT,38.0,L,2.9,N,1.5,M,5.4,K*78

$OSMWD,334.0,T,319.0,M,2.9,N,1.5,M*58
$OSVDR,90.0,T,75.0,M,0.0,N*2E
$IIVLW,08200,N,000.0,N*59
$IIVWR,036,L,02.8,N,,,,*70
$IIGLL,3730.079,N,12228.854,W,015434,A,A*4E
$IIHDG,358,,,15,E*18
$RPSTD,808881*6C
$IIMTW,+11.5,C*3D
$IIRMB,A,0.23,R,,HMB-3   ,,,,,001.20,184,,V,A*1F
$RPXDR,H,82.4,P,0*74
$RPMMB,30.0647,I,1.0180,B*75
$RPMTA,15.0,C*03

$RPXDR,P,1.0180,B,0*78

$RPMDA,30.061,I,1.018,B,15.0,C,11.5,C,,,,,336.0,T,337.0,M,2.8,N,1.4,M*68
$OSMWV,324.0,T,002.8,N,A*28
$OSVWT,36.0,L,2.8,N,1.4,M,5.2,K*70

$OSMWD,336.0,T,321.0,M,2.8,N,1.4,M*51

$OSVDR,90.0,T,75.0,M,0.0,N*2E
$IIRMC,015435,A,3730.079,N,12228.854,W,,,061216,15,E,A*3B
$IIVHW,,,358,M,00.0,N,,*6A
$IIVLW,08200,N,000.0,N*59
$RPSTD,809885*69
$IIVWR,037,L,02.6,N,,,,*7F
$IIGLL,3730.079,N,12228.854,W,015435,A,A*4F
$IIHDG,358,,,15,E*18
$IIMTW,+11.5,C*3D
$RPXDR,H,82.4,P,0*74
$RPMMB,30.0641,I,1.0180,B*73

$RPMTA,15.0,C*03

$RPXDR,P,1.0180,B,0*78

$RPMDA,30.061,I,1.018,B,15.0,C,11.5,C,,,,,335.0,T,336.0,M,2.6,N,1.3,M*63

$OSMWV,323.0,T,002.6,N,A*21

$OSVWT,37.0,L,2.6,N,1.3,M,4.8,K*73

$OSMWD,335.0,T,320.0,M,2.6,N,1.3,M*5A

$OSVDR,90.0,T,75.0,M,0.0,N*2E
$IIRMB,A,0.23,R,,HMB-3   ,,,,,001.20,185,,V,A*1E

$IIRMC,015436,A,3730.079,N,12228.854,W,,,061216,15,E,A*38

$RPSTD,810887*63
$IIVHW,,,358,M,00.0,N,,*6A
$IIVLW,08200,N,000.0,N*59

$IIVWR,040,L,02.4,N,,,,*7D
$IIGLL,3730.079,N,12228.854,W,015436,A,A*4C
$IIHDG,358,,,15,E*18

$IIMTW,+11.5,C*3D
$RPXDR,H,82.4,P,0*74
$RPMMB,30.0629,I,1.0179,B*7B
$RPMTA,15.0,C*03

$RPXDR,P,1.0179,B,0*7E

$RPMDA,30.059,I,1.018,B,15.0,C,11.5,C,,,,,332.0,T,333.0,M,2.4,N,1.2,M*69
$OSMWV,320.0,T,002.4,N,A*20
$OSVWT,40.0,L,2.4,N,1.2,M,4.4,K*7C
$OSMWD,332.0,T,317.0,M,2.4,N,1.2,M*5A
$OSVDR,90.0,T,75.0,M,0.0,N*2E
$IIRMC,015437,A,3730.079,N,12228.853,W,,,061216,15,E,A*3E
$RPSTD,811889*6C
$IIVHW,,,358,M,00.0,N,,*6A

$IIVLW,08200,N,000.0,N*59
$IIVWR,039,L,02.3,N,,,,*74
$IIGLL,3730.079,N,12228.853,W,015437,A,A*4A

$IIHDG,358,,,15,E*18

$IIMTW,+11.5,C*3D
$RPXDR,H,82.4,P,0*74
$RPMMB,30.0629,I,1.0179,B*7B
$RPMTA,15.0,C*03

$RPXDR,P,1.0179,B,0*7E
$RPMDA,30.059,I,1.018,B,15.0,C,11.5,C,,,,,333.0,T,334.0,M,2.3,N,1.2,M*68
$OSMWV,321.0,T,002.3,N,A*26
$OSVWT,39.0,L,2.3,N,1.2,M,4.3,K*72

$OSMWD,333.0,T,318.0,M,2.3,N,1.2,M*53

$OSVDR,90.0,T,75.0,M,0.0,N*2E
$IIRMB,A,0.23,R,,HMB-3   ,,,,,001.20,185,,V,A*1E
$RPSTD,812892*65
$IIRMC,015438,A,3730.078,N,12228.853,W,,,061216,15,E,A*30

$IIVHW,,,358,M,00.0,N,,*6A
$IIVLW,08200,N,000.0,N*59
$IIVWR,042,L,02.8,N,,,,*73
$IIGLL,3730.078,N,12228.853,W,015438,A,A*44
$RPXDR,H,82.4,P,0*74
$OSMWV,318.0,T,002.8,N,A*27
$OSVWT,42.0,L,2.8,N,1.4,M,5.2,K*73
$OSMWD,330.0,T,315.0,M,2.8,N,1.4,M*50
$OSVDR,107.0,T,92.0,M,0.0,N*18
$RPMMB,30.0641,I,1.0180,B*73
$RPMTA,15.0,C*03

$RPXDR,P,1.0180,B,0*78

$RPMDA,30.061,I,1.018,B,15.0,C,11.5,C,,,,,330.0,T,331.0,M,2.8,N,1.4,M*68

$IIHDG,358,,,15,E*18

$IIMTW,+11.5,C*3D

$RPSTD,813895*63

$IIRMC,015439,A,3730.078,N,12228.853,W,,,061216,15,E,A*31

$IIVHW,,,358,M,00.0,N,,*6A

$IIVLW,08200,N,000.0,N*59

$IIVWR,040,L,03.1,N,,,,*79
$IIGLL,3730.078,N,12228.853,W,015439,A,A*45
$OSMWV,320.0,T,003.1,N,A*24
$OSVWT,40.0,L,3.1,N,1.6,M,5.7,K*7E

$OSMWD,332.0,T,317.0,M,3.1,N,1.6,M*5A

$OSVDR,122.0,T,107.0,M,0.0,N*22
$IIHDG,358,,,15,E*18
$RPMMB,30.0629,I,1.0179,B*7B
$RPMTA,15.0,C*03
$RPXDR,H,82.4,P,0*74
$RPXDR,P,1.0179,B,0*7E
$RPMDA,30.059,I,1.018,B,15.0,C,11.5,C,,,,,332.0,T,333.0,M,3.1,N,1.6,M*69
$IIMTW,+11.5,C*3D
$RPSTD,814897*66
$IIRMB,A,0.23,R,,HMB-3   ,,,,,001.20,185,,V,A*1E
$IIRMC,015440,A,3730.079,N,12228.853,W,,,061216,15,E,A*3E
$IIVHW,,,358,M,00.0,N,,*6A
$IIVLW,08200,N,000.0,N*59
$IIVWR,038,L,03.4,N,,,,*73
$OSMWV,322.0,T,003.4,N,A*23
$OSVWT,38.0,L,3.4,N,1.7,M,6.3,K*72

$OSMWD,334.0,T,319.0,M,3.4,N,1.7,M*56

$OSVDR,122.0,T,107.0,M,0.0,N*22
$IIGLL,3730.079,N,12228.853,W,015441,A,A*4B
$RPMMB,30.0611,I,1.0179,B*70
$RPMTA,15.0,C*03
$RPXDR,P,1.0179,B,0*7E
$RPMDA,30.058,I,1.018,B,15.0,C,11.5,C,,,,,334.0,T,335.0,M,3.4,N,1.7,M*6C
$IIHDG,358,,,15,E*18
$IIMTW,+11.5,C*3D

$RPXDR,H,82.4,P,0*74
$RPSTD,815900*68
$RPBAT,14.24,V,971,94*1C
$RPXDR,U,14.237536430358887,V,0*6C
$IIRMC,015441,A,3730.079,N,12228.853,W,,,061216,15,E,A*3F
$IIVHW,,,358,M,00.0,N,,*6A
$IIVLW,08200,N,000.0,N*59
$IIVWR,038,L,03.6,N,,,,*71
$OSMWV,322.0,T,003.6,N,A*21
$OSVWT,38.0,L,3.6,N,1.9,M,6.7,K*7A

$OSMWD,334.0,T,319.0,M,3.6,N,1.9,M*5A

$OSVDR,107.0,T,92.0,M,0.0,N*18

$IIGLL,3730.079,N,12228.854,W,015442,A,A*4F
$IIHDG,358,,,15,E*18
$IIMTW,+11.5,C*3D
$RPMMB,30.0641,I,1.0180,B*73
$RPMTA,15.0,C*03
$RPXDR,P,1.0180,B,0*78
$RPMDA,30.061,I,1.018,B,15.0,C,11.5,C,,,,,334.0,T,335.0,M,3.6,N,1.9,M*6A
$RPXDR,H,82.4,P,0*74
$RPSTD,816904*6F
$IIRMB,A,0.23,R,,HMB-3   ,,,,,001.20,185,,V,A*1E
$IIRMC,015442,A,3730.079,N,12228.854,W,,,061216,15,E,A*3B
$IIVHW,,,358,M,00.0,N,,*6A
$OSMWV,321.0,T,003.0,N,A*24
$OSVWT,39.0,L,3.0,N,1.5,M,5.6,K*73

$OSMWD,333.0,T,318.0,M,3.0,N,1.5,M*56

$OSVDR,104.0,T,89.0,M,0.0,N*11
$IIVLW,08200,N,000.0,N*59
$IIVWR,042,L,03.1,N,,,,*7B
$IIGLL,3730.080,N,12228.855,W,015443,A,A*49
$IIHDG,358,,,15,E*18
$RPMMB,30.0647,I,1.0180,B*75
$RPMTA,15.0,C*03
$RPXDR,P,1.0180,B,0*78
$RPMDA,30.061,I,1.018,B,15.0,C,11.5,C,,,,,330.0,T,331.0,M,3.1,N,1.6,M*62

$IIMTW,+11.5,C*3D

$RPSTD,817906*6C
$RPXDR,H,82.4,P,0*74
$IIRMC,015443,A,3730.080,N,12228.855,W,,,061216,15,E,A*3D
$IIVHW,,,358,M,00.0,N,,*6A
$OSMWV,318.0,T,003.1,N,A*2F
$OSVWT,42.0,L,3.1,N,1.6,M,5.7,K*7C

$OSMWD,330.0,T,315.0,M,3.1,N,1.6,M*5A

$OSVDR,107.0,T,92.0,M,0.0,N*18
$IIVLW,08200,N,000.0,N*59
$IIVWR,046,L,03.2,N,,,,*7C
$IIGLL,3730.080,N,12228.855,W,015444,A,A*4E
$IIHDG,358,,,15,E*18
$IIMTW,+11.5,C*3D
$RPSTD,818907*62
$RPMMB,30.0623,I,1.0179,B*71
$RPMTA,15.0,C*03
$RPXDR,P,1.0179,B,0*7E
$RPMDA,30.059,I,1.018,B,15.0,C,11.5,C,,,,,326.0,T,327.0,M,3.2,N,1.6,M*6A
$IIRMB,A,0.23,R,,HMB-3   ,,,,,001.20,184,,V,A*1F
$RPXDR,H,82.4,P,0*74
$OSMWV,314.0,T,003.2,N,A*20
$OSVWT,46.0,L,3.2,N,1.6,M,5.9,K*75

$OSMWD,326.0,T,311.0,M,3.2,N,1.6,M*5A

$OSVDR,90.0,T,75.0,M,0.0,N*2E
$IIRMC,015445,A,3730.080,N,12228.855,W,,,061216,15,E,A*3B
$IIVHW,,,358,M,00.0,N,,*6A
$IIVLW,08200,N,000.0,N*59
$IIVWR,049,L,03.3,N,,,,*72
$RPSTD,819909*6D
$IIGLL,3730.080,N,12228.855,W,015445,A,A*4F
$RPMMB,30.0641,I,1.0180,B*73
$RPMTA,15.0,C*03
$RPXDR,P,1.0180,B,0*78

$RPMDA,30.061,I,1.018,B,15.0,C,11.5,C,,,,,323.0,T,324.0,M,3.3,N,1.7,M*67
$IIHDG,358,,,15,E*18
$IIMTW,+11.5,C*3D
$RPXDR,H,82.4,P,0*74
$OSMWV,311.0,T,003.3,N,A*24
$OSVWT,49.0,L,3.3,N,1.7,M,6.1,K*71

$OSMWD,323.0,T,308.0,M,3.3,N,1.7,M*57

$OSVDR,67.0,T,52.0,M,0.0,N*23
$IIRMB,A,0.23,R,,HMB-3   ,,,,,001.20,184,,V,A*1F
$IIRMC,015446,A,3730.080,N,12228.856,W,,,061216,15,E,A*3B
$IIVHW,,,358,M,00.0,N,,*6A
$RPSTD,820912*6D
$IIVLW,08200,N,000.0,N*59
$IIVWR,049,L,02.9,N,,,,*79
$RPMMB,30.0629,I,1.0179,B*7B
$RPMTA,15.0,C*03
$RPXDR,P,1.0179,B,0*7E
$RPMDA,30.059,I,1.018,B,15.0,C,11.5,C,,,,,323.0,T,324.0,M,2.9,N,1.5,M*65
$IIGLL,3730.080,N,12228.856,W,015446,A,A*4F
$IIHDG,358,,,15,E*18
$IIMTW,+11.5,C*3D
$RPXDR,H,82.4,P,0*74
$OSMWV,311.0,T,002.9,N,A*2F
$OSVWT,49.0,L,2.9,N,1.5,M,5.4,K*7E

$OSMWD,323.0,T,308.0,M,2.9,N,1.5,M*5E

$OSVDR,67.0,T,52.0,M,0.0,N*23
$IIRMC,015447,A,3730.080,N,12228.856,W,,,061216,15,E,A*3A
$IIVHW,,,359,M,00.0,N,,*6B
$RPSTD,821914*6A
$IIVLW,08200,N,000.0,N*59
$IIVWR,050,L,03.1,N,,,,*78
$RPMMB,30.0653,I,1.0180,B*70
$IIGLL,3730.080,N,12228.856,W,015447,A,A*4E
$RPMTA,15.0,C*03

$RPXDR,P,1.0180,B,0*78

$RPMDA,30.062,I,1.018,B,15.0,C,11.5,C,,,,,323.0,T,324.0,M,3.1,N,1.6,M*67
$IIHDG,359,,,15,E*19
$IIMTW,+11.5,C*3D
$RPXDR,H,82.4,P,0*74
$OSMWV,310.0,T,003.1,N,A*27
$OSVWT,50.0,L,3.1,N,1.6,M,5.7,K*7F
$OSMWD,323.0,T,308.0,M,3.1,N,1.6,M*54
$OSVDR,58.0,T,43.0,M,0.0,N*2F
$IIRMB,A,0.23,R,,HMB-3   ,,,,,001.20,184,,V,A*1F
$RPSTD,822916*6B
$IIRMC,015448,A,3730.080,N,12228.856,W,,,061216,15,E,A*35
$IIVHW,,,359,M,00.0,N,,*6B
$IIVLW,08200,N,000.0,N*59
$IIVWR,049,L,02.8,N,,,,*78
$RPMMB,30.0623,I,1.0179,B*71
$RPMTA,15.0,C*03
$RPXDR,P,1.0179,B,0*7E
$RPMDA,30.059,I,1.018,B,15.0,C,11.5,C,,,,,324.0,T,325.0,M,2.8,N,1.4,M*63
$IIGLL,3730.080,N,12228.856,W,015448,A,A*41
$RPXDR,H,82.4,P,0*74
$IIHDG,359,,,15,E*19
$OSMWV,311.0,T,002.8,N,A*2E
$OSVWT,49.0,L,2.8,N,1.4,M,5.2,K*78
$OSMWD,324.0,T,309.0,M,2.8,N,1.4,M*58
$OSVDR,58.0,T,43.0,M,0.0,N*2F
$IIMTW,+11.5,C*3D
$IIRMC,015449,A,3730.080,N,12228.856,W,,,061216,15,E,A*34
$RPSTD,823918*64
$IIVHW,,,359,M,00.0,N,,*6B
$IIVLW,08200,N,000.0,N*59
$IIVWR,048,L,03.1,N,,,,*71
$IIGLL,3730.080,N,12228.856,W,015449,A,A*40
$RPMMB,30.0629,I,1.0179,B*7B
$RPMTA,15.0,C*03
$RPXDR,P,1.0179,B,0*7E
$RPMDA,30.059,I,1.018,B,15.0,C,11.5,C,,,,,325.0,T,326.0,M,3.1,N,1.6,M*6B
$IIHDG,359,,,15,E*19
$RPXDR,H,82.4,P,0*74
$OSMWV,312.0,T,003.1,N,A*25
$OSVWT,48.0,L,3.1,N,1.6,M,5.7,K*76
$OSMWD,325.0,T,310.0,M,3.1,N,1.6,M*5B
$OSVDR,58.0,T,43.0,M,0.0,N*2F
$IIMTW,+11.5,C*3D
$IIRMB,A,0.23,R,,HMB-3   ,,,,,001.20,184,,V,A*1F
$RPSTD,824920*68
$IIRMC,015450,A,3730.080,N,12228.856,W,,,061216,15,E,A*3C
$IIVHW,,,359,M,00.0,N,,*6B
$IIVLW,08200,N,000.0,N*59
$IIVWR,048,L,02.8,N,,,,*79
$RPMMB,30.0611,I,1.0179,B*70
$RPMTA,15.0,C*03
$RPXDR,P,1.0179,B,0*7E
$RPMDA,30.058,I,1.018,B,15.0,C,11.5,C,,,,,325.0,T,326.0,M,2.8,N,1.4,M*60
$OSMWV,312.0,T,002.8,N,A*2D
$OSVWT,48.0,L,2.8,N,1.4,M,5.2,K*79

$OSMWD,325.0,T,310.0,M,2.8,N,1.4,M*51

$IIGLL,3730.080,N,12228.856,W,015451,A,A*49

$OSVDR,38.0,T,23.0,M,0.0,N*2F

$RPXDR,H,82.4,P,0*74

$IIHDG,359,,,15,E*19

$IIMTW,+11.5,C*3D
$RPSTD,825924*6D
$IIRMC,015451,A,3730.080,N,12228.856,W,,,061216,15,E,A*3D
$IIVHW,,,359,M,00.0,N,,*6B
$IIVLW,08200,N,000.0,N*59
$IIVWR,052,L,03.0,N,,,,*7B
$RPMMB,30.0641,I,1.0180,B*73
$RPMTA,15.0,C*03
$RPXDR,P,1.0180,B,0*78
$RPMDA,30.061,I,1.018,B,15.0,C,11.5,C,,,,,321.0,T,322.0,M,3.0,N,1.5,M*62
$IIGLL,3730.079,N,12228.856,W,015452,A,A*4C
$OSMWV,308.0,T,003.0,N,A*2F

$OSVWT,52.0,L,3.0,N,1.5,M,5.6,K*7E

$OSMWD,321.0,T,306.0,M,3.0,N,1.5,M*5A

$OSVDR,38.0,T,23.0,M,0.0,N*2F
$IIHDG,359,,,15,E*19
$IIMTW,+11.5,C*3D
$RPXDR,H,82.4,P,0*74
$RPSTD,826926*6C
$IIRMB,A,0.23,R,,HMB-3   ,,,,,001.20,184,,V,A*1F
$IIRMC,015452,A,3730.079,N,12228.856,W,,,061216,15,E,A*38
$IIVHW,,,359,M,00.0,N,,*6B
$RPMMB,30.0635,I,1.0180,B*70
$RPMTA,15.0,C*03
$RPXDR,P,1.0180,B,0*78
$RPMDA,30.060,I,1.018,B,15.0,C,11.5,C,,,,,323.0,T,324.0,M,2.8,N,1.4,M*6F
$IIVLW,08200,N,000.0,N*59
$IIVWR,045,L,03.0,N,,,,*7D

$OSMWV,315.0,T,003.0,N,A*23

$OSVWT,45.0,L,3.0,N,1.5,M,5.6,K*78

$OSMWD,328.0,T,313.0,M,3.0,N,1.5,M*57

$OSVDR,38.0,T,23.0,M,0.0,N*2F
$IIGLL,3730.079,N,12228.856,W,015453,A,A*4D
$IIHDG,359,,,15,E*19
$IIMTW,+11.5,C*3D
$RPSTD,827928*63
$RPXDR,H,82.4,P,0*74
$IIRMC,015453,A,3730.079,N,12228.856,W,,,061216,15,E,A*39
$IIVHW,,,359,M,00.0,N,,*6B
$RPMMB,30.0641,I,1.0180,B*73
$RPMTA,15.0,C*03

$RPXDR,P,1.0180,B,0*78

$RPMDA,30.061,I,1.018,B,15.0,C,11.5,C,,,,,328.0,T,329.0,M,3.0,N,1.5,M*60
$IIVLW,08200,N,000.0,N*59
$IIVWR,040,L,03.7,N,,,,*7F
$OSMWV,320.0,T,003.7,N,A*22
$OSVWT,40.0,L,3.7,N,1.9,M,6.9,K*7A
$OSMWD,333.0,T,318.0,M,3.7,N,1.9,M*5D
$OSVDR,90.0,T,75.0,M,0.0,N*2E
$IIGLL,3730.079,N,12228.855,W,015454,A,A*49
$IIHDG,359,,,15,E*19
$IIMTW,+11.5,C*3D
$RPSTD,828930*65
$RPXDR,H,82.4,P,0*74
$IIRMB,A,0.23,R,,HMB-3   ,,,,,001.20,184,,V,A*1F
$RPMMB,30.0617,I,1.0179,B*76
$RPMTA,15.0,C*03

$RPXDR,P,1.0179,B,0*7E

$RPMDA,30.058,I,1.018,B,15.0,C,11.5,C,,,,,333.0,T,334.0,M,3.7,N,1.9,M*67
$IIRMC,015455,A,3730.078,N,12228.855,W,,,061216,15,E,A*3D
$OSMWV,320.0,T,003.7,N,A*22
$OSVWT,40.0,L,3.7,N,1.9,M,6.9,K*7A
$OSMWD,333.0,T,318.0,M,3.7,N,1.9,M*5D
$OSVDR,90.0,T,75.0,M,0.0,N*2E
$IIVHW,,,359,M,00.0,N,,*6B
$IIVLW,08200,N,000.0,N*59
$IIVWR,037,L,03.7,N,,,,*7F
$RPSTD,829932*66
$IIGLL,3730.078,N,12228.855,W,015455,A,A*49
$IIHDG,359,,,15,E*19
$IIMTW,+11.5,C*3D
$RPXDR,H,82.4,P,0*74
$RPMMB,30.0659,I,1.0180,B*7A
$RPMTA,15.0,C*03

$RPXDR,P,1.0180,B,0*78

$RPMDA,30.062,I,1.018,B,15.0,C,11.5,C,,,,,336.0,T,337.0,M,3.7,N,1.9,M*68
$IIRMB,A,0.23,R,,HMB-3   ,,,,,001.20,184,,V,A*1F
$OSMWV,323.0,T,003.7,N,A*21
$OSVWT,37.0,L,3.7,N,1.9,M,6.9,K*7A
$OSMWD,336.0,T,321.0,M,3.7,N,1.9,M*52
$OSVDR,90.0,T,75.0,M,0.0,N*2E
$IIRMC,015456,A,3730.078,N,12228.855,W,,,061216,15,E,A*3E
$IIVHW,,,359,M,00.0,N,,*6B
$RPSTD,830935*69
$IIVLW,08200,N,000.0,N*59
$IIVWR,035,L,03.6,N,,,,*7C
$IIGLL,3730.078,N,12228.855,W,015456,A,A*4A
$IIHDG,359,,,15,E*19
$IIMTW,+11.5,C*3D
$RPXDR,H,82.4,P,0*74
$RPMMB,30.0647,I,1.0180,B*75
$RPMTA,15.0,C*03

$RPXDR,P,1.0180,B,0*78

$RPMDA,30.061,I,1.018,B,15.0,C,11.5,C,,,,,338.0,T,339.0,M,3.6,N,1.9,M*6A
$OSMWV,326.0,T,003.7,N,A*24
$OSVWT,34.0,L,3.7,N,1.9,M,6.9,K*79
$OSMWD,339.0,T,324.0,M,3.7,N,1.9,M*58
$OSVDR,90.0,T,75.0,M,0.0,N*2E
$IIRMC,015457,A,3730.078,N,12228.855,W,,,061216,15,E,A*3F
$IIVHW,,,359,M,00.0,N,,*6B
$RPSTD,831937*6A
$IIVLW,08200,N,000.0,N*59
$IIVWR,034,L,03.7,N,,,,*7C
$IIGLL,3730.078,N,12228.855,W,015457,A,A*4B
$IIHDG,359,,,15,E*19
$IIMTW,+11.5,C*3D
$RPXDR,H,82.4,P,0*74
$RPMMB,30.0629,I,1.0179,B*7B
$RPMTA,15.0,C*03

$RPXDR,P,1.0179,B,0*7E

$RPMDA,30.059,I,1.018,B,15.0,C,11.5,C,,,,,338.0,T,339.0,M,3.6,N,1.9,M*61
$OSMWV,325.0,T,003.6,N,A*26
$OSVWT,35.0,L,3.6,N,1.9,M,6.7,K*77
$OSMWD,338.0,T,323.0,M,3.6,N,1.9,M*5F
$OSVDR,90.0,T,75.0,M,0.0,N*2E
$IIRMB,A,0.23,R,,HMB-3   ,,,,,001.20,185,,V,A*1E
$RPSTD,832939*67
$IIRMC,015458,A,3730.078,N,12228.854,W,,,061216,15,E,A*31
$IIVHW,,,359,M,00.0,N,,*6B
$IIVLW,08200,N,000.0,N*59
$IIVWR,035,L,03.6,N,,,,*7C
$IIGLL,3730.078,N,12228.854,W,015458,A,A*45
$RPXDR,H,82.4,P,0*74
$IIHDG,359,,,15,E*19
$IIMTW,+11.5,C*3D
$RPMMB,30.0635,I,1.0180,B*70
$RPMTA,15.0,C*03
$RPXDR,P,1.0180,B,0*78
$RPMDA,30.060,I,1.018,B,15.0,C,11.5,C,,,,,338.0,T,339.0,M,3.6,N,1.9,M*6B
$OSMWV,324.0,T,003.7,N,A*26
$OSVWT,36.0,L,3.7,N,1.9,M,6.9,K*7B
$OSMWD,337.0,T,322.0,M,3.7,N,1.9,M*50
$OSVDR,107.0,T,92.0,M,0.0,N*18
$IIRMC,015459,A,3730.078,N,12228.854,W,,,061216,15,E,A*30
$RPSTD,833941*69
$IIVHW,,,359,M,00.0,N,,*6B
$IIVLW,08200,N,000.0,N*59
$IIVWR,036,L,03.7,N,,,,*7E
$IIGLL,3730.078,N,12228.854,W,015459,A,A*44
$RPXDR,H,82.4,P,0*74
$IIHDG,359,,,15,E*19

$IIMTW,+11.5,C*3D
$RPMMB,30.0641,I,1.0180,B*73
$RPMTA,15.0,C*03
$RPXDR,P,1.0180,B,0*78
$RPMDA,30.061,I,1.018,B,15.0,C,11.5,C,,,,,333.0,T,334.0,M,3.7,N,1.9,M*6D
$OSMWV,320.0,T,003.7,N,A*22
$OSVWT,40.0,L,3.7,N,1.9,M,6.9,K*7A
$OSMWD,333.0,T,318.0,M,3.7,N,1.9,M*5D
$OSVDR,113.0,T,98.0,M,0.0,N*17
$IIRMB,A,0.23,R,,HMB-3   ,,,,,001.20,185,,V,A*1E
$RPSTD,834944*6B
$IIRMC,015500,A,3730.078,N,12228.853,W,,,061216,15,E,A*3A
$IIVHW,,,359,M,00.0,N,,*6B
$IIVLW,08200,N,000.0,N*59
$IIVWR,040,L,03.7,N,,,,*7F
$IIGLL,3730.078,N,12228.853,W,015501,A,A*4F
$RPXDR,H,82.4,P,0*74
$IIHDG,359,,,15,E*19
$IIMTW,+11.5,C*3D
$RPMMB,30.0641,I,1.0180,B*73
$RPMTA,15.0,C*03
$RPXDR,P,1.0180,B,0*78
$RPMDA,30.061,I,1.018,B,15.0,C,11.5,C,,,,,329.0,T,330.0,M,3.7,N,1.9,M*62
$OSMWV,316.0,T,003.7,N,A*27
$OSVWT,44.0,L,3.7,N,1.9,M,6.9,K*7E
$OSMWD,329.0,T,314.0,M,3.7,N,1.9,M*5A
$OSVDR,107.0,T,92.0,M,0.0,N*18
$RPSTD,835946*68
$IIRMC,015501,A,3730.078,N,12228.853,W,,,061216,15,E,A*3B
$IIVHW,,,359,M,00.0,N,,*6B
$IIVLW,08200,N,000.0,N*59
$IIVWR,044,L,03.7,N,,,,*7B
$IIGLL,3730.078,N,12228.854,W,015502,A,A*4B
$IIHDG,359,,,15,E*19
$IIMTW,+11.5,C*3D
$RPXDR,H,82.4,P,0*74
$OSMWV,316.0,T,003.7,N,A*27
$OSVWT,44.0,L,3.7,N,1.9,M,6.9,K*7E
$OSMWD,329.0,T,314.0,M,3.7,N,1.9,M*5A
$RPMMB,30.0641,I,1.0180,B*73
$RPMTA,15.0,C*03
$RPXDR,P,1.0180,B,0*78
$RPMDA,30.061,I,1.018,B,15.0,C,11.5,C,,,,,329.0,T,330.0,M,3.7,N,1.9,M*62

$OSVDR,107.0,T,92.0,M,0.0,N*18
$RPSTD,836948*65
$IIRMB,A,0.23,R,,HMB-3   ,,,,,001.20,185,,V,A*1E
$IIRMC,015502,A,3730.078,N,12228.854,W,,,061216,15,E,A*3F
$IIVHW,,,359,M,00.0,N,,*6B
$IIVLW,08200,N,000.0,N*59
$IIVWR,045,L,03.6,N,,,,*7B
$IIGLL,3730.078,N,12228.854,W,015503,A,A*4A
$IIHDG,359,,,15,E*19
$IIMTW,+11.5,C*3D
$RPXDR,H,82.4,P,0*74
$OSMWV,315.0,T,003.6,N,A*25
$OSVWT,45.0,L,3.6,N,1.9,M,6.7,K*70
$OSMWD,328.0,T,313.0,M,3.6,N,1.9,M*5D
$OSVDR,113.0,T,98.0,M,0.0,N*17
$RPSTD,837950*6D
$RPMMB,30.0617,I,1.0179,B*76
$RPMTA,15.0,C*03
$RPXDR,P,1.0179,B,0*7E
$RPMDA,30.058,I,1.018,B,15.0,C,11.5,C,,,,,328.0,T,329.0,M,3.6,N,1.9,M*60
$IIRMC,015503,A,3730.078,N,12228.854,W,,,061216,15,E,A*3E
$IIVHW,,,359,M,00.0,N,,*6B
$IIVLW,08200,N,000.0,N*59
$IIVWR,050,L,03.5,N,,,,*7C
$IIGLL,3730.078,N,12228.855,W,015504,A,A*4C
$IIHDG,359,,,15,E*19
$IIMTW,+11.5,C*3D
$OSMWV,310.0,T,003.5,N,A*23
$OSVWT,50.0,L,3.5,N,1.8,M,6.5,K*74
$OSMWD,323.0,T,308.0,M,3.5,N,1.8,M*5E
$OSVDR,130.0,T,115.0,M,0.0,N*22
$RPSTD,838952*60
$RPXDR,H,82.4,P,0*74
$RPMMB,30.0629,I,1.0179,B*7B
$RPMTA,15.0,C*03
$RPXDR,P,1.0179,B,0*7E
$RPMDA,30.059,I,1.018,B,15.0,C,11.5,C,,,,,323.0,T,324.0,M,3.5,N,1.8,M*65
$IIRMB,A,0.23,R,,HMB-3   ,,,,,001.20,184,,V,A*1F
$IIRMC,015505,A,3730.078,N,12228.855,W,,,061216,15,E,A*39
$IIVHW,,,359,M,00.0,N,,*6B
$IIVLW,08200,N,000.0,N*59
$IIVWR,046,L,03.5,N,,,,*7B
$RPSTD,839956*65
$OSMWV,314.0,T,003.5,N,A*27
$OSVWT,46.0,L,3.5,N,1.8,M,6.5,K*73
$OSMWD,327.0,T,312.0,M,3.5,N,1.8,M*51
$IIGLL,3730.078,N,12228.855,W,015505,A,A*4D
$OSVDR,158.0,T,143.0,M,0.0,N*2F
$IIHDG,359,,,15,E*19
$IIMTW,+11.5,C*3D
$RPMMB,30.0629,I,1.0179,B*7B
$RPMTA,15.0,C*03

$RPXDR,P,1.0179,B,0*7E

$RPMDA,30.059,I,1.018,B,15.0,C,11.5,C,,,,,327.0,T,328.0,M,3.5,N,1.8,M*6D
$RPXDR,H,82.4,P,0*74
$IIRMB,A,0.23,R,,HMB-3   ,,,,,001.20,184,,V,A*1F
$IIRMC,015506,A,3730.078,N,12228.855,W,,,061216,15,E,A*3A
$IIVHW,,,359,M,00.0,N,,*6B
$RPSTD,840960*6E
$IIVLW,08200,N,000.0,N*59
$IIVWR,039,L,02.9,N,,,,*7E
$OSMWV,321.0,T,002.9,N,A*2C
$OSVWT,39.0,L,2.9,N,1.5,M,5.4,K*79
$OSMWD,334.0,T,319.0,M,2.9,N,1.5,M*58
$OSVDR,158.0,T,143.0,M,0.0,N*2F
$IIGLL,3730.078,N,12228.855,W,015506,A,A*4E
$IIHDG,359,,,15,E*19
$IIMTW,+11.5,C*3D
$RPMMB,30.0635,I,1.0180,B*70
$RPMTA,15.0,C*03
$RPXDR,P,1.0180,B,0*78
$RPMDA,30.060,I,1.018,B,15.0,C,11.5,C,,,,,334.0,T,335.0,M,2.9,N,1.5,M*69
$RPXDR,H,82.4,P,0*74
$IIRMC,015507,A,3730.078,N,12228.855,W,,,061216,15,E,A*3B
$IIVHW,,,359,M,00.0,N,,*6B
$RPSTD,841962*6D
$IIVLW,08200,N,000.0,N*59
$OSMWV,326.0,T,002.5,N,A*27
$OSVWT,34.0,L,2.5,N,1.3,M,4.6,K*7D
$OSMWD,339.0,T,324.0,M,2.5,N,1.3,M*51
$IIVWR,034,L,02.5,N,,,,*7F
$OSVDR,142.0,T,127.0,M,0.0,N*26
$IIGLL,3730.078,N,12228.855,W,015507,A,A*4F
$IIHDG,359,,,15,E*19
$IIMTW,+11.5,C*3D
$RPMMB,30.0647,I,1.0180,B*75
$RPMTA,15.0,C*03
$RPXDR,P,1.0180,B,0*78
$RPMDA,30.061,I,1.018,B,15.0,C,11.5,C,,,,,339.0,T,340.0,M,2.5,N,1.3,M*6D
$RPXDR,H,82.3,P,0*73
$IIRMB,A,0.23,R,,HMB-3   ,,,,,001.20,184,,V,A*1F
$RPSTD,842965*69
$IIRMC,015508,A,3730.078,N,12228.855,W,,,061216,15,E,A*34
$IIVHW,,,359,M,00.0,N,,*6B
$IIVLW,08200,N,000.0,N*59
$OSMWV,326.0,T,002.9,N,A*2B
$OSVWT,34.0,L,2.9,N,1.5,M,5.4,K*74
$OSMWD,339.0,T,324.0,M,2.9,N,1.5,M*5B
$OSVDR,142.0,T,127.0,M,0.0,N*26
$IIVWR,034,L,02.9,N,,,,*73
$IIGLL,3730.078,N,12228.855,W,015508,A,A*40
$RPMMB,30.0647,I,1.0180,B*75
$RPMTA,15.1,C*02
$RPXDR,P,1.0180,B,0*78
$RPMDA,30.061,I,1.018,B,15.1,C,11.5,C,,,,,339.0,T,340.0,M,2.9,N,1.5,M*66
$RPXDR,H,82.3,P,0*73
$IIHDG,359,,,15,E*19
$IIMTW,+11.5,C*3D
$IIRMC,015509,A,3730.078,N,12228.855,W,,,061216,15,E,A*35
$RPSTD,843967*6A
$IIVHW,,,359,M,00.0,N,,*6B
$IIVLW,08200,N,000.0,N*59
$OSMWV,321.0,T,002.7,N,A*22
$OSVWT,39.0,L,2.7,N,1.4,M,5.0,K*72
$OSMWD,334.0,T,319.0,M,2.7,N,1.4,M*57
$OSVDR,142.0,T,127.0,M,0.0,N*26
$IIVWR,039,L,02.7,N,,,,*70
$IIGLL,3730.078,N,12228.855,W,015509,A,A*41
$RPMMB,30.0623,I,1.0179,B*71
$RPMTA,15.0,C*03
$RPXDR,P,1.0179,B,0*7E
$RPMDA,30.059,I,1.018,B,15.0,C,11.5,C,,,,,334.0,T,335.0,M,2.7,N,1.4,M*6C
$RPXDR,H,82.3,P,0*73
$IIHDG,359,,,15,E*19
$IIMTW,+11.5,C*3D
$IIRMB,A,0.23,R,,HMB-3   ,,,,,001.20,184,,V,A*1F
$RPSTD,844970*6B
$IIRMC,015510,A,3730.078,N,12228.854,W,,,061216,15,E,A*3C
$OSMWV,316.0,T,003.1,N,A*21
$OSVWT,44.0,L,3.1,N,1.6,M,5.7,K*7A

$OSMWD,329.0,T,314.0,M,3.1,N,1.6,M*53

$OSVDR,158.0,T,143.0,M,0.0,N*2F
$IIVHW,,,359,M,00.0,N,,*6B
$IIVLW,08200,N,000.0,N*59
$IIVWR,044,L,03.1,N,,,,*7D
$RPMMB,30.0641,I,1.0180,B*73
$RPMTA,15.0,C*03

$RPXDR,P,1.0180,B,0*78

$RPMDA,30.061,I,1.018,B,15.0,C,11.5,C,,,,,329.0,T,330.0,M,3.1,N,1.6,M*6B
$RPXDR,H,82.3,P,0*73
$IIGLL,3730.078,N,12228.854,W,015511,A,A*49
$IIHDG,359,,,15,E*19
$IIMTW,+11.5,C*3D
$RPSTD,845973*69
$IIRMC,015511,A,3730.078,N,12228.854,W,,,061216,15,E,A*3D
$OSMWV,320.0,T,002.6,N,A*22
$OSVWT,40.0,L,2.6,N,1.3,M,4.8,K*73
$OSMWD,333.0,T,318.0,M,2.6,N,1.3,M*57
$OSVDR,142.0,T,127.0,M,0.0,N*26
$IIVHW,,,359,M,00.0,N,,*6B
$IIVLW,08200,N,000.0,N*59
$IIVWR,040,L,02.6,N,,,,*7F
$RPMMB,30.0676,I,1.0181,B*76
$RPMTA,15.1,C*02

$RPXDR,P,1.0181,B,0*79

$RPMDA,30.064,I,1.018,B,15.1,C,11.5,C,,,,,333.0,T,334.0,M,2.6,N,1.3,M*63
$IIGLL,3730.078,N,12228.855,W,015512,A,A*4B
$IIHDG,359,,,15,E*19
$IIMTW,+11.5,C*3D
$RPXDR,H,82.3,P,0*73
$IIRMB,A,0.23,R,,HMB-3   ,,,,,001.20,184,,V,A*1F
$RPSTD,846975*6C
$OSMWV,321.0,T,003.0,N,A*24
$OSVWT,39.0,L,3.0,N,1.5,M,5.6,K*73

$OSMWD,334.0,T,319.0,M,3.0,N,1.5,M*50

$OSVDR,142.0,T,127.0,M,0.0,N*26
$IIRMC,015512,A,3730.078,N,12228.855,W,,,061216,15,E,A*3F
$IIVHW,,,359,M,00.0,N,,*6B
$RPMMB,30.0641,I,1.0180,B*73
$RPMTA,15.0,C*03

$RPXDR,P,1.0180,B,0*78

$RPMDA,30.061,I,1.018,B,15.0,C,11.5,C,,,,,334.0,T,335.0,M,3.0,N,1.5,M*60
$IIVLW,08200,N,000.0,N*59
$IIVWR,046,L,03.4,N,,,,*7A
$IIGLL,3730.078,N,12228.855,W,015513,A,A*4A
$IIHDG,359,,,15,E*19
$RPXDR,H,82.3,P,0*73
$IIMTW,+11.5,C*3D
$RPSTD,847978*60
$OSMWV,314.0,T,003.4,N,A*26
$OSVWT,46.0,L,3.4,N,1.7,M,6.3,K*7B
$OSMWD,327.0,T,312.0,M,3.4,N,1.7,M*5F
$IIRMC,015513,A,3730.078,N,12228.855,W,,,061216,15,E,A*3E
$OSVDR,158.0,T,143.0,M,0.0,N*2F
$IIVHW,,,359,M,00.0,N,,*6B
$RPMMB,30.0635,I,1.0180,B*70
$RPMTA,15.1,C*02

$RPXDR,P,1.0180,B,0*78

$RPMDA,30.060,I,1.018,B,15.1,C,11.5,C,,,,,327.0,T,328.0,M,3.4,N,1.7,M*68

$IIVLW,08200,N,000.0,N*59
$IIVWR,043,L,03.5,N,,,,*7E
$IIGLL,3730.078,N,12228.854,W,015514,A,A*4C
$IIHDG,359,,,15,E*19
$IIMTW,+11.5,C*3D
$RPSTD,848980*68
$RPXDR,H,82.3,P,0*73
$IIRMB,A,0.23,R,,HMB-3   ,,,,,001.20,184,,V,A*1F
$OSMWV,317.0,T,003.5,N,A*24
$OSVWT,43.0,L,3.5,N,1.8,M,6.5,K*76
$OSMWD,330.0,T,315.0,M,3.5,N,1.8,M*50
$OSVDR,142.0,T,127.0,M,0.0,N*26
$RPMMB,30.0647,I,1.0180,B*75
$RPMTA,15.1,C*02

$RPXDR,P,1.0180,B,0*78

$RPMDA,30.061,I,1.018,B,15.1,C,11.5,C,,,,,330.0,T,331.0,M,3.5,N,1.8,M*69
$IIRMC,015515,A,3730.078,N,12228.854,W,,,061216,15,E,A*39
$IIVHW,,,359,M,00.0,N,,*6B
$IIVLW,08200,N,000.0,N*59
$IIVWR,041,L,03.5,N,,,,*7C
$IIGLL,3730.078,N,12228.854,W,015515,A,A*4D
$RPSTD,849983*6A
$IIHDG,359,,,15,E*19
$RPXDR,H,82.3,P,0*73
$IIMTW,+11.5,C*3D
$OSMWV,319.0,T,003.5,N,A*2A
$OSVWT,41.0,L,3.5,N,1.8,M,6.5,K*74
$OSMWD,332.0,T,317.0,M,3.5,N,1.8,M*50
$OSVDR,142.0,T,127.0,M,0.0,N*26
$RPMMB,30.0641,I,1.0180,B*73
$RPMTA,15.1,C*02

$RPXDR,P,1.0180,B,0*78

$RPMDA,30.061,I,1.018,B,15.1,C,11.5,C,,,,,332.0,T,333.0,M,3.5,N,1.8,M*69
$IIRMB,A,0.23,R,,HMB-3   ,,,,,001.20,184,,V,A*1F
$IIRMC,015516,A,3730.078,N,12228.855,W,,,061216,15,E,A*3B
$IIVHW,,,358,M,00.0,N,,*6A
$IIVLW,08200,N,000.0,N*59
$IIVWR,037,L,03.5,N,,,,*7D
$RPSTD,850985*64
$IIGLL,3730.078,N,12228.855,W,015516,A,A*4F
$OSMWV,323.0,T,003.5,N,A*23
$OSVWT,37.0,L,3.5,N,1.8,M,6.5,K*75
$OSMWD,335.0,T,320.0,M,3.5,N,1.8,M*53
$IIHDG,358,,,15,E*18
$OSVDR,180.0,T,165.0,M,0.0,N*2E
$IIMTW,+11.5,C*3D
$RPXDR,H,82.3,P,0*73
$RPMMB,30.0664,I,1.0180,B*74
$RPMTA,15.1,C*02

$RPXDR,P,1.0180,B,0*78

$RPMDA,30.063,I,1.018,B,15.1,C,11.5,C,,,,,333.0,T,334.0,M,3.5,N,1.8,M*6D
$IIRMC,015517,A,3730.079,N,12228.855,W,,,061216,15,E,A*3B
$IIVHW,,,359,M,00.0,N,,*6B
$IIVLW,08200,N,000.0,N*59
$RPSTD,851987*67
$IIVWR,039,L,03.5,N,,,,*73
$IIGLL,3730.079,N,12228.855,W,015517,A,A*4F
$IIHDG,359,,,15,E*19
$IIMTW,+11.5,C*3D
$OSMWV,321.0,T,003.5,N,A*21
$OSVWT,39.0,L,3.5,N,1.8,M,6.5,K*7B
$OSMWD,334.0,T,319.0,M,3.5,N,1.8,M*58
$OSVDR,322.0,T,307.0,M,0.0,N*22
$RPXDR,H,82.3,P,0*73
$RPMMB,30.0653,I,1.0180,B*70
$RPMTA,15.1,C*02

$RPXDR,P,1.0180,B,0*78

$RPMDA,30.062,I,1.018,B,15.1,C,11.5,C,,,,,330.0,T,331.0,M,4.0,N,2.1,M*62
$IIRMB,A,0.23,R,,HMB-3   ,,,,,001.20,184,,V,A*1F
$IIRMC,015518,A,3730.079,N,12228.856,W,,,061216,15,E,A*37
$IIVHW,,,359,M,00.0,N,,*6B
$RPSTD,852989*6A
$IIVLW,08200,N,000.0,N*59
$IIVWR,043,L,04.0,N,,,,*7C
$IIGLL,3730.079,N,12228.856,W,015518,A,A*43
$OSMWV,317.0,T,004.0,N,A*26
$OSVWT,43.0,L,4.0,N,2.1,M,7.4,K*7E
$OSMWD,330.0,T,315.0,M,4.0,N,2.1,M*58
$OSVDR,322.0,T,307.0,M,0.0,N*22
$RPXDR,H,82.3,P,0*73
$IIHDG,359,,,15,E*19
$IIMTW,+11.5,C*3D
$RPMMB,30.0647,I,1.0180,B*75
$RPMTA,15.1,C*02
$RPXDR,P,1.0180,B,0*78
$RPMDA,30.061,I,1.018,B,15.1,C,11.5,C,,,,,329.0,T,330.0,M,3.8,N,2.0,M*66
$IIRMC,015519,A,3730.078,N,12228.856,W,,,061216,15,E,A*37
$IIVHW,,,359,M,00.0,N,,*6B
$RPSTD,853991*62
$IIVLW,08200,N,000.0,N*59
$IIVWR,044,L,03.8,N,,,,*74
$IIGLL,3730.078,N,12228.856,W,015519,A,A*43
$OSMWV,316.0,T,003.8,N,A*28
$OSVWT,44.0,L,3.8,N,2.0,M,7.0,K*73
$OSMWD,329.0,T,314.0,M,3.8,N,2.0,M*5F
$OSVDR,302.0,T,287.0,M,0.0,N*29
$RPXDR,H,82.3,P,0*73
$IIHDG,358,,,15,E*18
$IIMTW,+11.5,C*3D
$IIRMB,A,0.23,R,,HMB-3   ,,,,,001.20,184,,V,A*1F
$RPMMB,30.0647,I,1.0180,B*75
$RPMTA,15.1,C*02
$RPXDR,P,1.0180,B,0*78
$RPMDA,30.061,I,1.018,B,15.1,C,11.5,C,,,,,332.0,T,333.0,M,4.0,N,2.1,M*61
$RPSTD,854994*60
$IIRMC,015520,A,3730.078,N,12228.856,W,,,061216,15,E,A*3D
$IIVHW,,,358,M,00.0,N,,*6A
$IIVLW,08200,N,000.0,N*59
$IIVWR,040,L,04.0,N,,,,*7F
$OSMWV,320.0,T,004.0,N,A*22
$OSVWT,40.0,L,4.0,N,2.1,M,7.4,K*7D
$OSMWD,332.0,T,317.0,M,4.0,N,2.1,M*58
$OSVDR,270.0,T,255.0,M,0.0,N*22
$RPXDR,H,82.3,P,0*73
$IIGLL,3730.078,N,12228.856,W,015521,A,A*48
$IIHDG,358,,,15,E*18
$IIMTW,+11.5,C*3D
$RPSTD,855996*63
$RPMMB,30.0653,I,1.0180,B*70

$RPMTA,15.1,C*02

$RPXDR,P,1.0180,B,0*78
$RPMDA,30.062,I,1.018,B,15.1,C,11.5,C,,,,,339.0,T,340.0,M,3.8,N,2.0,M*63
$IIRMC,015521,A,3730.078,N,12228.856,W,,,061216,15,E,A*3C
$IIVHW,,,358,M,00.0,N,,*6A
$IIVLW,08200,N,000.0,N*59
$IIVWR,033,L,03.8,N,,,,*74
$OSMWV,327.0,T,003.8,N,A*2A
$OSVWT,33.0,L,3.8,N,2.0,M,7.0,K*73
$OSMWD,339.0,T,324.0,M,3.8,N,2.0,M*5D
$OSVDR,270.0,T,255.0,M,0.0,N*22
$IIGLL,3730.078,N,12228.855,W,015522,A,A*48
$RPXDR,H,82.3,P,0*73
$IIHDG,359,,,15,E*19
$IIMTW,+11.5,C*3D
$IIRMB,A,0.23,R,,HMB-3   ,,,,,001.20,184,,V,A*1F
$RPSTD,856999*6F
$RPMMB,30.0659,I,1.0180,B*7A
$RPMTA,15.1,C*02
$RPXDR,P,1.0180,B,0*78
$RPMDA,30.062,I,1.018,B,15.1,C,11.5,C,,,,,334.0,T,335.0,M,3.7,N,1.9,M*69
$IIRMC,015522,A,3730.078,N,12228.855,W,,,061216,15,E,A*3C
$IIVHW,,,359,M,00.0,N,,*6B
$OSMWV,321.0,T,003.7,N,A*23
$OSVWT,39.0,L,3.7,N,1.9,M,6.9,K*74
$OSMWD,334.0,T,319.0,M,3.7,N,1.9,M*5B
$OSVDR,270.0,T,255.0,M,0.0,N*22
$IIVLW,08200,N,000.0,N*59

$IIVWR,044,L,03.6,N,,,,*7A
$IIGLL,3730.078,N,12228.855,W,015523,A,A*49
$RPXDR,H,82.3,P,0*73
$IIHDG,358,,,15,E*18
$IIMTW,+11.5,C*3D
