$IIHDM,077,M*3C
$IIVHW,,T,077,M,00.00,N,00.00,K*65
$IIDBT,003.5,f,001.0,M,000.5,F*13
$IIVWR,099,R,01.1,N,00.5,M,002.0,K*50
$IIMTW,014,C*38
$GPGSV,4,3,14,16,06,038,30,23,22,066,39,30,45,185,42,36,34,139,*78
$GPGSV,4,4,14,38,39,206,37,49,42,175,35*73
$GPRMC,094521.00,A,4115.54832,N,00155.52502,E,0.037,,050120,,,D*74
$GPGGA,094521.00,4115.54832,N,00155.52502,E,2,09,1.05,6.6,M,49.5,M,,0000*59
$GPGSA,A,3,02,05,06,07,09,16,23,30,13,,,,1.75,1.05,1.40*08
$GPGSV,4,1,14,02,47,274,44,03,00,120,,04,15,065,32,05,25,306,45*7D
$GPGSV,4,2,14,06,46,209,44,07,68,128,46,09,45,057,41,13,06,251,21*7B
$GPGSV,4,3,14,16,06,038,30,23,22,066,40,30,45,185,40,36,34,139,*74
$GPGSV,4,4,14,38,39,206,37,49,42,175,35*73
$IIHDM,077,M*3C
$IIVHW,,T,077,M,00.00,N,00.00,K*65
$IIDBT,003.5,f,001.0,M,000.5,F*13
$IIVWR,100,R,01.1,N,00.5,M,002.0,K*51
$IIMTW,014,C*38
$IIHDM,077,M*3C
$IIVHW,,T,077,M,00.00,N,00.00,K*65
$IIDBT,003.5,f,001.0,M,000.5,F*13
$IIVWR,097,R,01.1,N,00.5,M,002.0,K*5E
$IIMTW,014,C*38
$GPRMC,094522.00,A,4115.54829,N,00155.52505,E,0.042,,050120,,,D*78
$GPGGA,094522.00,4115.54829,N,00155.52505,E,2,09,1.05,6.4,M,49.5,M,,0000*55
$GPGSA,A,3,02,05,06,07,09,16,23,30,13,,,,1.75,1.05,1.40*08
$GPGSV,4,1,14,02,47,274,43,03,00,120,16,04,15,065,32,05,25,306,44*7C
$GPGSV,4,2,14,06,46,209,43,07,68,128,46,09,45,057,40,13,06,251,21*7D
$GPGSV,4,3,14,16,06,038,29,23,22,066,39,30,45,185,38,36,34,139,*7D
$GPGSV,4,4,14,38,39,206,34,49,42,175,32*77
$GPRMC,094523.00,A,4115.54828,N,00155.52513,E,0.036,,050120,,,D*7C
$GPGGA,094523.00,4115.54828,N,00155.52513,E,2,09,1.05,6.3,M,49.5,M,,0000*55
$IIHDM,077,M*3C
$GPGSA,A,3,02,05,06,07,09,16,23,30,13,,,,1.75,1.05,1.40*08
$IIVHW,,T,077,M,00.00,N,00.00,K*65
$GPGSV,4,1,14,02,47,274,42,03,00,120,,04,15,065,32,05,25,306,44*7A
$IIDBT,003.5,f,001.0,M,000.5,F*13
$GPGSV,4,2,14,06,46,209,42,07,68,128,45,09,45,057,39,13,06,251,21*71
$IIVWR,088,R,01.0,N,00.5,M,002.0,K*51
$GPGSV,4,3,14,16,06,038,28,23,22,066,39,30,45,185,39,36,34,139,*7D
$IIMTW,014,C*38
$GPGSV,4,4,14,38,39,206,33,49,42,175,31*73
$IIHDM,077,M*3C
$IIVHW,,T,077,M,00.00,N,00.00,K*65
$IIDBT,003.5,f,001.0,M,000.5,F*13
$IIVWR,087,R,01.0,N,00.5,M,002.0,K*5E
$IIMTW,014,C*38
$GPRMC,094524.00,A,4115.54829,N,00155.52528,E,0.015,,050120,,,D*73
$GPGGA,094524.00,4115.54829,N,00155.52528,E,2,09,1.05,6.2,M,49.5,M,,0000*5A
$GPGSA,A,3,02,05,06,07,09,16,23,30,13,,,,1.75,1.05,1.40*08
$GPGSV,4,1,14,02,47,274,44,03,00,120,,04,15,065,33,05,25,306,46*7F
$GPGSV,4,2,14,06,46,209,41,07,68,128,45,09,45,057,37,13,06,251,22*7F
$GPGSV,4,3,14,16,06,038,29,23,22,066,41,30,45,185,39,36,34,139,*73
$GPGSV,4,4,14,38,39,206,37,49,42,175,33*75
$GPRMC,094525.00,A,4115.54824,N,00155.52539,E,0.034,,050120,,,D*7C
$GPGGA,094525.00,4115.54824,N,00155.52539,E,2,09,1.05,6.2,M,49.5,M,,0000*56
$GPGSA,A,3,02,05,06,07,09,16,23,30,13,,,,1.75,1.05,1.40*08
$GPGSV,4,1,14,02,47,274,43,03,00,120,,04,15,065,29,05,25,306,44*71
$GPGSV,4,2,14,06,46,209,40,07,68,128,45,09,45,057,38,13,06,251,25*76
$GPGSV,4,3,14,16,06,038,29,23,22,067,40,30,45,185,40,36,34,139,*7D
$IIHDM,077,M*3C
$GPGSV,4,4,14,38,39,206,37,49,42,175,34*72
$IIVHW,,T,077,M,00.00,N,00.00,K*65
$IIDBT,003.5,f,001.0,M,000.5,F*13
$IIVWR,089,R,01.0,N,00.5,M,002.0,K*50
$IIMTW,014,C*38
$IIHDM,077,M*3C
$IIVHW,,T,077,M,00.00,N,00.00,K*65
$IIDBT,003.5,f,001.0,M,000.5,F*13
$IIVWR,085,R,01.0,N,00.5,M,002.0,K*5C
$IIMTW,014,C*38
$IIHDM,077,M*3C
$IIVHW,,T,077,M,00.00,N,00.00,K*65
$IIDBT,003.5,f,001.0,M,000.5,F*13
$IIVWR,081,R,01.0,N,00.5,M,002.0,K*58
$IIMTW,014,C*38
$IIHDM,077,M*3C
$IIVHW,,T,077,M,00.00,N,00.00,K*65
$IIDBT,003.5,f,001.0,M,000.5,F*13
$IIVWR,083,R,01.0,N,00.5,M,002.0,K*5A
$IIMTW,014,C*38
$IIHDM,077,M*3C
$GPRMC,094526.00,A,4115.54824,N,00155.52543,E,0.017,,050120,,,D*73
$IIVHW,,T,077,M,00.00,N,00.00,K*65
$GPGGA,094526.00,4115.54824,N,00155.52543,E,2,09,1.05,6.3,M,49.5,M,,0000*59
$IIDBT,003.5,f,001.0,M,000.5,F*13
$GPGSA,A,3,02,05,06,07,09,16,23,30,13,,,,1.75,1.05,1.40*08
$IIVWR,087,R,01.0,N,00.5,M,001.9,K*54
$GPGSV,4,1,14,02,47,274,44,03,00,120,17,04,15,065,29,05,25,306,45*71
$IIMTW,014,C*38
$GPGSV,4,2,14,06,46,209,40,07,68,128,45,09,45,057,39,13,06,251,25*77
$GPGSV,4,3,14,16,06,038,27,23,22,067,40,30,45,185,39,36,34,139,*7D
$GPGSV,4,4,14,38,39,206,36,49,42,175,36*71
$GPRMC,094527.00,A,4115.54816,N,00155.52536,E,0.052,,050120,,,D*70
$GPGGA,094527.00,4115.54816,N,00155.52536,E,2,09,1.05,6.4,M,49.5,M,,0000*5C
$GPGSA,A,3,02,05,06,07,09,16,23,30,13,,,,1.75,1.05,1.40*08
$GPGSV,4,1,14,02,47,274,43,03,00,120,,04,15,065,29,05,25,306,43*76
$GPGSV,4,2,14,06,46,209,39,07,68,128,45,09,45,057,41,13,06,251,26*75
$GPGSV,4,3,14,16,06,038,25,23,22,067,38,30,45,185,38,36,34,139,*71
$GPGSV,4,4,14,38,39,206,37,49,42,175,35*73
$GPRMC,094528.00,A,4115.54798,N,00155.52535,E,0.047,,050120,,,D*71
$GPGGA,094528.00,4115.54798,N,00155.52535,E,2,09,1.05,6.2,M,49.5,M,,0000*5F
$GPGSA,A,3,02,05,06,07,09,16,23,30,13,,,,1.75,1.05,1.40*08
$GPGSV,4,1,14,02,47,274,44,03,00,120,,04,15,065,29,05,25,306,44*76
$GPGSV,4,2,14,06,46,209,42,07,68,128,46,09,45,057,42,13,06,251,25*7A
$GPGSV,4,3,14,16,06,038,24,23,22,067,39,30,45,185,40,36,34,139,*7E
$GPGSV,4,4,14,38,39,206,36,49,42,175,35*72
$GPRMC,094529.00,A,4115.54787,N,00155.52534,E,0.039,,050120,,,D*76
$GPGGA,094529.00,4115.54787,N,00155.52534,E,2,09,1.05,5.9,M,49.5,M,,0000*59
$GPGSA,A,3,02,05,06,07,09,16,23,30,13,,,,1.75,1.05,1.40*08
$GPGSV,4,1,14,02,47,274,43,03,00,120,,04,15,065,28,05,25,306,43*77
$GPGSV,4,2,14,06,46,209,39,07,68,128,45,09,45,057,41,13,06,251,26*75
$GPGSV,4,3,14,16,06,038,25,23,22,067,39,30,45,185,38,36,34,139,*70
$GPGSV,4,4,14,38,39,206,35,49,42,175,33*77
$GPRMC,094530.00,A,4115.54768,N,00155.52533,E,0.080,,050120,,,D*7A
$IIHDM,077,M*3C
$GPGGA,094530.00,4115.54768,N,00155.52533,E,2,09,1.05,5.3,M,49.5,M,,0000*5D
$IIVHW,,T,077,M,00.00,N,00.00,K*65
$GPGSA,A,3,02,05,06,07,09,16,23,30,13,,,,1.75,1.05,1.40*08
$IIDBT,003.5,f,001.0,M,000.5,F*13
$GPGSV,4,1,14,02,47,274,44,03,00,120,,04,15,065,29,05,25,306,42*70
$IIVWR,091,R,01.0,N,00.5,M,001.9,K*53
$GPGSV,4,2,14,06,46,209,39,07,68,128,46,09,45,057,40,13,06,251,26*77
$IIMTW,014,C*38
$GPGSV,4,3,14,16,06,038,26,23,22,067,39,30,45,185,40,36,34,139,*7C
$GPGSV,4,4,14,38,39,206,33,49,42,175,30*72
$IIHDM,077,M*3C
$IIVHW,,T,077,M,00.00,N,00.00,K*65
$IIDBT,003.5,f,001.0,M,000.5,F*13
$IIVWR,087,R,01.0,N,00.5,M,001.9,K*54
$IIMTW,014,C*38
$GPRMC,094531.00,A,4115.54764,N,00155.52534,E,0.044,,050120,,,D*78
$GPGGA,094531.00,4115.54764,N,00155.52534,E,2,09,1.05,4.9,M,49.5,M,,0000*5C
$GPGSA,A,3,02,05,06,07,09,16,23,30,13,,,,1.75,1.05,1.40*08
$GPGSV,4,1,14,02,47,274,43,03,00,120,,04,15,065,29,05,25,306,42*77
$GPGSV,4,2,14,06,46,209,39,07,68,128,45,09,45,057,41,13,06,251,25*76
$GPGSV,4,3,14,16,06,038,26,23,22,067,40,30,45,185,40,36,34,139,*72
$GPGSV,4,4,14,38,39,206,37,49,42,175,31*77
$IIHDM,077,M*3C
$IIVHW,,T,077,M,00.00,N,00.00,K*65
$IIDBT,003.5,f,001.0,M,000.5,F*13
$IIVWR,083,R,01.0,N,00.5,M,001.9,K*50
$IIMTW,014,C*38
$GPRMC,094532.00,A,4115.54772,N,00155.52536,E,0.052,,050120,,,D*79
$GPGGA,094532.00,4115.54772,N,00155.52536,E,2,09,1.05,4.8,M,49.5,M,,0000*5B
$GPGSA,A,3,02,05,06,07,09,16,23,30,13,,,,1.75,1.05,1.40*08
$GPGSV,4,1,14,02,47,274,44,03,00,120,,04,15,065,31,05,25,306,45*7E
$GPGSV,4,2,14,06,46,209,39,07,68,128,46,09,45,057,39,13,06,251,23*7C
$GPGSV,4,3,14,16,06,038,27,23,22,067,40,30,45,185,40,36,34,139,*73
$GPGSV,4,4,14,38,39,206,36,49,42,175,36*71
$IIHDM,077,M*3C
$IIVHW,,T,077,M,00.00,N,00.00,K*65
$IIDBT,003.5,f,001.0,M,000.5,F*13
$IIVWR,090,R,01.0,N,00.5,M,001.9,K*52
$IIMTW,014,C*38
$GPRMC,094533.00,A,4115.54775,N,00155.52538,E,0.018,,050120,,,D*7F
$GPGGA,094533.00,4115.54775,N,00155.52538,E,2,09,1.05,4.8,M,49.5,M,,0000*53
$GPGSA,A,3,02,05,06,07,09,16,23,30,13,,,,1.75,1.05,1.40*08
$GPGSV,4,1,14,02,47,274,43,03,00,120,,04,15,065,35,05,25,306,44*7C
$GPGSV,4,2,14,06,46,209,39,07,68,128,44,09,45,057,37,13,06,251,22*71
$GPGSV,4,3,14,16,06,038,28,23,22,067,38,30,45,185,39,36,34,139,*7D
$GPGSV,4,4,14,38,39,206,33,49,42,175,35*77
$IIHDM,077,M*3C
$IIVHW,,T,077,M,00.00,N,00.00,K*65
$IIDBT,003.5,f,001.0,M,000.5,F*13
$IIVWR,105,R,00.6,N,00.3,M,001.1,K*56
$IIMTW,014,C*38
$GPRMC,094534.00,A,4115.54776,N,00155.52545,E,0.058,,050120,,,D*75
$GPGGA,094534.00,4115.54776,N,00155.52545,E,2,09,1.05,4.4,M,49.5,M,,0000*51
$GPGSA,A,3,02,05,06,07,09,16,23,30,13,,,,1.75,1.05,1.40*08
$GPGSV,4,1,14,02,47,274,45,03,00,120,,04,15,065,35,05,25,306,46*78
$GPGSV,4,2,14,06,46,209,41,07,68,128,48,09,45,057,39,13,06,251,22*7C
$GPGSV,4,3,14,16,06,038,29,23,22,067,40,30,45,185,39,36,34,139,*73
$GPGSV,4,4,14,38,39,206,34,49,42,175,37*72
$IIHDM,076,M*3D
$IIVHW,,T,076,M,00.00,N,00.00,K*64
$IIDBT,003.5,f,001.0,M,000.5,F*13
$IIVWR,105,R,00.3,N,00.1,M,000.6,K*57
$IIMTW,014,C*38
$IIHDM,076,M*3D
$IIVHW,,T,076,M,00.00,N,00.00,K*64
$IIDBT,003.5,f,001.0,M,000.5,F*13
$IIVWR,101,R,00.1,N,00.0,M,000.3,K*55
$IIMTW,014,C*38
$GPRMC,094535.00,A,4115.54780,N,00155.52547,E,0.016,,050120,,,D*75
$GPGGA,094535.00,4115.54780,N,00155.52547,E,2,09,1.05,4.3,M,49.5,M,,0000*5C
$GPGSA,A,3,02,05,06,07,09,16,23,30,13,,,,1.75,1.05,1.40*08
$GPGSV,4,1,14,02,47,274,42,03,00,120,,04,15,065,33,05,25,306,43*7C
$GPGSV,4,2,14,06,46,209,41,07,68,128,46,09,45,057,38,13,06,251,21*70
$GPGSV,4,3,14,16,06,038,29,23,22,067,39,30,45,185,38,36,34,139,*7C
$GPGSV,4,4,14,38,39,206,34,49,42,175,36*73
$GPRMC,094536.00,A,4115.54776,N,00155.52552,E,0.019,,050120,,,D*74
$GPGGA,094536.00,4115.54776,N,00155.52552,E,2,09,1.05,3.8,M,49.5,M,,0000*5E
$GPGSA,A,3,02,05,06,07,09,16,23,30,13,,,,1.75,1.05,1.40*08
$GPGSV,4,1,14,02,47,274,48,03,00,120,,04,15,065,36,05,25,306,48*78
$GPGSV,4,2,14,06,46,209,46,07,68,128,52,09,45,057,44,13,06,251,21*79
$GPGSV,4,3,14,16,06,038,33,23,22,067,44,30,45,185,44,36,34,139,*76
$GPGSV,4,4,14,38,39,206,39,49,42,175,38*70
$IIHDM,076,M*3D
$IIVHW,,T,076,M,00.00,N,00.00,K*64
$IIDBT,003.5,f,001.0,M,000.5,F*13
$IIVWR,108,R,00.1,N,00.0,M,000.1,K*5E
$IIMTW,014,C*38
$GPRMC,094537.00,A,4115.54760,N,00155.52556,E,0.028,,050120,,,D*74
$GPGGA,094537.00,4115.54760,N,00155.52556,E,2,09,1.05,3.0,M,49.5,M,,0000*54
$GPGSA,A,3,02,05,06,07,09,16,23,30,13,,,,1.75,1.05,1.40*08
$GPGSV,4,1,14,02,47,274,48,03,00,120,,04,15,065,36,05,25,306,48*78
$GPGSV,4,2,14,06,46,209,45,07,68,128,50,09,45,057,42,13,06,251,24*7B
$GPGSV,4,3,14,16,06,038,32,23,22,067,43,30,45,185,44,36,34,139,*70
$GPGSV,4,4,14,38,39,206,39,49,42,175,36*7E
$IIHDM,077,M*3C
$IIVHW,,T,077,M,00.00,N,00.00,K*65
$IIDBT,003.5,f,001.0,M,000.5,F*13
$IIVWR,109,R,00.0,N,00.0,M,000.1,K*5E
$IIMTW,014,C*38
$GPRMC,094538.00,A,4115.54747,N,00155.52551,E,0.048,,050120,,,D*7F
$GPGGA,094538.00,4115.54747,N,00155.52551,E,2,09,1.05,2.3,M,49.5,M,,0000*5B
$GPGSA,A,3,02,05,06,07,09,16,23,30,13,,,,1.75,1.05,1.40*08
$GPGSV,4,1,14,02,47,274,48,03,00,120,,04,15,065,33,05,25,306,48*7D
$GPGSV,4,2,14,06,46,209,46,07,68,128,51,09,45,057,45,13,06,251,23*79
$GPGSV,4,3,14,16,06,038,33,23,22,067,43,30,45,185,45,36,34,139,*70
$GPGSV,4,4,14,38,39,206,38,49,42,175,34*7D
$IIHDM,077,M*3C
$IIVHW,,T,077,M,00.00,N,00.00,K*65
$IIDBT,003.5,f,001.0,M,000.5,F*13
$IIVWR,097,R,00.0,N,00.0,M,000.0,K*59
$IIMTW,014,C*38
$IIHDM,077,M*3C
$IIVHW,,T,077,M,00.00,N,00.00,K*65
$IIDBT,003.5,f,001.0,M,000.5,F*13
$IIVWR,091,R,00.0,N,00.0,M,000.0,K*5F
$IIMTW,014,C*38
$GPRMC,094539.00,A,4115.54741,N,00155.52543,E,0.054,,050120,,,D*76
$GPGGA,094539.00,4115.54741,N,00155.52543,E,2,09,1.05,1.9,M,49.5,M,,0000*56
$GPGSA,A,3,02,05,06,07,09,16,23,30,13,,,,1.75,1.05,1.40*08
$GPGSV,4,1,14,02,47,274,45,03,00,120,,04,15,065,32,05,25,306,45*7C
$GPGSV,4,2,14,06,46,209,46,07,68,128,51,09,45,057,45,13,06,251,22*78
$GPGSV,4,3,14,16,06,038,31,23,22,067,42,30,45,185,42,36,34,139,*74
$GPGSV,4,4,14,38,39,206,38,49,42,175,33*7A
$GPRMC,094540.00,A,4115.54735,N,00155.52540,E,0.043,,050120,,,D*7E
$GPGGA,094540.00,4115.54735,N,00155.52540,E,2,09,1.05,1.5,M,49.5,M,,0000*54
$GPGSA,A,3,02,05,06,07,09,16,23,30,13,,,,1.75,1.05,1.40*08
$GPGSV,4,1,14,02,47,274,45,03,00,120,,04,15,065,36,05,25,306,45*78
$GPGSV,4,2,14,06,46,209,47,07,68,128,52,09,45,057,47,13,06,251,24*7E
$GPGSV,4,3,14,16,06,038,30,23,22,067,42,30,45,185,44,36,34,139,*73
$GPGSV,4,4,14,38,39,206,39,49,42,175,38*70
$IIHDM,077,M*3C
$IIVHW,,T,077,M,00.00,N,00.00,K*65
$IIDBT,003.5,f,001.0,M,000.5,F*13
$IIVWR,089,R,00.0,N,00.0,M,000.0,K*56
$IIMTW,014,C*38
$GPRMC,094541.00,A,4115.54732,N,00155.52537,E,0.010,,050120,,,D*7E
$GPGGA,094541.00,4115.54732,N,00155.52537,E,2,09,1.05,1.3,M,49.5,M,,0000*54
$GPGSA,A,3,02,05,06,07,09,16,23,30,13,,,,1.75,1.05,1.40*08
$GPGSV,4,1,14,02,47,274,46,03,00,120,,04,15,065,36,05,25,306,46*78
$GPGSV,4,2,14,06,46,209,45,07,68,128,52,09,45,057,46,13,06,251,28*71
$GPGSV,4,3,14,16,06,038,29,23,22,067,43,30,45,185,43,36,34,139,*7D
$GPGSV,4,4,14,38,39,206,39,49,42,175,37*7F
$IIHDM,076,M*3D
$IIVHW,,T,076,M,00.00,N,00.00,K*64
$IIDBT,003.5,f,001.0,M,000.5,F*13
$IIVWR,095,R,00.0,N,00.0,M,000.0,K*5B
$IIMTW,014,C*38
$GPRMC,094542.00,A,4115.54720,N,00155.52536,E,0.021,,050120,,,D*7D
$GPGGA,094542.00,4115.54720,N,00155.52536,E,2,09,1.05,1.0,M,49.5,M,,0000*56
$GPGSA,A,3,02,05,06,07,09,16,23,30,13,,,,1.75,1.05,1.40*08
$GPGSV,4,1,14,02,47,274,46,03,00,120,,04,15,065,34,05,25,306,47*7B
$GPGSV,4,2,14,06,46,209,44,07,68,128,51,09,45,057,45,13,06,251,28*70
$GPGSV,4,3,14,16,06,038,28,23,22,067,43,30,45,185,42,36,34,139,*7D
$GPGSV,4,4,14,38,39,206,38,49,42,175,35*7C
$IIHDM,077,M*3C
$IIVHW,,T,077,M,00.00,N,00.00,K*65
$IIDBT,003.5,f,001.0,M,000.5,F*13
$IIVWR,101,R,00.0,N,00.0,M,000.0,K*57
$IIMTW,014,C*38
$IIHDM,077,M*3C
$IIVHW,,T,077,M,00.00,N,00.00,K*65
$IIDBT,003.5,f,001.0,M,000.5,F*13
$IIVWR,097,R,00.0,N,00.0,M,000.0,K*59
$IIMTW,014,C*38
$IIHDM,077,M*3C
$IIVHW,,T,077,M,00.00,N,00.00,K*65
$IIDBT,003.5,f,001.0,M,000.5,F*13
$IIVWR,087,R,00.0,N,00.0,M,000.0,K*58
$IIMTW,014,C*38
$IIHDM,077,M*3C
$IIVHW,,T,077,M,00.00,N,00.00,K*65
$IIDBT,003.5,f,001.0,M,000.5,F*13
$IIVWR,081,R,00.0,N,00.0,M,000.0,K*5E
$IIMTW,014,C*38
$IIHDM,077,M*3C
$IIVHW,,T,077,M,00.00,N,00.00,K*65
$IIDBT,003.5,f,001.0,M,000.5,F*13
$IIVWR,083,R,00.0,N,00.0,M,000.0,K*5C
$IIMTW,014,C*38
$GPRMC,094543.00,A,4115.54716,N,00155.52537,E,0.029,,050120,,,D*70
$GPGGA,094543.00,4115.54716,N,00155.52537,E,2,09,1.05,0.8,M,49.5,M,,0000*5A
$GPGSA,A,3,02,05,06,07,09,16,23,30,13,,,,1.75,1.05,1.40*08
$GPGSV,4,1,14,02,47,274,47,03,00,120,,04,15,065,35,05,25,306,48*74
$GPGSV,4,2,14,06,46,209,43,07,68,128,51,09,45,057,45,13,06,251,27*78
$GPGSV,4,3,14,16,06,038,28,23,22,067,44,30,45,185,44,36,34,139,*7C
$GPGSV,4,4,14,38,39,206,39,49,42,175,35*7D
$GPRMC,094544.00,A,4115.54718,N,00155.52538,E,0.038,,050120,,,D*76
$GPGGA,094544.00,4115.54718,N,00155.52538,E,2,09,1.05,0.7,M,49.5,M,,0000*53
$GPGSA,A,3,02,05,06,07,09,16,23,30,13,,,,1.75,1.05,1.40*08
$GPGSV,4,1,14,02,47,273,47,03,00,120,,04,15,065,36,05,25,306,47*7F
$GPGSV,4,2,14,06,46,209,43,07,68,128,51,09,45,057,47,13,06,251,27*7A
$GPGSV,4,3,14,16,06,038,30,23,22,067,43,30,45,185,45,36,34,139,*73
$GPGSV,4,4,14,38,39,206,39,49,42,175,36*7E
$GPRMC,094545.00,A,4115.54729,N,00155.52542,E,0.038,,050120,,,D*78
$GPGGA,094545.00,4115.54729,N,00155.52542,E,2,09,1.05,0.7,M,49.5,M,,0000*5D
$GPGSA,A,3,02,05,06,07,09,16,23,30,13,,,,1.75,1.05,1.40*08
$GPGSV,4,1,14,02,47,273,46,03,00,120,,04,15,065,36,05,25,306,45*7C
$GPGSV,4,2,14,06,46,209,43,07,68,128,51,09,45,057,47,13,06,251,26*7B
$GPGSV,4,3,14,16,06,038,30,23,22,067,42,30,45,185,45,36,34,139,*72
$GPGSV,4,4,14,38,39,206,39,49,42,175,38*70
$GPRMC,094546.00,A,4115.54737,N,00155.52541,E,0.072,,050120,,,D*79
$GPGGA,094546.00,4115.54737,N,00155.52541,E,2,09,1.05,0.9,M,49.5,M,,0000*5C
$GPGSA,A,3,02,05,06,07,09,16,23,30,13,,,,1.75,1.05,1.40*08
$GPGSV,4,1,14,02,47,273,45,03,00,120,,04,14,066,35,05,25,306,46*7D
$GPGSV,4,2,14,06,46,209,43,07,68,128,50,09,45,057,46,13,06,251,27*7A
$GPGSV,4,3,14,16,06,038,30,23,22,067,43,30,45,185,44,36,34,139,*72
$GPGSV,4,4,14,38,39,206,38,49,42,175,38*71
$GPRMC,094547.00,A,4115.54730,N,00155.52537,E,0.028,,050120,,,D*71
$GPGGA,094547.00,4115.54730,N,00155.52537,E,2,09,1.05,0.9,M,49.5,M,,0000*5B
$GPGSA,A,3,02,05,06,07,09,16,23,30,13,,,,1.75,1.05,1.40*08
$GPGSV,4,1,14,02,47,273,46,03,00,120,,04,14,066,35,05,26,306,47*7C
$GPGSV,4,2,14,06,46,209,43,07,68,128,50,09,45,057,43,13,06,251,26*7E
$GPGSV,4,3,14,16,06,038,31,23,22,067,44,30,45,185,43,36,34,139,*73
$GPGSV,4,4,14,38,39,206,36,49,42,175,37*70
$IIHDM,077,M*3C
$IIVHW,,T,077,M,00.00,N,00.00,K*65
$IIDBT,003.5,f,001.0,M,000.5,F*13
$IIVWR,088,R,00.0,N,00.0,M,000.0,K*57
$IIMTW,014,C*38
$GPRMC,094548.00,A,4115.54729,N,00155.52531,E,0.025,,050120,,,D*7D
$GPGGA,094548.00,4115.54729,N,00155.52531,E,2,09,1.05,1.1,M,49.5,M,,0000*53
$GPGSA,A,3,02,05,06,07,09,16,23,30,13,,,,1.75,1.05,1.40*08
$GPGSV,4,1,14,02,47,273,45,03,00,120,,04,14,066,36,05,26,306,47*7C
$GPGSV,4,2,14,06,46,209,43,07,68,128,49,09,45,057,44,13,06,251,27*70
$GPGSV,4,3,14,16,06,038,30,23,22,067,43,30,45,185,42,36,34,139,*74
$GPGSV,4,4,14,38,39,206,36,49,42,175,37*70
$IIHDM,077,M*3C
$IIVHW,,T,077,M,00.00,N,00.00,K*65
$IIDBT,003.5,f,001.0,M,000.5,F*13
$IIVWR,086,R,00.0,N,00.0,M,000.0,K*59
$IIMTW,014,C*38
$GPRMC,094549.00,A,4115.54729,N,00155.52530,E,0.042,,050120,,,D*7C
$GPGGA,094549.00,4115.54729,N,00155.52530,E,2,09,1.05,1.4,M,49.5,M,,0000*56
$GPGSA,A,3,02,05,06,07,09,16,23,30,13,,,,1.75,1.05,1.40*08
$GPGSV,4,1,14,02,47,273,43,03,00,120,,04,14,066,35,05,26,306,43*7D
$GPGSV,4,2,14,06,46,209,40,07,68,127,47,09,45,057,44,13,06,251,26*73
$GPGSV,4,3,14,16,06,038,29,23,22,067,38,30,45,185,41,36,34,139,*73
$GPGSV,4,4,14,38,39,206,34,49,42,175,35*70
$IIHDM,077,M*3C
$IIVHW,,T,077,M,00.00,N,00.00,K*65
$IIDBT,003.5,f,001.0,M,000.5,F*13
$IIVWR,075,R,00.0,N,00.0,M,000.0,K*55
$IIMTW,014,C*38
$GPRMC,094550.00,A,4115.54741,N,00155.52523,E,0.080,,050120,,,D*76
$GPGGA,094550.00,4115.54741,N,00155.52523,E,2,09,1.05,1.9,M,49.5,M,,0000*5F
$GPGSA,A,3,02,05,06,07,09,16,23,30,13,,,,1.75,1.05,1.40*08
$GPGSV,4,1,14,02,47,273,42,03,00,120,,04,14,066,35,05,26,306,43*7C
$GPGSV,4,2,14,06,46,209,41,07,68,127,48,09,45,057,46,13,06,251,24*7D
$GPGSV,4,3,14,16,06,038,27,23,22,067,40,30,45,185,42,36,34,139,*71
$GPGSV,4,4,14,38,39,206,37,49,42,175,38*7E
$IIHDM,077,M*3C
$IIVHW,,T,077,M,00.00,N,00.00,K*65
$IIDBT,003.5,f,001.0,M,000.5,F*13
$IIVWR,071,R,00.0,N,00.0,M,000.0,K*51
$IIMTW,014,C*38
$GPRMC,094551.00,A,4115.54747,N,00155.52520,E,0.119,,050120,,,D*73
$GPGGA,094551.00,4115.54747,N,00155.52520,E,2,09,1.05,2.2,M,49.5,M,,0000*53
$GPGSA,A,3,02,05,06,07,09,16,23,30,13,,,,1.75,1.05,1.40*08
$GPGSV,4,1,14,02,47,273,39,03,00,120,,04,14,066,32,05,26,306,41*75
$GPGSV,4,2,14,06,46,209,38,07,68,127,45,09,45,057,42,13,06,251,22*7C
$GPGSV,4,3,14,16,06,038,25,23,22,067,36,30,45,185,40,36,34,139,*70
$GPGSV,4,4,14,38,39,206,34,49,42,175,35*70
$IIHDM,077,M*3C
$IIVHW,,T,077,M,00.00,N,00.00,K*65
$IIDBT,003.5,f,001.0,M,000.5,F*13
$IIVWR,075,R,00.0,N,00.0,M,000.0,K*55
$IIMTW,014,C*38
$GPRMC,094552.00,A,4115.54757,N,00155.52512,E,0.091,,050120,,,D*71
$GPGGA,094552.00,4115.54757,N,00155.52512,E,2,09,1.05,2.6,M,49.5,M,,0000*54
$GPGSA,A,3,02,05,06,07,09,16,23,30,13,,,,1.75,1.05,1.40*08
$GPGSV,4,1,14,02,47,273,41,03,00,120,,04,14,066,32,05,26,306,43*78
$GPGSV,4,2,14,06,46,209,40,07,68,127,46,09,45,057,42,13,06,251,20*72
$GPGSV,4,3,14,16,06,038,23,23,22,067,37,30,45,185,40,36,34,139,*77
$GPGSV,4,4,14,38,39,206,33,49,42,175,34*76
$IIHDM,077,M*3C
$IIVHW,,T,077,M,00.00,N,00.00,K*65
$IIDBT,003.5,f,001.0,M,000.5,F*13
$IIVWR,086,R,00.0,N,00.0,M,000.0,K*59
$IIMTW,014,C*38
$IIHDM,077,M*3C
$IIVHW,,T,077,M,00.00,N,00.00,K*65
$IIDBT,003.5,f,001.0,M,000.5,F*13
$IIVWR,094,R,00.0,N,00.0,M,000.0,K*5A
$IIMTW,014,C*38
$GPRMC,094553.00,A,4115.54763,N,00155.52508,E,0.051,,050120,,,D*70
$GPGGA,094553.00,4115.54763,N,00155.52508,E,2,09,1.05,2.8,M,49.5,M,,0000*57
$GPGSA,A,3,02,05,06,07,09,16,23,30,13,,,,1.75,1.05,1.40*08
$GPGSV,4,1,14,02,47,273,42,03,00,120,,04,14,066,34,05,26,306,46*78
$GPGSV,4,2,14,06,46,209,42,07,68,127,48,09,45,057,44,13,06,251,21*79
$GPGSV,4,3,14,16,06,038,23,23,22,067,39,30,45,185,43,36,34,139,*7A
$GPGSV,4,4,14,38,39,206,34,49,42,175,37*72
$GPRMC,094554.00,A,4115.54765,N,00155.52507,E,0.032,,050120,,,D*7B
$GPGGA,094554.00,4115.54765,N,00155.52507,E,2,09,1.05,2.8,M,49.5,M,,0000*59
$GPGSA,A,3,02,05,06,07,09,16,23,30,13,,,,1.75,1.05,1.40*08
$GPGSV,4,1,14,02,47,273,39,03,00,120,,04,14,066,30,05,26,306,43*75
$GPGSV,4,2,14,06,46,209,40,07,68,127,47,09,45,057,42,13,06,251,21*72
$GPGSV,4,3,14,16,06,038,22,23,22,067,39,30,45,185,41,36,34,139,*79
$GPGSV,4,4,14,38,39,206,32,49,42,175,34*77
$IIHDM,077,M*3C
$IIVHW,,T,077,M,00.00,N,00.00,K*65
$IIDBT,003.5,f,001.0,M,000.5,F*13
$IIVWR,086,R,00.0,N,00.0,M,000.0,K*59
$IIMTW,014,C*38
$GPRMC,094555.00,A,4115.54771,N,00155.52504,E,0.042,,050120,,,D*7B
$GPGGA,094555.00,4115.54771,N,00155.52504,E,2,09,1.05,2.8,M,49.5,M,,0000*5E
$GPGSA,A,3,02,05,06,07,09,16,23,30,13,,,,1.75,1.05,1.40*08
$GPGSV,4,1,14,02,47,273,41,03,00,120,,04,14,066,33,05,26,306,43*79
$GPGSV,4,2,14,06,46,209,43,07,68,127,50,09,45,057,43,13,06,251,22*75
$GPGSV,4,3,14,16,06,038,21,23,22,067,39,30,45,185,44,36,34,139,*7F
$GPGSV,4,4,14,38,39,206,38,49,42,175,34*7D
$IIHDM,077,M*3C
$IIVHW,,T,077,M,00.00,N,00.00,K*65
$IIDBT,003.5,f,001.0,M,000.5,F*13
$IIVWR,080,R,00.0,N,00.0,M,000.0,K*5F
$IIMTW,014,C*38
$GPRMC,094556.00,A,4115.54782,N,00155.52504,E,0.074,,050120,,,D*71
$GPGGA,094556.00,4115.54782,N,00155.52504,E,2,08,1.10,3.1,M,49.5,M,,0000*5C
$GPGSA,A,3,02,05,06,07,09,23,30,13,,,,,1.94,1.10,1.61*07
$GPGSV,4,1,14,02,47,273,44,03,00,120,,04,14,066,34,05,26,306,46*7E
$GPGSV,4,2,14,06,46,209,45,07,68,127,51,09,45,057,45,13,06,251,26*70
$GPGSV,4,3,14,16,06,038,25,23,22,067,41,30,45,185,46,36,34,139,*76
$GPGSV,4,4,14,38,39,206,37,49,42,175,34*72
$IIHDM,077,M*3C
$IIVHW,,T,077,M,00.00,N,00.00,K*65
$IIDBT,003.5,f,001.0,M,000.5,F*13
$IIVWR,083,R,00.0,N,00.0,M,000.0,K*5C
$IIMTW,014,C*38
$GPRMC,094557.00,A,4115.54787,N,00155.52502,E,0.068,,050120,,,D*7E
$GPGGA,094557.00,4115.54787,N,00155.52502,E,2,08,1.10,3.1,M,49.5,M,,0000*5E
$GPGSA,A,3,02,05,06,07,09,23,30,13,,,,,1.94,1.10,1.61*07
$GPGSV,4,1,14,02,47,273,45,03,00,120,,04,14,066,34,05,26,306,46*7F
$GPGSV,4,2,14,06,46,209,44,07,68,127,50,09,45,057,43,13,06,251,26*76
$GPGSV,4,3,14,16,06,038,27,23,22,067,43,30,45,185,45,36,34,139,*75
$GPGSV,4,4,14,38,39,206,37,49,42,175,31*77
$IIHDM,077,M*3C
$IIVHW,,T,077,M,00.00,N,00.00,K*65
$IIDBT,003.5,f,001.0,M,000.5,F*13
$IIVWR,092,R,00.0,N,00.0,M,000.0,K*5C
$IIMTW,014,C*38
$IIHDM,077,M*3C
$IIVHW,,T,077,M,00.00,N,00.00,K*65
$IIDBT,003.5,f,001.0,M,000.5,F*13
$IIVWR,095,R,00.0,N,00.0,M,000.0,K*5B
$IIMTW,014,C*38
$IIHDM,077,M*3C
$IIVHW,,T,077,M,00.00,N,00.00,K*65
$IIDBT,003.5,f,001.0,M,000.5,F*13
$IIVWR,089,R,00.0,N,00.0,M,000.0,K*56
$IIMTW,014,C*38
$IIHDM,077,M*3C
$IIVHW,,T,077,M,00.00,N,00.00,K*65
$IIDBT,003.5,f,001.0,M,000.5,F*13
$IIVWR,084,R,00.0,N,00.0,M,000.0,K*5B
$IIMTW,014,C*38
$GPRMC,094558.00,A,4115.54784,N,00155.52502,E,0.022,,050120,,,D*7C
$GPGGA,094558.00,4115.54784,N,00155.52502,E,2,09,1.06,3.0,M,49.5,M,,0000*55
$GPGSA,A,3,02,05,06,07,09,16,23,30,13,,,,1.75,1.06,1.40*0B
$GPGSV,4,1,14,02,47,273,41,03,00,120,,04,14,066,30,05,26,306,42*7B
$GPGSV,4,2,14,06,46,209,39,07,68,127,45,09,45,057,39,13,06,251,25*76
$GPGSV,4,3,14,16,06,038,26,23,22,067,37,30,45,185,40,36,34,139,*72
$GPGSV,4,4,14,38,39,206,35,49,42,175,30*74
$GPRMC,094559.00,A,4115.54789,N,00155.52497,E,0.028,,050120,,,D*77
$GPGGA,094559.00,4115.54789,N,00155.52497,E,2,09,1.06,3.3,M,49.5,M,,0000*57
$GPGSA,A,3,02,05,06,07,09,16,23,30,13,,,,1.75,1.06,1.40*0B
$GPGSV,4,1,14,02,47,273,43,03,00,120,,04,14,066,31,05,26,306,43*79
$GPGSV,4,2,14,06,46,209,43,07,68,127,48,09,45,057,42,13,06,251,25*7A
$GPGSV,4,3,14,16,06,038,26,23,22,067,40,30,45,185,43,36,34,139,*71
$GPGSV,4,4,14,38,39,206,36,49,42,175,35*72
$GPRMC,094600.00,A,4115.54791,N,00155.52494,E,0.042,,050120,,,D*7E
$GPGGA,094600.00,4115.54791,N,00155.52494,E,2,09,1.06,3.3,M,49.5,M,,0000*52
$GPGSA,A,3,02,05,06,07,09,16,23,30,13,,,,1.75,1.06,1.40*0B
$GPGSV,4,1,14,02,47,273,43,03,00,120,,04,14,066,35,05,26,306,43*7D
$GPGSV,4,2,14,06,46,209,43,07,68,127,51,09,45,057,44,13,06,251,27*76
$GPGSV,4,3,14,16,06,038,26,23,22,067,40,30,45,185,41,36,34,139,*73
$GPGSV,4,4,14,38,39,206,36,49,42,175,41*71
$GPRMC,094601.00,A,4115.54798,N,00155.52492,E,0.041,,050120,,,D*73
$GPGGA,094601.00,4115.54798,N,00155.52492,E,2,09,1.06,3.2,M,49.5,M,,0000*5D
$GPGSA,A,3,02,05,06,07,09,16,23,30,13,,,,1.75,1.06,1.40*0B
$GPGSV,4,1,14,02,47,273,43,03,00,120,,04,14,066,37,05,26,306,41*7D
$GPGSV,4,2,14,06,46,209,42,07,68,127,50,09,45,057,44,13,06,251,28*79
$GPGSV,4,3,14,16,06,038,25,23,22,067,39,30,45,185,42,36,34,139,*7D
$GPGSV,4,4,14,38,39,206,35,49,42,175,42*71
$IIHDM,077,M*3C
$IIVHW,,T,077,M,00.00,N,00.00,K*65
$IIDBT,003.5,f,001.0,M,000.5,F*13
$IIVWR,085,R,00.0,N,00.0,M,000.0,K*5A
$IIMTW,014,C*38
$IIHDM,076,M*3D
$IIVHW,,T,076,M,00.00,N,00.00,K*64
$IIDBT,003.5,f,001.0,M,000.5,F*13
$IIVWR,091,R,00.0,N,00.0,M,000.0,K*5F
$IIMTW,014,C*38
$IIHDM,076,M*3D
$IIVHW,,T,076,M,00.00,N,00.00,K*64
$IIDBT,003.5,f,001.0,M,000.5,F*13
$IIVWR,101,R,00.0,N,00.0,M,000.0,K*57
$IIMTW,014,C*38
$IIHDM,076,M*3D
$IIVHW,,T,076,M,00.00,N,00.00,K*64
$IIDBT,003.5,f,001.0,M,000.5,F*13
$IIVWR,111,R,00.0,N,00.0,M,000.0,K*56
$IIMTW,014,C*38
$GPRMC,094602.00,A,4115.54810,N,00155.52491,E,0.069,,050120,,,D*76
$GPGGA,094602.00,4115.54810,N,00155.52491,E,2,09,1.06,3.3,M,49.5,M,,0000*53
$GPGSA,A,3,02,05,06,07,09,16,23,30,13,,,,1.75,1.06,1.40*0B
$GPGSV,4,1,14,02,47,273,43,03,00,120,23,04,14,066,37,05,26,306,44*79
$GPGSV,4,2,14,06,46,209,42,07,68,127,50,09,45,057,44,13,06,251,28*79
$GPGSV,4,3,14,16,06,038,26,23,22,067,41,30,45,185,43,36,34,139,*70
$GPGSV,4,4,14,38,39,206,36,49,42,175,43*73
$GPRMC,094603.00,A,4115.54821,N,00155.52492,E,0.095,,050120,,,D*75
$GPGGA,094603.00,4115.54821,N,00155.52492,E,2,09,1.06,3.5,M,49.5,M,,0000*55
$GPGSA,A,3,02,05,06,07,09,16,23,30,13,,,,1.75,1.06,1.40*0B
$GPGSV,4,1,14,02,47,273,43,03,00,120,26,04,14,066,37,05,26,306,45*7D
$GPGSV,4,2,14,06,46,209,40,07,68,127,48,09,45,057,40,13,06,251,27*79
$GPGSV,4,3,14,16,06,038,27,23,22,067,42,30,45,185,41,36,34,139,*70
$GPGSV,4,4,14,38,39,206,36,49,42,175,41*71
$GPRMC,094604.00,A,4115.54829,N,00155.52493,E,0.042,,050120,,,D*71
$GPGGA,094604.00,4115.54829,N,00155.52493,E,2,09,1.06,3.7,M,49.5,M,,0000*59
$GPGSA,A,3,02,05,06,07,09,16,23,30,13,,,,1.75,1.06,1.40*0B
$GPGSV,4,1,14,02,47,273,45,03,00,120,27,04,14,066,37,05,26,306,45*7A
$GPGSV,4,2,14,06,46,209,40,07,68,127,49,09,45,057,37,13,06,251,26*79
$GPGSV,4,3,14,16,06,038,27,23,21,067,42,30,45,185,41,36,34,139,*73
$GPGSV,4,4,14,38,39,206,40,49,42,175,40*71
$GPRMC,094605.00,A,4115.54833,N,00155.52493,E,0.054,,050120,,,D*7C
$GPGGA,094605.00,4115.54833,N,00155.52493,E,2,09,1.06,3.8,M,49.5,M,,0000*5C
$GPGSA,A,3,02,05,06,07,09,16,23,30,13,,,,1.75,1.06,1.40*0B
$GPGSV,4,1,14,02,47,273,45,03,00,120,25,04,14,066,37,05,26,306,43*7E
$GPGSV,4,2,14,06,46,209,41,07,68,127,49,09,45,057,38,13,06,251,26*77
$GPGSV,4,3,14,16,06,038,27,23,21,067,42,30,45,185,41,36,34,139,*73
$GPGSV,4,4,14,38,39,206,40,49,42,175,40*71
$IIHDM,076,M*3D
$IIVHW,,T,076,M,00.00,N,00.00,K*64
$IIDBT,003.5,f,001.0,M,000.5,F*13
$IIVWR,115,R,00.0,N,00.0,M,000.0,K*52
$IIMTW,014,C*38
$IIHDM,076,M*3D
$IIVHW,,T,076,M,00.00,N,00.00,K*64
$IIDBT,003.5,f,001.0,M,000.5,F*13
$IIVWR,118,R,00.0,N,00.0,M,000.0,K*5F
$IIMTW,014,C*38
$GPRMC,094606.00,A,4115.54838,N,00155.52497,E,0.051,,050120,,,D*75
$GPGGA,094606.00,4115.54838,N,00155.52497,E,2,09,1.06,3.8,M,49.5,M,,0000*50
$GPGSA,A,3,02,05,06,07,09,16,23,30,13,,,,1.75,1.06,1.40*0B
$GPGSV,4,1,14,02,47,273,46,03,00,120,22,04,14,066,34,05,26,306,45*7F
$GPGSV,4,2,14,06,46,209,44,07,68,127,49,09,45,057,38,13,06,251,27*73
$GPGSV,4,3,14,16,06,038,26,23,21,067,41,30,45,185,42,36,34,139,*72
$GPGSV,4,4,14,38,39,206,38,49,42,175,38*71
$GPRMC,094607.00,A,4115.54847,N,00155.52506,E,0.060,,050120,,,D*77
$GPGGA,094607.00,4115.54847,N,00155.52506,E,2,08,1.10,3.7,M,49.5,M,,0000*59
$GPGSA,A,3,02,05,06,07,09,23,30,13,,,,,1.95,1.10,1.61*06
$GPGSV,4,1,14,02,47,273,47,03,00,120,,04,14,066,33,05,26,306,48*74
$GPGSV,4,2,14,06,46,209,46,07,68,127,50,09,45,057,39,13,06,251,27*78
$GPGSV,4,3,14,16,06,038,,23,21,067,43,30,45,185,43,36,34,139,*75
$GPGSV,4,4,14,38,39,206,40,49,42,175,35*73
$IIHDM,076,M*3D
$IIVHW,,T,076,M,00.00,N,00.00,K*64
$IIDBT,003.5,f,001.0,M,000.5,F*13
$IIVWR,115,R,00.0,N,00.0,M,000.0,K*52
$IIMTW,014,C*38
$GPRMC,094608.00,A,4115.54853,N,00155.52518,E,0.032,,050120,,,D*75
$GPGGA,094608.00,4115.54853,N,00155.52518,E,2,08,1.10,3.5,M,49.5,M,,0000*5E
$GPGSA,A,3,02,05,06,07,09,23,30,13,,,,,1.95,1.10,1.61*06
$GPGSV,4,1,14,02,47,273,46,03,00,120,,04,14,066,32,05,26,306,47*7B
$GPGSV,4,2,14,06,46,209,43,07,68,127,49,09,45,057,42,13,06,251,27*79
$GPGSV,4,3,14,16,06,038,,23,21,067,42,30,45,185,41,36,34,139,*76
$GPGSV,4,4,14,38,39,206,37,49,42,175,32*74
$IIHDM,077,M*3C
$IIVHW,,T,077,M,00.00,N,00.00,K*65
$IIDBT,003.5,f,001.0,M,000.5,F*13
$IIVWR,101,R,00.0,N,00.0,M,000.0,K*57
$IIMTW,014,C*38
$GPRMC,094609.00,A,4115.54853,N,00155.52525,E,0.035,,050120,,,D*7D
$GPGGA,094609.00,4115.54853,N,00155.52525,E,2,08,1.10,3.2,M,49.5,M,,0000*56
$GPGSA,A,3,02,05,06,07,09,23,30,13,,,,,1.95,1.10,1.61*06
$GPGSV,4,1,14,02,47,273,47,03,00,120,,04,14,066,36,05,26,306,47*7E
$GPGSV,4,2,14,06,46,209,44,07,68,127,51,09,45,057,42,13,06,251,26*76
$GPGSV,4,3,14,16,06,038,,23,21,067,41,30,45,185,44,36,34,139,*70
$GPGSV,4,4,14,38,39,206,38,49,42,175,36*7F
$IIHDM,077,M*3C
$IIVHW,,T,077,M,00.00,N,00.00,K*65
$IIDBT,003.5,f,001.0,M,000.5,F*13
$IIVWR,087,R,00.0,N,00.0,M,000.0,K*58
$IIMTW,014,C*38
$GPRMC,094610.00,A,4115.54855,N,00155.52527,E,0.060,,050120,,,D*71
$GPGGA,094610.00,4115.54855,N,00155.52527,E,2,08,1.10,3.0,M,49.5,M,,0000*58
$GPGSA,A,3,02,05,06,07,09,23,30,13,,,,,1.95,1.10,1.61*06
$GPGSV,4,1,14,02,47,273,45,03,00,120,,04,14,066,35,05,26,306,47*7F
$GPGSV,4,2,14,06,46,209,43,07,68,127,49,09,45,057,39,13,06,251,23*71
$GPGSV,4,3,14,16,06,038,25,23,21,067,39,30,45,185,42,36,34,139,*7E
$GPGSV,4,4,14,38,39,206,37,49,42,175,37*71
$IIHDM,077,M*3C
$IIVHW,,T,077,M,00.00,N,00.00,K*65
$IIDBT,003.5,f,001.0,M,000.5,F*13
$IIVWR,077,R,00.0,N,00.0,M,000.0,K*57
$IIMTW,014,C*38
$GPRMC,094611.00,A,4115.54857,N,00155.52530,E,0.059,,050120,,,D*7E
$GPGGA,094611.00,4115.54857,N,00155.52530,E,2,08,1.10,2.9,M,49.5,M,,0000*55
$GPGSA,A,3,02,05,06,07,09,23,30,13,,,,,1.95,1.10,1.61*06
$GPGSV,4,1,14,02,47,273,45,03,00,120,,04,14,066,33,05,26,306,47*79
$GPGSV,4,2,14,06,46,209,44,07,68,127,48,09,45,057,39,13,06,251,21*75
$GPGSV,4,3,14,16,06,038,27,23,21,067,39,30,45,185,41,36,34,139,*7F
$GPGSV,4,4,14,38,39,206,38,49,42,175,37*7E
$IIHDM,076,M*3D
$IIVHW,,T,076,M,00.00,N,00.00,K*64
$IIDBT,003.5,f,001.0,M,000.5,F*13
$IIVWR,071,R,00.0,N,00.0,M,000.0,K*51
$IIMTW,014,C*38
$GPRMC,094612.00,A,4115.54856,N,00155.52540,E,0.055,,050120,,,D*77
$GPGGA,094612.00,4115.54856,N,00155.52540,E,2,09,1.06,2.6,M,49.5,M,,0000*59
$GPGSA,A,3,02,05,06,07,09,16,23,30,13,,,,1.76,1.06,1.40*08
$GPGSV,4,1,14,02,47,273,46,03,00,120,,04,14,066,34,05,26,306,47*7D
$GPGSV,4,2,14,06,46,209,45,07,68,127,50,09,45,057,39,13,06,251,20*7C
$GPGSV,4,3,14,16,06,038,28,23,21,067,40,30,45,185,42,36,34,139,*7D
$GPGSV,4,4,14,38,39,206,39,49,42,175,37*7F
$IIHDM,077,M*3C
$IIVHW,,T,077,M,00.00,N,00.00,K*65
$IIDBT,003.5,f,001.0,M,000.5,F*13
$IIVWR,069,R,00.0,N,00.0,M,000.0,K*58
$IIMTW,014,C*38
$GPRMC,094613.00,A,4115.54851,N,00155.52547,E,0.040,,050120,,,D*72
$GPGGA,094613.00,4115.54851,N,00155.52547,E,2,08,1.10,2.4,M,49.5,M,,0000*5C
$GPGSA,A,3,02,05,06,07,09,23,30,13,,,,,1.95,1.10,1.61*06
$GPGSV,4,1,14,02,47,273,46,03,00,120,,04,14,066,35,05,26,306,46*7D
$GPGSV,4,2,14,06,46,209,44,07,68,127,50,09,45,057,40,13,06,251,22*71
$GPGSV,4,3,14,16,06,038,,23,21,067,41,30,45,185,43,36,34,139,*77
$GPGSV,4,4,14,38,39,206,39,49,42,175,37*7F
$IIHDM,076,M*3D
$IIVHW,,T,076,M,00.00,N,00.00,K*64
$IIDBT,003.5,f,001.0,M,000.5,F*13
$IIVWR,071,R,00.0,N,00.0,M,000.0,K*51
$IIMTW,014,C*38
$GPRMC,094614.00,A,4115.54847,N,00155.52553,E,0.059,,050120,,,D*7F
$GPGGA,094614.00,4115.54847,N,00155.52553,E,2,08,1.10,2.1,M,49.5,M,,0000*5C
$GPGSA,A,3,02,05,06,07,09,23,30,13,,,,,1.95,1.10,1.61*06
$GPGSV,4,1,14,02,47,273,46,03,00,120,,04,14,066,35,05,26,306,45*7E
$GPGSV,4,2,14,06,46,209,44,07,68,127,51,09,45,057,41,13,06,251,23*70
$GPGSV,4,3,14,16,06,038,,23,21,067,41,30,45,185,42,36,34,139,*76
$GPGSV,4,4,14,38,39,206,40,49,42,175,39*7F
$IIHDM,076,M*3D
$IIVHW,,T,076,M,00.00,N,00.00,K*64
$IIDBT,003.5,f,001.0,M,000.5,F*13
$IIVWR,077,R,00.0,N,00.0,M,000.0,K*57
$IIMTW,014,C*38
$IIHDM,077,M*3C
$IIVHW,,T,077,M,00.00,N,00.00,K*65
$IIDBT,003.5,f,001.0,M,000.5,F*13
$IIVWR,085,R,00.0,N,00.0,M,000.0,K*5A
$IIMTW,014,C*38
$GPRMC,094615.00,A,4115.54845,N,00155.52559,E,0.040,,050120,,,D*7E
$GPGGA,094615.00,4115.54845,N,00155.52559,E,2,08,1.10,1.9,M,49.5,M,,0000*5E
$GPGSA,A,3,02,05,06,07,09,23,30,13,,,,,1.95,1.10,1.61*06
$GPGSV,4,1,14,02,47,273,47,03,00,120,,04,14,066,37,05,26,306,45*7D
$GPGSV,4,2,14,06,46,209,45,07,68,127,50,09,45,057,39,13,06,251,22*7E
$GPGSV,4,3,14,16,06,038,,23,21,067,42,30,45,185,43,36,34,139,*74
$GPGSV,4,4,14,38,39,206,39,49,42,175,39*71
$GPRMC,094616.00,A,4115.54851,N,00155.52560,E,0.034,,050120,,,D*71
$GPGGA,094616.00,4115.54851,N,00155.52560,E,2,08,1.10,2.0,M,49.5,M,,0000*58
$GPGSA,A,3,02,05,06,07,09,23,30,13,,,,,1.95,1.10,1.61*06
$GPGSV,4,1,14,02,47,273,47,03,00,120,,04,14,066,37,05,26,306,46*7E
$GPGSV,4,2,14,06,46,209,45,07,68,127,50,09,45,057,37,13,06,251,22*70
$GPGSV,4,3,14,16,06,038,,23,21,067,44,30,45,185,44,36,34,139,*75
$GPGSV,4,4,14,38,39,206,39,49,42,175,39*71
$IIHDM,077,M*3C
$IIVHW,,T,077,M,00.00,N,00.00,K*65
$IIDBT,003.5,f,001.0,M,000.5,F*13
$IIVWR,091,R,00.0,N,00.0,M,000.0,K*5F
$IIMTW,014,C*38
$GPRMC,094617.00,A,4115.54852,N,00155.52560,E,0.020,,050120,,,D*76
$GPGGA,094617.00,4115.54852,N,00155.52560,E,2,08,1.10,2.1,M,49.5,M,,0000*5B
$GPGSA,A,3,02,05,06,07,09,23,30,13,,,,,1.95,1.10,1.61*06
$GPGSV,4,1,15,02,47,273,46,03,00,120,,04,14,066,37,05,26,306,46*7E
$GPGSV,4,2,15,06,46,209,44,07,68,127,49,09,45,057,35,13,06,251,25*7D
$GPGSV,4,3,15,16,06,038,,23,21,067,42,24,,,29,30,45,185,43*41
$GPGSV,4,4,15,36,34,139,,38,39,206,39,49,42,175,38*48
$IIHDM,076,M*3D
$IIVHW,,T,076,M,00.00,N,00.00,K*64
$IIDBT,003.5,f,001.0,M,000.5,F*13
$IIVWR,085,R,00.0,N,00.0,M,000.0,K*5A
$IIMTW,014,C*38
$GPRMC,094618.00,A,4115.54848,N,00155.52561,E,0.036,,050120,,,D*74
$GPGGA,094618.00,4115.54848,N,00155.52561,E,2,08,1.10,2.1,M,49.5,M,,0000*5E
$GPGSA,A,3,02,05,06,07,09,23,30,13,,,,,1.95,1.10,1.61*06
$GPGSV,4,1,14,02,47,273,46,03,00,120,,04,14,066,36,05,26,306,46*7E
$GPGSV,4,2,14,06,46,209,44,07,68,127,50,09,45,057,40,13,06,251,27*74
$GPGSV,4,3,14,16,06,038,,23,21,067,43,30,45,185,43,36,34,139,*75
$GPGSV,4,4,14,38,39,206,39,49,42,175,39*71
$IIHDM,076,M*3D
$IIVHW,,T,076,M,00.00,N,00.00,K*64
$IIDBT,003.5,f,001.0,M,000.5,F*13
$IIVWR,075,R,00.0,N,00.0,M,000.0,K*55
$IIMTW,014,C*38
$GPRMC,094619.00,A,4115.54845,N,00155.52551,E,0.045,,050120,,,D*7F
$GPGGA,094619.00,4115.54845,N,00155.52551,E,2,08,1.10,2.3,M,49.5,M,,0000*53
$GPGSA,A,3,02,05,06,07,09,23,30,13,,,,,1.95,1.10,1.61*06
$GPGSV,4,1,14,02,47,273,44,03,00,120,,04,14,066,35,05,26,306,44*7D
$GPGSV,4,2,14,06,46,209,43,07,68,127,49,09,45,057,42,13,06,251,26*78
$GPGSV,4,3,14,16,06,038,,23,21,067,41,30,45,185,43,36,34,139,*77
$GPGSV,4,4,14,38,39,206,38,49,42,175,38*71
$IIHDM,076,M*3D
$IIVHW,,T,076,M,00.00,N,00.00,K*64
$IIDBT,003.5,f,001.0,M,000.5,F*13
$IIVWR,075,R,00.0,N,00.0,M,000.0,K*55
$IIMTW,014,C*38
$IIHDM,076,M*3D
$IIVHW,,T,076,M,00.00,N,00.00,K*64
$IIDBT,003.5,f,001.0,M,000.5,F*13
$IIVWR,087,R,00.0,N,00.0,M,000.0,K*58
$IIMTW,014,C*38
$IIHDM,077,M*3C
$IIVHW,,T,077,M,00.00,N,00.00,K*65
$IIDBT,003.5,f,001.0,M,000.5,F*13
$IIVWR,098,R,00.0,N,00.0,M,000.0,K*56
$IIMTW,014,C*38
$GPRMC,094620.00,A,4115.54844,N,00155.52535,E,0.052,,050120,,,D*70
$GPGGA,094620.00,4115.54844,N,00155.52535,E,2,08,1.10,2.6,M,49.5,M,,0000*5F
$GPGSA,A,3,02,05,06,07,09,23,30,13,,,,,1.95,1.10,1.61*06
$GPGSV,4,1,15,02,47,273,46,03,00,120,,04,14,066,35,05,26,306,46*7C
$GPGSV,4,2,15,06,46,209,45,07,68,127,50,09,45,057,41,13,06,251,26*74
$GPGSV,4,3,15,16,06,038,25,23,21,067,42,29,,,31,30,45,185,42*43
$GPGSV,4,4,15,36,34,139,,38,39,206,38,49,42,175,39*48
$GPRMC,094621.00,A,4115.54852,N,00155.52529,E,0.067,,050120,,,D*7D
$GPGGA,094621.00,4115.54852,N,00155.52529,E,2,09,1.10,3.0,M,49.5,M,,0000*52
$GPGSA,A,3,02,05,06,07,09,16,23,30,13,,,,1.95,1.10,1.61*01
$GPGSV,4,1,14,02,47,273,46,03,00,120,,04,14,066,36,05,26,306,46*7E
$GPGSV,4,2,14,06,46,209,45,07,68,127,49,09,45,057,37,13,06,251,27*7D
$GPGSV,4,3,14,16,06,038,26,23,21,067,42,30,45,185,42,36,34,139,*71
$GPGSV,4,4,14,38,39,206,40,49,42,175,41*70
$GPRMC,094622.00,A,4115.54854,N,00155.52523,E,0.034,,050120,,,D*74
$GPGGA,094622.00,4115.54854,N,00155.52523,E,2,09,1.06,3.3,M,49.5,M,,0000*59
$GPGSA,A,3,02,05,06,07,09,16,23,30,13,,,,1.76,1.06,1.40*08
$GPGSV,4,1,14,02,47,273,45,03,00,120,,04,14,066,37,05,26,306,48*72
$GPGSV,4,2,14,06,46,209,45,07,68,127,49,09,45,057,30,13,06,251,30*7C
$GPGSV,4,3,14,16,06,038,27,23,21,067,42,30,45,185,40,36,34,139,*72
$GPGSV,4,4,14,38,39,206,40,49,42,175,40*71
$IIHDM,076,M*3D
$IIVHW,,T,076,M,00.00,N,00.00,K*64
$IIDBT,003.5,f,001.0,M,000.5,F*13
$IIVWR,095,R,00.0,N,00.0,M,000.0,K*5B
$IIMTW,014,C*38
$GPRMC,094623.00,A,4115.54855,N,00155.52524,E,0.022,,050120,,,D*74
$GPGGA,094623.00,4115.54855,N,00155.52524,E,2,09,1.06,3.4,M,49.5,M,,0000*59
$GPGSA,A,3,02,05,06,07,09,16,23,30,13,,,,1.76,1.06,1.40*08
$GPGSV,4,1,14,02,47,273,46,03,00,120,,04,14,066,37,05,26,306,46*7F
$GPGSV,4,2,14,06,46,209,44,07,68,127,49,09,45,057,35,13,06,251,30*78
$GPGSV,4,3,14,16,06,038,27,23,21,067,42,30,45,185,40,36,34,139,*72
$GPGSV,4,4,14,38,39,206,39,49,42,175,37*7F
$IIHDM,076,M*3D
$IIVHW,,T,076,M,00.00,N,00.00,K*64
$IIDBT,003.5,f,001.0,M,000.5,F*13
$IIVWR,080,R,00.0,N,00.0,M,000.0,K*5F
$IIMTW,014,C*38
$IIHDM,076,M*3D
$IIVHW,,T,076,M,00.00,N,00.00,K*64
$IIDBT,003.5,f,001.0,M,000.5,F*13
$IIVWR,078,R,00.0,N,00.0,M,000.0,K*58
$IIMTW,014,C*38
$IIHDM,076,M*3D
$IIVHW,,T,076,M,00.00,N,00.00,K*64
$IIDBT,003.5,f,001.0,M,000.5,F*13
$IIVWR,085,R,00.0,N,00.0,M,000.0,K*5A
$IIMTW,014,C*38
$IIHDM,076,M*3D
$IIVHW,,T,076,M,00.00,N,00.00,K*64
$IIDBT,003.5,f,001.0,M,000.5,F*13
$IIVWR,083,R,00.0,N,00.0,M,000.0,K*5C
$IIMTW,014,C*38
$IIHDM,076,M*3D
$IIVHW,,T,076,M,00.00,N,00.00,K*64
$IIDBT,003.5,f,001.0,M,000.5,F*13
$IIVWR,082,R,00.0,N,00.0,M,000.0,K*5D
$IIMTW,014,C*38
$IIHDM,076,M*3D
$IIVHW,,T,076,M,00.00,N,00.00,K*64
$IIDBT,003.5,f,001.0,M,000.5,F*13
$IIVWR,081,R,00.0,N,00.0,M,000.0,K*5E
$IIMTW,014,C*38
$GPRMC,094624.00,A,4115.54855,N,00155.52525,E,0.031,,050120,,,D*70
$GPGGA,094624.00,4115.54855,N,00155.52525,E,2,09,1.06,3.5,M,49.5,M,,0000*5E
$GPGSA,A,3,02,05,06,07,09,16,23,30,13,,,,1.76,1.06,1.40*08
$GPGSV,4,1,14,02,47,273,45,03,00,120,21,04,14,066,37,05,26,306,44*7D
$GPGSV,4,2,14,06,46,209,43,07,68,127,49,09,45,057,38,13,06,251,28*7B
$GPGSV,4,3,14,16,06,038,26,23,21,067,41,30,45,185,41,36,34,139,*71
$GPGSV,4,4,14,38,39,206,39,49,42,175,37*7F
$GPRMC,094625.00,A,4115.54858,N,00155.52525,E,0.035,,050120,,,D*78
$GPGGA,094625.00,4115.54858,N,00155.52525,E,2,08,1.10,3.7,M,49.5,M,,0000*56
$GPGSA,A,3,02,05,06,07,09,23,30,13,,,,,1.95,1.10,1.61*06
$GPGSV,4,1,14,02,47,273,46,03,00,120,21,04,14,066,37,05,26,306,46*7C
$GPGSV,4,2,14,06,46,209,44,07,68,127,49,09,45,057,40,13,06,251,30*7A
$GPGSV,4,3,14,16,06,038,27,23,21,067,43,30,45,185,39,36,34,139,*7D
$GPGSV,4,4,14,38,39,206,40,49,42,175,39*7F
$GPRMC,094626.00,A,4115.54849,N,00155.52521,E,0.039,,050120,,,D*73
$GPGGA,094626.00,4115.54849,N,00155.52521,E,2,08,1.10,3.6,M,49.5,M,,0000*50
$GPGSA,A,3,02,05,06,07,09,23,30,13,,,,,1.95,1.10,1.61*06
$GPGSV,4,1,14,02,47,273,46,03,00,120,21,04,14,066,37,05,26,306,43*79
$GPGSV,4,2,14,06,46,209,43,07,68,127,50,09,45,057,43,13,06,251,31*77
$GPGSV,4,3,14,16,06,038,,23,21,067,44,30,45,185,40,36,34,139,*71
$GPGSV,4,4,14,38,39,206,40,49,42,175,39*7F
$GPRMC,094627.00,A,4115.54837,N,00155.52511,E,0.053,,050120,,,D*74
$GPGGA,094627.00,4115.54837,N,00155.52511,E,2,08,1.10,3.5,M,49.5,M,,0000*58
$GPGSA,A,3,02,05,06,07,09,23,30,13,,,,,1.95,1.10,1.61*06
$GPGSV,4,1,14,02,47,273,45,03,00,120,22,04,14,066,38,05,26,306,42*77
$GPGSV,4,2,14,06,46,209,43,07,68,127,50,09,45,057,43,13,06,251,30*76
$GPGSV,4,3,14,16,06,038,,23,21,067,44,30,45,185,40,36,34,139,*71
$GPGSV,4,4,14,38,39,206,40,49,42,175,38*7E
$GPRMC,094628.00,A,4115.54833,N,00155.52502,E,0.044,,050120,,,D*7B
$GPGGA,094628.00,4115.54833,N,00155.52502,E,2,08,1.10,3.6,M,49.5,M,,0000*52
$GPGSA,A,3,02,05,06,07,09,23,30,13,,,,,1.95,1.10,1.61*06
$GPGSV,4,1,14,02,47,273,46,03,00,120,21,04,14,066,39,05,26,306,44*70
$GPGSV,4,2,14,06,46,209,43,07,68,126,50,09,45,057,44,13,06,251,29*78
$GPGSV,4,3,14,16,06,038,,23,21,067,43,30,45,185,40,36,34,139,*76
$GPGSV,4,4,14,38,39,206,40,49,42,175,38*7E
$GPRMC,094629.00,A,4115.54828,N,00155.52497,E,0.037,,050120,,,D*79
$GPGGA,094629.00,4115.54828,N,00155.52497,E,2,08,1.10,3.6,M,49.5,M,,0000*54
$GPGSA,A,3,02,05,06,07,09,23,30,13,,,,,1.95,1.10,1.61*06
$GPGSV,4,1,14,02,47,273,47,03,00,120,,04,14,066,40,05,26,306,47*7F
$GPGSV,4,2,14,06,46,209,43,07,68,126,50,09,45,057,44,13,06,251,27*76
$GPGSV,4,3,14,16,06,038,,23,21,067,43,30,45,185,41,36,34,139,*77
$GPGSV,4,4,14,38,39,206,41,49,42,175,38*7F
$IIHDM,076,M*3D
$IIVHW,,T,076,M,00.00,N,00.00,K*64
$IIDBT,003.5,f,001.0,M,000.5,F*13
$IIVWR,080,R,00.0,N,00.0,M,000.0,K*5F
$IIMTW,014,C*38
$GPRMC,094630.00,A,4115.54822,N,00155.52498,E,0.028,,050120,,,D*7A
$GPGGA,094630.00,4115.54822,N,00155.52498,E,2,08,1.10,3.5,M,49.5,M,,0000*5A
$GPGSA,A,3,02,05,06,07,09,23,30,13,,,,,1.95,1.10,1.61*06
$GPGSV,4,1,14,02,47,273,46,03,00,120,,04,14,066,40,05,26,306,46*7F
$GPGSV,4,2,14,06,46,209,43,07,68,126,49,09,45,058,43,13,06,251,27*76
$GPGSV,4,3,14,16,06,038,,23,21,067,43,30,45,185,42,36,34,139,*74
$GPGSV,4,4,14,38,39,206,41,49,42,175,37*70
$IIHDM,076,M*3D
$IIVHW,,T,076,M,00.00,N,00.00,K*64
$IIDBT,003.5,f,001.0,M,000.5,F*13
$IIVWR,077,R,00.0,N,00.0,M,000.0,K*57
$IIMTW,014,C*38
$IIHDM,076,M*3D
$IIVHW,,T,076,M,00.00,N,00.00,K*64
$IIDBT,003.5,f,001.0,M,000.5,F*13
$IIVWR,074,R,00.0,N,00.0,M,000.0,K*54
$IIMTW,014,C*38
$GPRMC,094631.00,A,4115.54822,N,00155.52499,E,0.026,,050120,,,D*74
$GPGGA,094631.00,4115.54822,N,00155.52499,E,2,08,1.10,3.3,M,49.5,M,,0000*5C
$GPGSA,A,3,02,05,06,07,09,23,30,13,,,,,1.95,1.10,1.61*06
$GPGSV,4,1,14,02,47,273,47,03,00,120,,04,14,066,40,05,26,306,46*7E
$GPGSV,4,2,14,06,46,209,45,07,68,126,51,09,45,058,45,13,06,251,26*7E
$GPGSV,4,3,14,16,06,038,,23,21,067,44,30,45,185,44,36,34,139,*75
$GPGSV,4,4,14,38,39,206,42,49,42,175,39*7D
$GPRMC,094632.00,A,4115.54827,N,00155.52495,E,0.010,,050120,,,D*7B
$GPGGA,094632.00,4115.54827,N,00155.52495,E,2,08,1.10,3.2,M,49.5,M,,0000*57
$GPGSA,A,3,02,05,06,07,09,23,30,13,,,,,1.95,1.10,1.61*06
$GPGSV,4,1,14,02,47,273,48,03,00,120,,04,14,066,37,05,26,306,43*74
$GPGSV,4,2,14,06,46,209,45,07,68,126,51,09,45,058,44,13,06,251,25*7C
$GPGSV,4,3,14,16,06,038,,23,21,067,43,30,45,185,45,36,34,139,*73
$GPGSV,4,4,14,38,39,206,41,49,42,175,39*7E
$IIHDM,076,M*3D
$IIVHW,,T,076,M,00.00,N,00.00,K*64
$IIDBT,003.5,f,001.0,M,000.5,F*13
$IIVWR,072,R,00.0,N,00.0,M,000.0,K*52
$IIMTW,014,C*38
$GPRMC,094633.00,A,4115.54829,N,00155.52497,E,0.035,,050120,,,D*71
$GPGGA,094633.00,4115.54829,N,00155.52497,E,2,08,1.10,3.0,M,49.5,M,,0000*58
$GPGSA,A,3,02,05,06,07,09,23,30,13,,,,,1.95,1.10,1.61*06
$GPGSV,4,1,14,02,47,273,47,03,00,120,,04,14,066,34,05,26,306,45*7E
$GPGSV,4,2,14,06,46,209,45,07,68,126,50,09,45,058,41,13,06,251,26*7B
$GPGSV,4,3,14,16,06,038,,23,21,067,42,30,45,185,43,36,34,139,*74
$GPGSV,4,4,14,38,39,206,41,49,42,175,38*7F
$IIHDM,076,M*3D
$IIVHW,,T,076,M,00.00,N,00.00,K*64
$IIDBT,003.5,f,001.0,M,000.5,F*13
$IIVWR,073,R,00.0,N,00.0,M,000.0,K*53
$IIMTW,014,C*38
$GPRMC,094634.00,A,4115.54835,N,00155.52501,E,0.024,,050120,,,D*75
$GPGGA,094634.00,4115.54835,N,00155.52501,E,2,08,1.10,2.9,M,49.5,M,,0000*54
$GPGSA,A,3,02,05,06,07,09,23,30,13,,,,,1.95,1.10,1.61*06
$GPGSV,4,1,14,02,47,273,46,03,00,120,,04,14,066,34,05,26,306,46*7C
$GPGSV,4,2,14,06,46,209,45,07,68,126,50,09,45,058,39,13,06,251,26*74
$GPGSV,4,3,14,16,06,038,,23,21,067,41,30,45,185,44,36,34,139,*70
$GPGSV,4,4,14,38,39,206,40,49,42,175,38*7E
$IIHDM,076,M*3D
$IIVHW,,T,076,M,00.00,N,00.00,K*64
$IIDBT,003.5,f,001.0,M,000.5,F*13
$IIVWR,078,R,00.0,N,00.0,M,000.0,K*58
$IIMTW,014,C*38
$GPRMC,094635.00,A,4115.54838,N,00155.52505,E,0.038,,050120,,,D*70
$GPGGA,094635.00,4115.54838,N,00155.52505,E,2,08,1.10,2.8,M,49.5,M,,0000*5D
$GPGSA,A,3,02,05,06,07,09,23,30,13,,,,,1.95,1.10,1.61*06
$GPGSV,4,1,14,02,47,273,46,03,00,120,,04,14,066,37,05,26,306,45*7C
$GPGSV,4,2,14,06,46,209,45,07,68,126,50,09,45,058,38,13,06,251,25*76
$GPGSV,4,3,14,16,06,038,,23,21,067,39,30,45,185,44,36,34,139,*7F
$GPGSV,4,4,14,38,39,206,39,49,42,175,37*7F
$IIHDM,076,M*3D
$IIVHW,,T,076,M,00.00,N,00.00,K*64
$IIDBT,003.5,f,001.0,M,000.5,F*13
$IIVWR,076,R,00.0,N,00.0,M,000.0,K*56
$IIMTW,014,C*38
$GPRMC,094636.00,A,4115.54844,N,00155.52508,E,0.028,,050120,,,D*74
$GPGGA,094636.00,4115.54844,N,00155.52508,E,2,08,1.10,2.6,M,49.5,M,,0000*56
$GPGSA,A,3,02,05,06,07,09,23,30,13,,,,,1.95,1.10,1.61*06
$GPGSV,4,1,14,02,47,273,46,03,00,120,,04,14,066,39,05,26,306,43*74
$GPGSV,4,2,14,06,46,209,45,07,68,126,51,09,45,058,37,13,06,251,25*78
$GPGSV,4,3,14,16,06,038,,23,21,067,41,30,45,185,45,36,34,139,*71
$GPGSV,4,4,14,38,39,206,37,49,42,175,38*7E
$IIHDM,076,M*3D
$IIVHW,,T,076,M,00.00,N,00.00,K*64
$IIDBT,003.5,f,001.0,M,000.5,F*13
$IIVWR,071,R,00.0,N,00.0,M,000.0,K*51
$IIMTW,014,C*38
$GPRMC,094637.00,A,4115.54850,N,00155.52511,E,0.033,,050120,,,D*72
$GPGGA,094637.00,4115.54850,N,00155.52511,E,2,08,1.10,2.4,M,49.5,M,,0000*58
$GPGSA,A,3,02,05,06,07,09,23,30,13,,,,,1.95,1.10,1.61*06
$GPGSV,4,1,14,02,47,273,46,03,00,120,,04,14,066,39,05,26,306,44*73
$GPGSV,4,2,14,06,46,209,45,07,68,126,50,09,45,058,39,13,06,251,24*76
$GPGSV,4,3,14,16,06,037,,23,21,067,42,30,45,185,45,36,34,139,*7D
$GPGSV,4,4,14,38,39,206,37,49,42,175,38*7E
$IIHDM,076,M*3D
$IIVHW,,T,076,M,00.00,N,00.00,K*64
$IIDBT,003.6,f,001.1,M,000.6,F*12
$IIVWR,072,R,00.0,N,00.0,M,000.0,K*52
$IIMTW,014,C*38
$GPRMC,094638.00,A,4115.54858,N,00155.52507,E,0.024,,050120,,,D*74
$GPGGA,094638.00,4115.54858,N,00155.52507,E,2,08,1.10,2.5,M,49.5,M,,0000*59
$GPGSA,A,3,02,05,06,07,09,23,30,13,,,,,1.95,1.10,1.61*06
$GPGSV,4,1,14,02,47,273,47,03,00,120,,04,14,066,40,05,26,306,45*7D
$GPGSV,4,2,14,06,46,209,46,07,68,126,51,09,45,058,36,13,06,251,23*7C
$GPGSV,4,3,14,16,06,037,,23,21,067,44,30,45,185,45,36,34,139,*7B
$GPGSV,4,4,14,38,39,206,40,49,42,175,38*7E
$IIHDM,076,M*3D
$IIVHW,,T,076,M,00.00,N,00.00,K*64
$IIDBT,003.6,f,001.1,M,000.6,F*12
$IIVWR,078,R,00.0,N,00.0,M,000.0,K*58
$IIMTW,014,C*38
$GPRMC,094639.00,A,4115.54867,N,00155.52504,E,0.014,,050120,,,D*79
$GPGGA,094639.00,4115.54867,N,00155.52504,E,2,08,1.10,2.6,M,49.5,M,,0000*54
$GPGSA,A,3,02,05,06,07,09,23,30,13,,,,,1.95,1.10,1.61*06
$GPGSV,4,1,14,02,47,273,47,03,00,120,,04,14,066,40,05,26,306,44*7C
$GPGSV,4,2,14,06,46,209,47,07,68,126,52,09,45,058,32,13,06,251,24*7D
$GPGSV,4,3,14,16,06,037,,23,21,067,46,30,45,185,45,36,34,139,*79
$GPGSV,4,4,14,38,39,206,40,49,42,175,40*71
$IIHDM,076,M*3D
$IIVHW,,T,076,M,00.00,N,00.00,K*64
$IIDBT,003.6,f,001.1,M,000.6,F*12
$IIVWR,081,R,00.0,N,00.0,M,000.0,K*5E
$IIMTW,014,C*38
$GPRMC,094640.00,A,4115.54879,N,00155.52500,E,0.014,,050120,,,D*7C
$GPGGA,094640.00,4115.54879,N,00155.52500,E,2,08,1.10,2.6,M,49.5,M,,0000*51
$GPGSA,A,3,02,05,06,07,09,23,30,13,,,,,1.95,1.10,1.61*06
$GPGSV,4,1,14,02,47,273,47,03,00,120,,04,14,066,41,05,26,306,44*7D
$GPGSV,4,2,14,06,46,209,45,07,68,126,52,09,45,058,39,13,06,251,26*76
$GPGSV,4,3,14,16,06,037,,23,21,067,44,30,45,185,46,36,34,139,*78
$GPGSV,4,4,14,38,39,206,42,49,42,175,40*73
$IIHDM,076,M*3D
$IIVHW,,T,076,M,00.00,N,00.00,K*64
$IIDBT,003.6,f,001.1,M,000.6,F*12
$IIVWR,083,R,00.0,N,00.0,M,000.0,K*5C
$IIMTW,014,C*38
$IIHDM,076,M*3D
$IIVHW,,T,076,M,00.00,N,00.00,K*64
$IIDBT,003.6,f,001.1,M,000.6,F*12
$IIVWR,084,R,00.0,N,00.0,M,000.0,K*5B
$IIMTW,014,C*38
$IIHDM,076,M*3D
$IIVHW,,T,076,M,00.00,N,00.00,K*64
$IIDBT,003.6,f,001.1,M,000.6,F*12
$IIVWR,085,R,00.0,N,00.0,M,000.0,K*5A
$IIMTW,014,C*38
$GPRMC,094641.00,A,4115.54884,N,00155.52497,E,0.020,,050120,,,D*77
$GPGGA,094641.00,4115.54884,N,00155.52497,E,2,08,1.17,2.7,M,49.5,M,,0000*5B
$GPGSA,A,3,02,05,06,07,09,23,30,13,,,,,2.01,1.17,1.63*0D
$GPGSV,4,1,16,01,,,32,02,47,273,47,03,00,120,,04,14,066,41*4B
$GPGSV,4,2,16,05,26,306,46,06,46,209,44,07,68,126,52,09,45,058,41*7A
$GPGSV,4,3,16,13,06,251,25,16,06,037,,23,21,067,43,26,,,32*48
$GPGSV,4,4,16,30,45,185,46,36,34,139,,38,39,206,42,49,42,175,38*7B
$GPRMC,094642.00,A,4115.54885,N,00155.52497,E,0.027,,050120,,,D*72
$GPGGA,094642.00,4115.54885,N,00155.52497,E,2,08,1.10,2.9,M,49.5,M,,0000*50
$GPGSA,A,3,02,05,06,07,09,23,30,13,,,,,1.95,1.10,1.61*06
$GPGSV,4,1,15,01,,,32,02,47,273,48,03,00,120,,04,14,066,39*48
$GPGSV,4,2,15,05,26,306,48,06,46,209,45,07,68,126,51,09,45,058,41*75
$GPGSV,4,3,15,13,06,251,25,16,06,037,,23,21,067,45,30,45,185,46*74
$GPGSV,4,4,15,36,34,139,,38,39,206,39,49,42,175,35*45
$GPRMC,094643.00,A,4115.54888,N,00155.52502,E,0.033,,050120,,,D*76
$GPGGA,094643.00,4115.54888,N,00155.52502,E,2,08,1.10,3.3,M,49.5,M,,0000*5A
$GPGSA,A,3,02,05,06,07,09,23,30,13,,,,,1.95,1.10,1.61*06
$GPGSV,4,1,14,02,47,273,47,03,00,120,,04,14,066,38,05,26,306,47*70
$GPGSV,4,2,14,06,46,209,46,07,68,126,50,09,45,058,41,13,06,251,26*78
$GPGSV,4,3,14,16,06,037,,23,21,067,45,30,45,185,45,36,34,139,*7A
$GPGSV,4,4,14,38,39,206,39,49,42,175,35*7D
$IIHDM,076,M*3D
$IIVHW,,T,076,M,00.00,N,00.00,K*64
$IIDBT,003.6,f,001.1,M,000.6,F*12
$IIVWR,084,R,00.0,N,00.0,M,000.0,K*5B
$IIMTW,014,C*38
$GPRMC,094644.00,A,4115.54881,N,00155.52498,E,0.019,,050120,,,D*72
$GPGGA,094644.00,4115.54881,N,00155.52498,E,2,08,1.10,3.7,M,49.5,M,,0000*52
$GPGSA,A,3,02,05,06,07,09,23,30,13,,,,,1.95,1.10,1.61*06
$GPGSV,4,1,14,02,47,273,47,03,00,120,,04,14,066,38,05,26,306,47*70
$GPGSV,4,2,14,06,46,209,46,07,68,126,51,09,45,058,41,13,06,251,26*79
$GPGSV,4,3,14,16,06,037,,23,21,067,45,30,45,185,45,36,34,139,43*7D
$GPGSV,4,4,14,38,39,206,41,49,42,175,41*71
$IIHDM,076,M*3D
$IIVHW,,T,076,M,00.00,N,00.00,K*64
$IIDBT,003.6,f,001.1,M,000.6,F*12
$IIVWR,084,R,00.0,N,00.0,M,000.0,K*5B
$IIMTW,014,C*38
$GPRMC,094645.00,A,4115.54877,N,00155.52498,E,0.023,,050120,,,D*73
$GPGGA,094645.00,4115.54877,N,00155.52498,E,2,08,1.10,3.9,M,49.5,M,,0000*54
$GPGSA,A,3,02,05,06,07,09,23,30,13,,,,,1.95,1.10,1.61*06
$GPGSV,4,1,14,02,47,273,47,03,00,120,,04,14,066,35,05,26,306,46*7C
$GPGSV,4,2,14,06,46,209,45,07,68,126,50,09,45,058,42,13,06,251,24*7A
$GPGSV,4,3,14,16,06,037,27,23,21,067,43,30,46,185,45,36,34,139,41*7F
$GPGSV,4,4,14,38,39,206,39,49,42,175,41*7E
$IIHDM,076,M*3D
$IIVHW,,T,076,M,00.00,N,00.00,K*64
$IIDBT,003.6,f,001.1,M,000.6,F*12
$IIVWR,087,R,00.0,N,00.0,M,000.0,K*58
$IIMTW,014,C*38
$IIHDM,077,M*3C
$IIVHW,,T,077,M,00.00,N,00.00,K*65
$IIDBT,003.6,f,001.1,M,000.6,F*12
$IIVWR,089,R,00.0,N,00.0,M,000.0,K*56
$IIMTW,014,C*38
$IIHDM,077,M*3C
$IIVHW,,T,077,M,00.00,N,00.00,K*65
$IIDBT,003.6,f,001.1,M,000.6,F*12
$IIVWR,083,R,00.0,N,00.0,M,000.0,K*5C
$IIMTW,014,C*38
$IIHDM,077,M*3C
$IIVHW,,T,077,M,00.00,N,00.00,K*65
$IIDBT,003.5,f,001.0,M,000.5,F*13
$IIVWR,073,R,00.0,N,00.0,M,000.0,K*53
$IIMTW,014,C*38
$IIHDM,077,M*3C
$IIVHW,,T,077,M,00.00,N,00.00,K*65
$IIDBT,003.5,f,001.0,M,000.5,F*13
$IIVWR,072,R,00.0,N,00.0,M,000.0,K*52
$IIMTW,014,C*38
$IIHDM,077,M*3C
$IIVHW,,T,077,M,00.00,N,00.00,K*65
$IIDBT,003.5,f,001.0,M,000.5,F*13
$IIVWR,075,R,00.0,N,00.0,M,000.0,K*55
$IIMTW,014,C*38
$IIHDM,077,M*3C
$IIVHW,,T,077,M,00.00,N,00.00,K*65
$IIDBT,003.5,f,001.0,M,000.5,F*13
$IIVWR,074,R,00.0,N,00.0,M,000.0,K*54
$IIMTW,014,C*38
$IIHDM,077,M*3C
$IIVHW,,T,077,M,00.00,N,00.00,K*65
$IIDBT,003.5,f,001.0,M,000.5,F*13
$IIVWR,075,R,00.0,N,00.0,M,000.0,K*55
$IIMTW,014,C*38
$IIHDM,077,M*3C
$IIVHW,,T,077,M,00.00,N,00.00,K*65
$IIDBT,003.5,f,001.0,M,000.5,F*13
$IIVWR,076,R,00.0,N,00.0,M,000.0,K*56
$IIMTW,014,C*38
$IIHDM,077,M*3C
$IIVHW,,T,077,M,00.00,N,00.00,K*65
$IIDBT,003.5,f,001.0,M,000.5,F*13
$IIVWR,077,R,00.0,N,00.0,M,000.0,K*57
$IIMTW,014,C*38
$IIHDM,077,M*3C
$IIVHW,,T,077,M,00.00,N,00.00,K*65
$IIDBT,003.5,f,001.0,M,000.5,F*13
$IIVWR,079,R,00.0,N,00.0,M,000.0,K*59
$IIMTW,014,C*38
$GPRMC,094646.00,A,4115.54873,N,00155.52499,E,0.021,,050120,,,D*77
$GPGGA,094646.00,4115.54873,N,00155.52499,E,2,08,1.10,3.8,M,49.5,M,,0000*53
$GPGSA,A,3,02,05,06,07,09,23,30,13,,,,,1.95,1.10,1.61*06
$GPGSV,4,1,14,02,47,273,47,03,00,120,,04,14,066,38,05,26,306,46*71
$GPGSV,4,2,14,06,46,209,45,07,68,126,51,09,45,058,44,13,06,251,24*7D
$GPGSV,4,3,14,16,06,037,,23,21,067,44,30,46,185,45,36,34,139,43*7F
$GPGSV,4,4,14,38,39,206,39,49,42,175,38*70
$GPRMC,094647.00,A,4115.54868,N,00155.52497,E,0.027,,050120,,,D*74
$GPGGA,094647.00,4115.54868,N,00155.52497,E,2,08,1.10,3.5,M,49.5,M,,0000*5B
$GPGSA,A,3,02,05,06,07,09,23,30,13,,,,,1.95,1.10,1.61*06
$GPGSV,4,1,14,02,47,273,47,03,00,120,,04,14,066,38,05,26,306,44*73
$GPGSV,4,2,14,06,46,209,44,07,68,126,50,09,45,058,42,13,06,251,25*7A
$GPGSV,4,3,14,16,06,037,,23,21,067,42,30,46,185,45,36,34,139,43*79
$GPGSV,4,4,14,38,39,206,37,49,42,175,35*73
$GPRMC,094648.00,A,4115.54867,N,00155.52493,E,0.009,,050120,,,D*7C
$GPGGA,094648.00,4115.54867,N,00155.52493,E,2,08,1.10,3.4,M,49.5,M,,0000*5E
$GPGSA,A,3,02,05,06,07,09,23,30,13,,,,,1.95,1.10,1.61*06
$GPGSV,4,1,14,02,47,273,47,03,00,120,,04,14,066,38,05,26,306,44*73
$GPGSV,4,2,14,06,46,209,44,07,68,126,50,09,45,058,42,13,06,251,26*79
$GPGSV,4,3,14,16,06,037,,23,21,067,42,30,46,185,46,36,34,139,42*7B
$GPGSV,4,4,14,38,39,206,39,49,42,175,34*7C
$GPRMC,094649.00,A,4115.54868,N,00155.52490,E,0.038,,050120,,,D*73
$GPGGA,094649.00,4115.54868,N,00155.52490,E,2,08,1.10,3.4,M,49.5,M,,0000*53
$GPGSA,A,3,02,05,06,07,09,23,30,13,,,,,1.95,1.10,1.61*06
$GPGSV,4,1,14,02,47,273,47,03,00,120,,04,14,066,38,05,26,306,43*74
$GPGSV,4,2,14,06,46,209,45,07,68,126,49,09,45,058,42,13,06,251,26*70
$GPGSV,4,3,14,16,06,037,,23,21,067,42,30,46,185,46,36,34,139,40*79
$GPGSV,4,4,14,38,39,206,39,49,42,175,37*7F
$GPRMC,094650.00,A,4115.54866,N,00155.52488,E,0.038,,050120,,,D*7C
$GPGGA,094650.00,4115.54866,N,00155.52488,E,2,08,1.10,3.4,M,49.5,M,,0000*5C
$GPGSA,A,3,02,05,06,07,09,23,30,13,,,,,1.95,1.10,1.61*06
$GPGSV,4,1,14,02,47,273,46,03,00,120,,04,14,066,37,05,26,306,45*7C
$GPGSV,4,2,14,06,46,209,45,07,68,126,49,09,45,058,42,13,06,251,27*71
$GPGSV,4,3,14,16,06,037,,23,21,067,43,30,46,185,45,36,34,139,41*7A
$GPGSV,4,4,14,38,39,206,39,49,42,175,38*70
$GPRMC,094651.00,A,4115.54866,N,00155.52491,E,0.036,,050120,,,D*7B
$GPGGA,094651.00,4115.54866,N,00155.52491,E,2,08,1.10,3.5,M,49.5,M,,0000*54
$GPGSA,A,3,02,05,06,07,09,23,30,13,,,,,1.95,1.10,1.61*06
$GPGSV,4,1,14,02,47,273,46,03,00,120,,04,14,066,37,05,26,306,45*7C
$GPGSV,4,2,14,06,46,209,44,07,68,126,50,09,45,058,42,13,06,251,29*76
$GPGSV,4,3,14,16,06,037,,23,21,067,44,30,46,185,44,36,34,139,44*79
$GPGSV,4,4,14,38,39,206,39,49,42,175,40*7F
$GPRMC,094652.00,A,4115.54866,N,00155.52491,E,0.022,,050120,,,D*7D
$GPGGA,094652.00,4115.54866,N,00155.52491,E,2,08,1.10,3.7,M,49.5,M,,0000*55
$GPGSA,A,3,02,05,06,07,09,23,30,13,,,,,1.95,1.10,1.61*06
$GPGSV,4,1,14,02,47,273,46,03,00,120,26,04,14,066,36,05,26,306,45*79
$GPGSV,4,2,14,06,46,209,43,07,68,126,50,09,45,058,43,13,06,251,30*78
$GPGSV,4,3,14,16,06,037,,23,21,067,44,30,46,185,44,36,34,139,44*79
$GPGSV,4,4,14,38,39,206,39,49,42,175,38*70
$GPRMC,094653.00,A,4115.54862,N,00155.52490,E,0.030,,050120,,,D*7A
$GPGGA,094653.00,4115.54862,N,00155.52490,E,2,08,1.10,3.7,M,49.5,M,,0000*51
$GPGSA,A,3,02,05,06,07,09,23,30,13,,,,,1.95,1.10,1.61*06
$GPGSV,4,1,14,02,47,273,46,03,00,120,25,04,14,066,36,05,26,306,45*7A
$GPGSV,4,2,14,06,46,209,42,07,68,126,49,09,45,058,44,13,06,251,31*77
$GPGSV,4,3,14,16,06,037,,23,21,067,44,30,46,185,45,36,34,139,44*78
$GPGSV,4,4,14,38,39,206,39,49,42,175,37*7F
$GPRMC,094654.00,A,4115.54855,N,00155.52485,E,0.039,,050120,,,D*74
$GPGGA,094654.00,4115.54855,N,00155.52485,E,2,08,1.10,3.9,M,49.5,M,,0000*58
$GPGSA,A,3,02,05,06,07,09,23,30,13,,,,,1.95,1.10,1.61*06
$GPGSV,4,1,14,02,47,273,46,03,00,120,,04,14,066,37,05,26,306,45*7C
$GPGSV,4,2,14,06,46,209,42,07,68,126,49,09,45,058,43,13,06,251,31*70
$GPGSV,4,3,14,16,06,037,,23,21,067,45,30,46,185,45,36,34,139,44*79
$GPGSV,4,4,14,38,39,206,40,49,42,175,40*71
$GPRMC,094655.00,A,4115.54852,N,00155.52483,E,0.031,,050120,,,D*7C
$GPGGA,094655.00,4115.54852,N,00155.52483,E,2,08,1.10,4.2,M,49.5,M,,0000*54
$GPGSA,A,3,02,05,06,07,09,23,30,13,,,,,1.95,1.10,1.61*06
$GPGSV,4,1,14,02,47,273,45,03,00,120,24,04,14,066,36,05,26,306,45*78
$GPGSV,4,2,14,06,46,209,43,07,68,126,49,09,45,058,42,13,06,251,31*70
$GPGSV,4,3,14,16,06,037,26,23,21,067,44,30,46,185,44,36,34,139,42*7B
$GPGSV,4,4,14,38,39,206,38,49,42,175,38*71
$GPRMC,094656.00,A,4115.54849,N,00155.52480,E,0.044,,050120,,,D*74
$GPGGA,094656.00,4115.54849,N,00155.52480,E,2,08,1.10,4.5,M,49.5,M,,0000*59
$GPGSA,A,3,02,05,06,07,09,23,30,13,,,,,1.95,1.10,1.61*06
$GPGSV,4,1,14,02,47,273,45,03,00,120,,04,14,066,36,05,26,306,44*7F
$GPGSV,4,2,14,06,46,209,41,07,68,126,48,09,45,058,41,13,06,251,31*70
$GPGSV,4,3,14,16,06,037,,23,21,067,43,30,46,185,43,36,34,139,39*73
$GPGSV,4,4,14,38,39,206,36,49,42,175,37*70
$IIHDM,077,M*3C
$IIVHW,,T,077,M,00.00,N,00.00,K*65
$IIDBT,003.5,f,001.0,M,000.5,F*13
$IIVWR,078,R,00.0,N,00.0,M,000.0,K*58
$IIMTW,014,C*38
$GPRMC,094657.00,A,4115.54851,N,00155.52477,E,0.019,,050120,,,D*7C
$GPGGA,094657.00,4115.54851,N,00155.52477,E,2,08,1.10,4.5,M,49.5,M,,0000*59
$GPGSA,A,3,02,05,06,07,09,23,30,13,,,,,1.95,1.10,1.61*06
$GPGSV,4,1,14,02,47,273,46,03,00,120,,04,14,066,36,05,26,306,44*7C
$GPGSV,4,2,14,06,46,209,43,07,68,126,50,09,45,058,41,13,06,251,30*7A
$GPGSV,4,3,14,16,06,037,,23,21,067,44,30,46,185,45,36,34,139,42*7E
$GPGSV,4,4,14,38,39,206,38,49,42,175,39*70
$IIHDM,077,M*3C
$IIVHW,,T,077,M,00.00,N,00.00,K*65
$IIDBT,003.5,f,001.0,M,000.5,F*13
$IIVWR,072,R,00.0,N,00.0,M,000.0,K*52
$IIMTW,014,C*38
$IIHDM,077,M*3C
$IIVHW,,T,077,M,00.00,N,00.00,K*65
$IIDBT,003.5,f,001.0,M,000.5,F*13
$IIVWR,066,R,00.0,N,00.0,M,000.0,K*57
$IIMTW,014,C*38
$IIHDM,077,M*3C
$IIVHW,,T,077,M,00.00,N,00.00,K*65
$IIDBT,003.5,f,001.0,M,000.5,F*13
$IIVWR,069,R,00.0,N,00.0,M,000.0,K*58
$IIMTW,014,C*38
$IIHDM,077,M*3C
$IIVHW,,T,077,M,00.00,N,00.00,K*65
$IIDBT,003.5,f,001.0,M,000.5,F*13
$IIVWR,070,R,00.0,N,00.0,M,000.0,K*50
$IIMTW,014,C*38
$GPRMC,094658.00,A,4115.54857,N,00155.52476,E,0.028,,050120,,,D*76
$GPGGA,094658.00,4115.54857,N,00155.52476,E,2,08,1.10,4.7,M,49.5,M,,0000*53
$GPGSA,A,3,02,05,06,07,09,23,30,13,,,,,1.95,1.10,1.61*06
$GPGSV,4,1,14,02,47,273,46,03,00,120,,04,14,066,39,05,26,306,45*72
$GPGSV,4,2,14,06,46,209,43,07,68,126,50,09,45,058,41,13,06,251,31*7B
$GPGSV,4,3,14,16,06,037,,23,21,067,44,30,46,185,45,36,34,139,42*7E
$GPGSV,4,4,14,38,39,206,38,49,42,175,39*70
$GPRMC,094659.00,A,4115.54862,N,00155.52476,E,0.017,,050120,,,D*7D
$GPGGA,094659.00,4115.54862,N,00155.52476,E,2,08,1.10,4.7,M,49.5,M,,0000*54
$GPGSA,A,3,02,05,06,07,09,23,30,13,,,,,1.95,1.10,1.61*06
$GPGSV,4,1,14,02,47,273,46,03,00,120,,04,14,066,38,05,26,306,46*70
$GPGSV,4,2,14,06,46,209,43,07,68,126,51,09,45,058,41,13,06,251,31*7A
$GPGSV,4,3,14,16,06,037,,23,21,067,43,30,46,185,45,36,34,139,41*7A
$GPGSV,4,4,14,38,39,206,36,49,42,175,40*70
$GPRMC,094700.00,A,4115.54860,N,00155.52481,E,0.022,,050120,,,D*7C
$GPGGA,094700.00,4115.54860,N,00155.52481,E,2,08,1.10,4.4,M,49.5,M,,0000*50
$GPGSA,A,3,02,05,06,07,09,23,30,13,,,,,1.95,1.10,1.61*06
$GPGSV,4,1,14,02,47,273,45,03,00,120,,04,14,066,38,05,26,306,46*73
$GPGSV,4,2,14,06,46,209,43,07,68,126,50,09,45,058,41,13,06,251,29*72
$GPGSV,4,3,14,16,06,037,,23,21,067,43,30,46,185,45,36,34,139,41*7A
$GPGSV,4,4,14,38,39,206,36,49,42,175,40*70
$GPRMC,094701.00,A,4115.54859,N,00155.52488,E,0.026,,050120,,,D*7A
$GPGGA,094701.00,4115.54859,N,00155.52488,E,2,08,1.10,4.2,M,49.5,M,,0000*54
$GPGSA,A,3,02,05,06,07,09,23,30,13,,,,,1.95,1.10,1.61*06
$GPGSV,4,1,14,02,47,273,45,03,00,120,,04,14,066,38,05,26,306,47*72
$GPGSV,4,2,14,06,46,209,43,07,68,126,51,09,45,058,41,13,06,251,29*73
$GPGSV,4,3,14,16,06,037,,23,21,067,44,30,46,185,46,36,34,139,42*7D
$GPGSV,4,4,14,38,39,206,37,49,42,175,41*70
$IIHDM,077,M*3C
$IIVHW,,T,077,M,00.00,N,00.00,K*65
$IIDBT,003.5,f,001.0,M,000.5,F*13
$IIVWR,062,R,00.0,N,00.0,M,000.0,K*53
$IIMTW,014,C*38
$IIHDM,077,M*3C
$IIVHW,,T,077,M,00.00,N,00.00,K*65
$IIDBT,003.5,f,001.0,M,000.5,F*13
$IIVWR,057,R,00.0,N,00.0,M,000.0,K*55
$IIMTW,014,C*38
$GPRMC,094702.00,A,4115.54861,N,00155.52496,E,0.013,,050120,,,D*7B
$GPGGA,094702.00,4115.54861,N,00155.52496,E,2,08,1.10,4.1,M,49.5,M,,0000*50
$GPGSA,A,3,02,05,06,07,09,23,30,13,,,,,1.95,1.10,1.61*06
$GPGSV,4,1,14,02,47,273,46,03,00,120,,04,14,066,38,05,26,306,48*7E
