$GPRMC,165004.445,A,3806.5206,N,12251.7776,W,000.0,000.0,200818,,,A*74
!AIVDM,1,1,,A,15MvK1PP00o?Ve4E`cM0=?vT2<28,0*2B
!AIVDM,1,1,,B,H52P8FDUC=D4bf=GI;Pomq0PB330,0*66
!AIVDM,1,1,,B,15N:0PP01aG?d9NEa8eMcK4R0L2;,0*61
!AIVDM,1,1,,B,15Nv2UP000o?g1pE`6D7BG@V08:m,0*44
!AIVDM,1,1,,B,ENkb9H2`:@17W4b0h@@@@@@@@@@;WSEi:lK9800003vP000,2*09
!AIVDM,1,1,,A,15Mue30000o?<m8EeS`duH4V06Hh,0*7B
!AIVDM,1,1,,B,15NuNOPP00G?fBVE`?150?vT06Hh,0*04
!AIVDM,1,1,,B,B52Lrh00AMkupDUJPP?13waUoP06,0*48
!AIVDM,1,1,,B,35NL>rPPA0o?aJ6EdO9ERDIF00oP,0*65
!AIVDM,1,1,,B,15N5bF0P14o?lwDE`B>5cOvV2000,0*76
!AIVDM,1,1,,B,15N:5FPP1fG?rlFE`fQ5Vgwj2@QT,0*2D
!AIVDM,1,1,,B,403Ovk1v:CC<Do>jOdEdjJ?02L5U,0*45
!AIVDM,1,1,,B,403OvkAv:CC<Do?6CbEa1TO02@;r,0*77
!AIVDM,1,1,,B,15MwDf005ho?Pc<Ed5OtoJ>b00S;,0*05
!AIVDM,1,1,,A,35N:0PPOiaG?d8lEa94=cs6`0220,0*39
!AIVDM,1,1,,A,15NGdT?P00G@0I<Ea2s1@?vd2H<S,0*1A
!AIVDM,1,1,,A,15Mw0O0P01G?a2`E`WgBcgvp00Rv,0*3C
!AIVDM,1,1,,B,15NFO6gP01G?ec<E`DL0N?vb26Hh,0*78
!AIVDM,1,1,,B,E>kb9Hq9S@0`8@:9ah;0TahHW@@;VrJf:kprh00003vP100,2*38
!AIVDM,1,1,,A,35NhLAPOh4o?a4VEdniAcV2f00uh,0*00
!AIVDM,1,1,,A,15N9<L0P00o?VGTEaA>LGwvd2<2=,0*64
!AIVDM,1,1,,A,35N5bF0P14o?m0VE`B2Ubwvd22fQ,0*71
!AIVDM,1,1,,A,15N0I50001o?Q6fEg204t6Nf0`=E,0*26
!AIVDM,1,1,,A,B52PpM@04mka2M5IkIk67wc5kP06,0*7A
!AIVDM,1,1,,A,15O09UP002G?`8JE`WMP040b0h=J,0*2F
!AIVDM,1,1,,B,B52`kj000=klQp5JbA?Q3wc5oP06,0*33
!AIVDM,1,1,,B,15NHHAP000G?e7@E`GIUgoCp0pAb,0*02
!AIVDM,1,1,,B,15Mw0BPP00G?a52E``1J7?vF086U,0*1A
!AIVDM,1,1,,A,35NL>rPPA0o?aKbEdNrmNlGN00oA,0*72
!AIVDM,1,1,,B,?03Ovk1E6T50D00,2*1E
!AIVDM,1,1,,B,B52`pg@00=kof7UJ81WQ3wcUoP06,0*64
!AIVDM,1,1,,B,34QoA@5000G?j4REWD362ELh0DQr,0*3B
!AIVDM,1,1,,B,15NIot0P@0o?e@@E`Bqe4Fv<083Q,0*39
!AIVDM,1,1,,B,15MwDf005io?PS8Ed6q<p:>j08>C,0*3F
!AIVDM,1,1,,A,19NSIa0wQto;OmlED0aiWADJ0<0H,0*36
!AIVDM,1,1,,A,15ND4kP000G@7wdE`2aquh`h0`>N,0*06
!AIVDM,1,1,,A,15MwlV0P00G@7E8E`4?c0ww:00S5,0*2E
!AIVDM,1,1,,A,15NECtPP00G?aMRE`W0Vsgvj20SO,0*1A
!AIVDM,1,1,,B,15NBTh0000G@6P6Ea5BS0I8h0D1t,0*5E
!AIVDM,1,1,,B,3815:k1001o?up4EUfS=G7@j0000,0*58
!AIVDM,1,1,,B,35NL>rPPA1o?aLTEdNkUR4ER0000,0*14
!AIVDM,1,1,,A,15Mw0=P001o?aGtE`Vv2Clbl00Ru,0*47
!AIVDM,1,1,,A,15N5bF0P13o?m1nE`AoUcwvj2000,0*29
!AIVDM,1,1,,B,B52RRd@0>UkNKT5IWEJO;wdUCP06,0*26
!AIVDM,1,1,,B,852NTq1Kf:fACo>b=O083dBti0hN:e;fGqqb47Grnwq9a>78c6q?,0*6F
!AIVDM,1,1,,B,1<E4B?PP1RG?jR2Eap35<gvn06Hh,0*02
!AIVDM,1,1,,A,15Mva0PP14G?m34E`Ah5dwvn2D2D,0*6D
!AIVDM,1,1,,A,15Mv4a0010G?g=hE`<M8Q6Nn0D2D,0*2E
!AIVDM,1,1,,A,15MwDf005io?PO2Ed7ULp:<n06Hh,0*2A
!AIVDM,1,1,,B,E>kb9I99S@0`8@:9ah;0TahI7@@;V4=v:nv;h00003vP100,2*7B
!AIVDM,1,1,,B,15MjHDP000o?<WhEeW5uLIVn0D1i,0*1F
!AIVDM,1,1,,B,152Hn;?P00G?nB4Ed9Tj6?vn2D2k,0*19
!AIVDM,1,1,,B,15NhLAPOh6o?a4`EdnjQHFFn06Hh,0*5A
!AIVDM,2,1,1,B,852NTq1KfJ8pp;=G@QJfw`npsOm8UtjJ<C3l7<O`>ku4O<oRLLIDOM`c,0*62
!AIVDM,2,2,1,B,Q3<6LJKvHVtOg<fNMf<fFn6>iwrwv1afk`MN13t,2*67
!AIVDM,1,1,,B,15N6Ll0P00o@5gPEbhh>4?vn2<29,0*3B
!AIVDM,2,1,2,A,59NSHQ`2CM?hCDT?F20<TDhv0@UHU8LTpLu8@616CHI<B>2V0ADR@j3C,0*4D
!AIVDM,2,2,2,A,kQ;80hH88888880,2*37
!AIVDM,1,1,,B,15MvK1PP00o?Ve4E`cM=Owvp2@@R,0*5F
!AIVDM,1,1,,A,15Nv2UP000o?g1tE`6CGBG@r0@@S,0*2C
$GPGGA,165005.445,3806.5206,N,12251.7776,W,1,00,14.1,-0.0,M,,,,0000*0E
$GPGSA,A,2,,,,,,,,,,,,,14.1,14.1,0.0*33
$GPRMC,165005.445,A,3806.5206,N,12251.7776,W,000.0,000.0,200818,,,A*75
$GPGGA,165006.445,3806.5202,N,12251.7777,W,1,03,20.0,0.2,M,,,,0000*22
$GPGSA,A,2,06,02,19,,,,,,,,,,20.0,20.0,20.0*0D
$GPRMC,165006.445,A,3806.5202,N,12251.7777,W,001.6,192.2,200818,,,A*7C
$GPGGA,165007.445,3806.5201,N,12251.7777,W,1,03,20.0,0.3,M,,,,0000*21
$GPGSA,A,2,06,02,19,,,,,,,,,,20.0,20.0,20.0*0D
$GPGSV,2,1,06,06,49,052,37,02,75,171,34,19,32,057,36,12,00,000,37*7D
$GPGSV,2,2,06,17,00,000,40,24,43,221,*7D
$GPRMC,165007.445,A,3806.5201,N,12251.7777,W,001.7,192.6,200818,,,A*7B
$GPGGA,165008.445,3806.5198,N,12251.7778,W,1,03,20.0,0.4,M,,,,0000*25
$GPGSA,A,2,06,02,19,,,,,,,,,,20.0,20.0,20.0*0D
$GPRMC,165008.445,A,3806.5198,N,12251.7778,W,001.5,190.8,200818,,,A*76
$GPGGA,165009.445,3806.5195,N,12251.7779,W,1,03,20.0,0.3,M,,,,0000*2F
$GPGSA,A,2,06,02,19,,,,,,,,,,20.0,20.0,20.0*0D
$GPRMC,165009.445,A,3806.5195,N,12251.7779,W,001.3,190.4,200818,,,A*71
$GPGGA,165010.445,3806.5195,N,12251.7779,W,1,00,20.0,0.4,M,,,,0000*23
$GPGSA,A,2,,,,,,,,,,,,,20.0,20.0,20.0*01
$GPGSV,2,1,06,06,49,052,26,02,75,171,35,19,32,057,32,12,00,000,27*79
$GPGSV,2,2,06,17,00,000,33,24,43,221,*79
$GPRMC,165010.445,A,3806.5195,N,12251.7779,W,001.3,190.4,200818,,,A*79
$GPGGA,165011.445,3806.5191,N,12251.7780,W,1,03,20.0,0.5,M,,,,0000*22
$GPGSA,A,2,06,02,19,,,,,,,,,,20.0,20.0,20.0*0D
$GPRMC,165011.445,A,3806.5191,N,12251.7780,W,001.0,186.0,200818,,,A*7A
$GPGGA,165012.445,3806.5185,N,12251.7781,W,1,03,20.0,0.7,M,,,,0000*27
$GPGSA,A,2,06,02,19,,,,,,,,,,20.0,20.0,20.0*0D
$GPRMC,165012.445,A,3806.5185,N,12251.7781,W,001.2,186.5,200818,,,A*7A
$GPGGA,165013.445,3806.5184,N,12251.7781,W,1,03,20.0,0.6,M,,,,0000*26
$GPGSA,A,2,06,02,19,,,,,,,,,,20.0,20.0,20.0*0D
$GPGSV,2,1,06,06,49,052,32,02,75,171,32,19,32,057,26,12,00,000,31*79
$GPGSV,2,2,06,17,00,000,38,24,43,221,*72
$GPRMC,165013.445,A,3806.5184,N,12251.7781,W,001.0,182.4,200818,,,A*7D
$GPGGA,165014.445,3806.5182,N,12251.7782,W,1,03,20.0,0.1,M,,,,0000*23
$GPGSA,A,2,06,02,19,,,,,,,,,,20.0,20.0,20.0*0D
$GPRMC,165014.445,A,3806.5182,N,12251.7782,W,000.9,183.0,200818,,,A*72
$GPGGA,165015.445,3806.5182,N,12251.7779,W,1,03,20.0,0.4,M,,,,0000*23
$GPGSA,A,2,06,02,19,,,,,,,,,,20.0,20.0,20.0*0D
$GPRMC,165015.445,A,3806.5182,N,12251.7779,W,000.0,183.0,200818,,,A*7E
$GPGGA,165016.445,3806.5182,N,12251.7781,W,1,03,20.0,-0.1,M,,,,0000*0F
$GPGSA,A,2,06,02,19,,,,,,,,,,20.0,20.0,20.0*0D
$GPGSV,2,1,06,06,49,052,32,02,75,171,27,19,32,057,33,12,00,000,30*78
$GPGSV,2,2,06,17,00,000,34,24,43,221,*7E
$GPRMC,165016.445,A,3806.5182,N,12251.7781,W,000.0,183.0,200818,,,A*7A
$GPGGA,165017.445,3806.5183,N,12251.7779,W,1,03,20.0,-0.0,M,,,,0000*09
$GPGSA,A,2,06,02,19,,,,,,,,,,20.0,20.0,20.0*0D
$GPRMC,165017.445,A,3806.5183,N,12251.7779,W,000.0,183.0,200818,,,A*7D
$GPGGA,165018.445,3806.5183,N,12251.7782,W,1,03,20.0,-0.6,M,,,,0000*04
$GPGSA,A,2,06,02,19,,,,,,,,,,20.0,20.0,20.0*0D
$GPRMC,165018.445,A,3806.5183,N,12251.7782,W,000.0,183.0,200818,,,A*76
$GPGGA,165019.445,3806.5186,N,12251.7783,W,1,03,20.0,-0.1,M,,,,0000*06
$GPGSA,A,2,06,02,19,,,,,,,,,,20.0,20.0,20.0*0D
$GPGSV,2,1,06,06,49,052,36,02,75,171,28,19,32,057,33,12,00,000,28*7A
$GPGSV,2,2,06,17,00,000,31,24,43,221,*7B
$GPRMC,165019.445,A,3806.5186,N,12251.7783,W,000.0,183.0,200818,,,A*73
$GPGGA,165020.445,3806.5189,N,12251.7787,W,1,03,20.0,0.2,M,,,,0000*29
$GPGSA,A,2,06,02,19,,,,,,,,,,20.0,20.0,20.0*0D
$GPRMC,165020.445,A,3806.5189,N,12251.7787,W,000.0,183.0,200818,,,A*72
$GPGGA,165021.445,3806.5189,N,12251.7795,W,1,03,20.0,-0.1,M,,,,0000*05
$GPGSA,A,2,06,02,19,,,,,,,,,,20.0,20.0,20.0*0D
$GPRMC,165021.445,A,3806.5189,N,12251.7795,W,000.0,183.0,200818,,,A*70
$GPGGA,165022.445,3806.5190,N,12251.7801,W,1,03,20.0,-0.4,M,,,,0000*09
$GPGSA,A,2,06,02,19,,,,,,,,,,20.0,20.0,20.0*0D
$GPGSV,2,1,06,06,49,052,38,02,75,171,25,19,32,057,42,12,00,000,32*74
$GPGSV,2,2,06,17,00,000,41,24,43,221,*7C
$GPRMC,165022.445,A,3806.5190,N,12251.7801,W,000.0,183.0,200818,,,A*79
$GPGGA,165023.445,3806.5191,N,12251.7803,W,1,03,20.0,0.2,M,,,,0000*20
$GPGSA,A,2,06,02,19,,,,,,,,,,20.0,20.0,20.0*0D
$GPRMC,165023.445,A,3806.5191,N,12251.7803,W,000.0,183.0,200818,,,A*7B
$GPGGA,165024.445,3806.5194,N,12251.7811,W,1,03,20.0,0.6,M,,,,0000*25
$GPGSA,A,2,06,02,19,,,,,,,,,,20.0,20.0,20.0*0D
$GPRMC,165024.445,A,3806.5194,N,12251.7811,W,000.8,307.4,200818,,,A*78
$GPGGA,165025.445,3806.5194,N,12251.7816,W,1,03,20.0,0.9,M,,,,0000*2C
$GPGSA,A,2,06,02,19,,,,,,,,,,20.0,20.0,20.0*0D
$GPGSV,2,1,06,06,49,052,39,02,75,171,29,19,32,057,40,12,00,000,34*7D
$GPGSV,2,2,06,17,00,000,37,24,43,221,*7D
$GPRMC,165025.445,A,3806.5194,N,12251.7816,W,001.0,291.3,200818,,,A*7E
$GPGGA,165026.445,3806.5194,N,12251.7816,W,1,03,20.0,0.8,M,,,,0000*2E
$GPGSA,A,2,06,02,19,,,,,,,,,,20.0,20.0,20.0*0D
$GPRMC,165026.445,A,3806.5194,N,12251.7816,W,001.0,281.3,200818,,,A*7C
$GPGGA,165027.445,3806.5193,N,12251.7818,W,1,03,20.0,0.7,M,,,,0000*29
$GPGSA,A,2,06,02,19,,,,,,,,,,20.0,20.0,20.0*0D
$GPRMC,165027.445,A,3806.5193,N,12251.7818,W,001.0,275.3,200818,,,A*7F
$GPGGA,165028.445,3806.5191,N,12251.7817,W,1,03,20.0,0.6,M,,,,0000*2A
$GPGSA,A,2,06,02,19,,,,,,,,,,20.0,20.0,20.0*0D
$GPGSV,2,1,06,06,49,052,37,02,75,170,29,19,32,057,33,12,00,000,27*74
$GPGSV,2,2,06,17,00,000,37,24,43,221,*7D
$GPRMC,165028.445,A,3806.5191,N,12251.7817,W,001.0,263.9,200818,,,A*70
$GPGGA,165029.445,3806.5370,N,12251.8161,W,1,04,282.0,12.4,M,,,,0000*2D
$GPGSA,A,2,06,02,19,17,,,,,,,,,331.8,282.0,174.8*32
$GPRMC,165029.445,A,3806.5370,N,12251.8161,W,000.0,263.9,200818,,,A*7A
$GPGGA,165030.445,3806.5352,N,12251.8105,W,1,04,277.7,7.8,M,,,,0000*12
$GPGSA,A,2,06,02,19,17,,,,,,,,,326.7,277.7,172.2*3A
$GPRMC,165030.445,A,3806.5352,N,12251.8105,W,001.0,165.2,200818,,,A*7F
$GPGGA,165031.445,3806.5348,N,12251.8128,W,1,04,272.8,5.8,M,,,,0000*1F
$GPGSA,A,2,06,02,19,17,,,,,,,,,321.0,272.8,169.2*3A
$GPGSV,2,1,06,06,49,052,33,02,75,170,28,19,32,057,34,12,00,000,37*77
$GPGSV,2,2,06,17,10,067,33,24,43,221,*79
$GPRMC,165031.445,A,3806.5348,N,12251.8128,W,001.4,169.7,200818,,,A*77
$GPGGA,165032.445,3806.5354,N,12251.8167,W,1,04,270.8,3.4,M,,,,0000*12
$GPGSA,A,2,06,02,19,17,,,,,,,,,318.7,270.8,168.0*36
$GPRMC,165032.445,A,3806.5354,N,12251.8167,W,001.6,163.9,200818,,,A*74
$GPGGA,165033.445,3806.5354,N,12251.8167,W,1,00,270.8,3.4,M,,,,0000*17
$GPGSA,A,2,,,,,,,,,,,,,318.7,270.8,168.0*3C
$GPRMC,165033.445,A,3806.5354,N,12251.8167,W,001.6,163.9,200818,,,A*75
$GPGGA,165034.445,3806.5351,N,12251.8164,W,1,04,260.1,2.3,M,,,,0000*1C
$GPGSA,A,2,06,02,19,17,,,,,,,,,306.1,260.1,161.5*3B
$GPGSV,2,1,06,06,49,052,38,02,75,170,27,19,32,057,39,12,00,000,33*7A
$GPGSV,2,2,06,17,10,067,32,24,43,221,*78
$GPRMC,165034.445,A,3806.5351,N,12251.8164,W,001.8,182.9,200818,,,A*75
$GPGGA,165035.445,3806.5344,N,12251.8154,W,1,04,256.6,1.3,M,,,,0000*1B
$GPGSA,A,2,06,02,19,17,,,,,,,,,302.0,256.6,159.3*31
$GPRMC,165035.445,A,3806.5344,N,12251.8154,W,002.3,160.6,200818,,,A*78
$GPGGA,165036.445,3806.5337,N,12251.8153,W,1,03,20.0,0.6,M,,,,0000*2D
$GPGSA,A,2,06,19,17,,,,,,,,,,20.0,20.0,20.0*09
$GPRMC,165036.445,A,3806.5337,N,12251.8153,W,002.0,174.8,200818,,,A*70
$GPGGA,165037.445,3806.5331,N,12251.8152,W,1,03,20.0,1.1,M,,,,0000*2D
$GPGSA,A,2,06,02,17,,,,,,,,,,20.0,20.0,20.0*03
$GPGSV,2,1,06,06,49,052,33,02,75,170,34,19,32,057,24,12,00,000,38*74
$GPGSV,2,2,06,17,10,067,30,24,43,221,*7A
$GPRMC,165037.445,A,3806.5331,N,12251.8152,W,002.1,162.1,200818,,,A*79
$GPGGA,165038.445,3806.5347,N,12251.8167,W,1,04,244.4,-2.2,M,,,,0000*3B
$GPGSA,A,2,06,02,19,17,,,,,,,,,287.7,244.4,151.8*38
$GPRMC,165038.445,A,3806.5347,N,12251.8167,W,004.2,148.8,200818,,,A*75
$GPGGA,165039.445,3806.5348,N,12251.8162,W,1,04,237.9,-0.8,M,,,,0000*31
$GPGSA,A,2,06,02,19,17,,,,,,,,,280.1,237.9,147.9*36
$GPRMC,165039.445,A,3806.5348,N,12251.8162,W,002.4,153.2,200818,,,A*7E
$GPGGA,165040.445,3806.5343,N,12251.8164,W,1,04,235.2,-0.1,M,,,,0000*32
$GPGSA,A,2,06,02,19,17,,,,,,,,,276.9,235.2,146.2*34
$GPGSV,2,1,06,06,49,052,38,02,75,170,30,19,32,057,29,12,00,000,33*7D
$GPGSV,2,2,06,17,10,067,29,24,43,221,*72
$GPRMC,165040.445,A,3806.5343,N,12251.8164,W,002.0,149.7,200818,,,A*77
$GPGGA,165041.445,3806.5341,N,12251.8155,W,1,04,232.1,0.1,M,,,,0000*1A
$GPGSA,A,2,06,02,19,17,,,,,,,,,273.2,232.1,144.3*3D
$GPRMC,165041.445,A,3806.5341,N,12251.8155,W,001.4,144.8,200818,,,A*73
$GPGGA,165042.445,3806.5330,N,12251.8142,W,1,03,20.0,-0.2,M,,,,0000*00
$GPGSA,A,2,06,02,17,,,,,,,,,,20.0,20.0,20.0*03
$GPRMC,165042.445,A,3806.5330,N,12251.8142,W,002.1,161.2,200818,,,A*7B
$GPGGA,165043.445,3806.5351,N,12251.8159,W,1,04,225.8,0.4,M,,,,0000*1F
$GPGSA,A,2,06,02,19,17,,,,,,,,,266.0,225.8,140.5*36
$GPGSV,2,1,06,06,49,052,39,02,75,170,28,19,32,057,36,12,00,000,34*7C
$GPGSV,2,2,06,17,10,067,38,24,43,221,*72
$GPRMC,165043.445,A,3806.5351,N,12251.8159,W,002.0,170.6,200818,,,A*72
$GPGGA,165044.445,3806.5326,N,12251.8134,W,1,04,221.5,0.1,M,,,,0000*1F
$GPGSA,A,2,06,02,19,17,,,,,,,,,260.9,221.5,137.8*3D
$GPRMC,165044.445,A,3806.5326,N,12251.8134,W,002.8,165.1,200818,,,A*75
$GPGGA,165045.445,3806.5317,N,12251.8130,W,1,04,220.0,-0.8,M,,,,0000*38
$GPGSA,A,2,06,02,19,17,,,,,,,,,259.1,220.0,136.9*3B
$GPRMC,165045.445,A,3806.5317,N,12251.8130,W,002.8,163.6,200818,,,A*73
$GPGGA,165046.445,3806.5311,N,12251.8111,W,1,04,217.3,-2.4,M,,,,0000*37
$GPGSA,A,2,06,02,19,17,,,,,,,,,255.9,217.3,135.2*30
$GPGSV,2,1,07,06,49,052,38,02,75,170,31,19,32,057,33,12,00,000,35*70
$GPGSV,2,2,07,17,10,067,38,24,43,221,,25,27,311,*42
$GPRMC,165046.445,A,3806.5311,N,12251.8111,W,001.4,157.8,200818,,,A*73
$GPGGA,165047.445,3806.5316,N,12251.8129,W,1,04,213.1,-1.0,M,,,,0000*3B
$GPGSA,A,2,06,02,19,17,,,,,,,,,251.0,213.1,132.7*39
$GPRMC,165047.445,A,3806.5316,N,12251.8129,W,002.2,163.3,200818,,,A*77
$GPGGA,165048.445,3806.5309,N,12251.8125,W,1,03,20.0,-1.1,M,,,,0000*03
$GPGSA,A,2,06,19,17,,,,,,,,,,20.0,20.0,20.0*09
$GPRMC,165048.445,A,3806.5309,N,12251.8125,W,002.4,160.1,200818,,,A*7D
$GPGGA,165049.445,3806.5302,N,12251.8125,W,1,04,205.6,-1.8,M,,,,0000*34
$GPGSA,A,2,06,02,19,17,,,,,,,,,242.3,205.6,128.1*35
$GPGSV,2,1,07,06,49,052,34,02,75,170,31,19,32,057,31,12,00,000,34*7F
$GPGSV,2,2,07,17,10,067,38,24,43,221,,25,27,311,*42
$GPRMC,165049.445,A,3806.5302,N,12251.8125,W,002.1,154.1,200818,,,A*75
$GPGGA,165050.445,3806.5284,N,12251.8103,W,1,04,203.8,-2.7,M,,,,0000*33
$GPGSA,A,2,06,02,19,17,,,,,,,,,240.2,203.8,127.0*30
$GPRMC,165050.445,A,3806.5284,N,12251.8103,W,002.7,159.3,200818,,,A*7F
$GPGGA,165051.445,3806.5276,N,12251.8090,W,1,04,200.9,-2.2,M,,,,0000*33
$GPGSA,A,2,06,02,19,17,,,,,,,,,236.7,200.9,125.2*36
$GPRMC,165051.445,A,3806.5276,N,12251.8090,W,002.8,148.5,200818,,,A*71
$GPGGA,165052.445,3806.5267,N,12251.8077,W,1,03,20.0,-1.8,M,,,,0000*0E
$GPGSA,A,2,06,19,17,,,,,,,,,,20.0,20.0,20.0*09
$GPGSV,2,1,07,06,49,052,37,02,75,170,25,19,32,057,38,12,00,000,35*71
$GPGSV,2,2,07,17,10,067,38,24,43,221,,25,27,311,*42
$GPRMC,165052.445,A,3806.5267,N,12251.8077,W,002.6,153.7,200818,,,A*7D
$GPGGA,165053.445,3806.5272,N,12251.8101,W,1,05,3.7,-0.7,M,,,,0000*35
$GPGSA,A,3,06,02,19,12,17,,,,,,,,5.4,3.7,4.0*3A
$GPRMC,165053.445,A,3806.5272,N,12251.8101,W,002.7,157.1,200818,,,A*7B
$GPGGA,165054.445,3806.5266,N,12251.8101,W,1,05,3.7,-0.7,M,,,,0000*37
$GPGSA,A,3,06,02,19,12,17,,,,,,,,5.4,3.7,4.0*3A
$GPRMC,165054.445,A,3806.5266,N,12251.8101,W,002.4,160.1,200818,,,A*7E
$GPGGA,165055.445,3806.5270,N,12251.8119,W,1,05,3.7,-0.5,M,,,,0000*3A
$GPGSA,A,3,06,02,19,12,17,,,,,,,,5.4,3.7,4.0*3A
$GPGSV,2,1,07,06,49,052,33,02,75,170,29,19,32,057,38,12,70,338,38*7B
$GPGSV,2,2,07,17,10,067,40,24,43,221,,25,27,311,*4D
$GPRMC,165055.445,A,3806.5270,N,12251.8119,W,002.4,173.1,200818,,,A*73
$GPGGA,165056.445,3806.5265,N,12251.8117,W,1,05,3.7,-0.6,M,,,,0000*30
$GPGSA,A,3,06,02,19,12,17,,,,,,,,5.4,3.7,4.0*3A
$GPRMC,165056.445,A,3806.5265,N,12251.8117,W,002.2,167.5,200818,,,A*7D
$GPGGA,165057.445,3806.5260,N,12251.8117,W,1,05,3.7,-0.7,M,,,,0000*35
$GPGSA,A,3,06,02,19,12,17,,,,,,,,5.4,3.7,4.0*3A
$GPRMC,165057.445,A,3806.5260,N,12251.8117,W,002.5,166.7,200818,,,A*7D
$GPGGA,165058.445,3806.5254,N,12251.8117,W,1,05,3.7,-0.5,M,,,,0000*3F
$GPGSA,A,3,06,02,19,12,17,,,,,,,,5.4,3.7,4.0*3A
$GPGSV,2,1,07,06,49,052,33,02,75,170,33,19,32,057,28,12,70,338,36*7F
$GPGSV,2,2,07,17,10,067,37,24,43,221,,25,27,312,*4E
$GPRMC,165058.445,A,3806.5254,N,12251.8117,W,002.4,164.0,200818,,,A*71
$GPGGA,165059.445,3806.5250,N,12251.8118,W,1,05,3.7,0.2,M,,,,0000*1F
$GPGSA,A,3,06,02,19,12,17,,,,,,,,5.4,3.7,4.0*3A
$GPRMC,165059.445,A,3806.5250,N,12251.8118,W,002.4,157.0,200818,,,A*7B
$GPGGA,165100.445,3806.5244,N,12251.8116,W,1,05,3.7,0.2,M,,,,0000*19
$GPGSA,A,3,06,02,19,12,17,,,,,,,,5.4,3.7,4.0*3A
$GPRMC,165100.445,A,3806.5244,N,12251.8116,W,002.4,157.3,200818,,,A*7E
$GPGGA,165101.445,3806.5238,N,12251.8113,W,1,05,3.7,0.4,M,,,,0000*10
$GPGSA,A,3,06,02,19,12,17,,,,,,,,5.4,3.7,4.0*3A
$GPGSV,2,1,07,06,48,052,37,02,75,170,27,19,32,057,34,12,70,338,36*72
$GPGSV,2,2,07,17,10,067,39,24,43,221,,25,27,312,*40
$GPRMC,165101.445,A,3806.5238,N,12251.8113,W,002.5,157.6,200818,,,A*75
$GPGGA,165102.445,3806.5231,N,12251.8109,W,1,05,3.7,0.5,M,,,,0000*10
$GPGSA,A,3,06,02,19,12,17,,,,,,,,5.4,3.7,4.0*3A
$GPRMC,165102.445,A,3806.5231,N,12251.8109,W,002.5,158.1,200818,,,A*7C
$GPGGA,165103.445,3806.5225,N,12251.8107,W,1,05,3.7,0.8,M,,,,0000*17
$GPGSA,A,3,06,02,19,12,17,,,,,,,,5.4,3.7,4.0*3A
$GPRMC,165103.445,A,3806.5225,N,12251.8107,W,002.4,161.5,200818,,,A*79
$GPGGA,165104.445,3806.5218,N,12251.8107,W,1,05,3.7,0.3,M,,,,0000*15
$GPGSA,A,3,06,02,19,12,17,,,,,,,,5.5,3.7,4.0*3B
$GPGSV,2,1,07,06,48,052,38,02,75,170,25,19,32,057,39,12,70,338,32*76
$GPGSV,2,2,07,17,10,067,39,24,43,221,,25,27,312,*40
$GPRMC,165104.445,A,3806.5218,N,12251.8107,W,002.4,165.6,200818,,,A*77
$GPGGA,165105.445,3806.5211,N,12251.8108,W,1,05,3.7,0.4,M,,,,0000*15
$GPGSA,A,3,06,02,19,12,17,,,,,,,,5.5,3.7,4.0*3B
$GPRMC,165105.445,A,3806.5211,N,12251.8108,W,002.5,170.3,200818,,,A*70
$GPGGA,165106.445,3806.5203,N,12251.8108,W,1,05,3.7,0.0,M,,,,0000*11
$GPGSA,A,3,06,02,19,12,17,,,,,,,,5.5,3.7,4.0*3B
$GPRMC,165106.445,A,3806.5203,N,12251.8108,W,002.6,169.4,200818,,,A*7C
$GPGGA,165107.445,3806.5196,N,12251.8106,W,1,05,3.7,0.1,M,,,,0000*10
$GPGSA,A,3,06,02,19,12,17,,,,,,,,5.5,3.7,4.0*3B
$GPGSV,2,1,07,06,48,052,39,02,75,170,27,19,32,057,38,12,70,338,33*75
$GPGSV,2,2,07,17,10,067,39,24,43,221,,25,27,312,*40
$GPRMC,165107.445,A,3806.5196,N,12251.8106,W,002.6,167.8,200818,,,A*7E
$GPGGA,165108.445,3806.5190,N,12251.8104,W,1,05,3.7,0.8,M,,,,0000*12
$GPGSA,A,3,06,02,19,12,17,,,,,,,,5.5,3.7,4.0*3B
$GPRMC,165108.445,A,3806.5190,N,12251.8104,W,002.5,167.1,200818,,,A*7F
$GPGGA,165109.445,3806.5184,N,12251.8103,W,1,05,3.7,1.6,M,,,,0000*1E
$GPGSA,A,3,06,02,19,12,17,,,,,,,,5.5,3.7,4.0*3B
$GPRMC,165109.445,A,3806.5184,N,12251.8103,W,002.5,168.1,200818,,,A*73
$GPGGA,165110.445,3806.5179,N,12251.8109,W,1,05,3.7,1.5,M,,,,0000*1D
$GPGSA,A,3,06,02,19,12,17,,,,,,,,5.5,3.7,4.0*3B
$GPGSV,2,1,07,06,48,052,36,02,75,170,27,19,32,057,40,12,70,338,34*72
$GPGSV,2,2,07,17,10,067,40,24,43,221,,25,27,312,*4E
$GPRMC,165110.445,A,3806.5179,N,12251.8109,W,002.4,172.9,200818,,,A*71
$GPGGA,165111.445,3806.5172,N,12251.8113,W,1,05,3.7,1.0,M,,,,0000*19
$GPGSA,A,3,06,02,19,12,17,,,,,,,,5.5,3.7,4.0*3B
$GPRMC,165111.445,A,3806.5172,N,12251.8113,W,002.4,178.2,200818,,,A*71
$GPGGA,165112.445,3806.5168,N,12251.8132,W,1,05,3.7,-0.6,M,,,,0000*38
$GPGSA,A,3,06,02,19,12,17,,,,,,,,5.5,3.7,4.0*3B
$GPRMC,165112.445,A,3806.5168,N,12251.8132,W,002.4,190.9,200818,,,A*77
$GPGGA,165113.445,3806.5161,N,12251.8136,W,1,04,24.0,-1.0,M,,,,0000*00
$GPGSA,A,3,06,19,12,17,,,,,,,,,25.0,24.0,7.2*3D
$GPGSV,2,1,07,06,48,052,38,02,75,170,28,19,32,057,41,12,70,338,35*73
$GPGSV,2,2,07,17,10,067,39,24,43,221,,25,27,312,*40
$GPRMC,165113.445,A,3806.5161,N,12251.8136,W,002.4,190.1,200818,,,A*73
$GPGGA,165114.445,3806.5155,N,12251.8135,W,1,04,154.2,-1.3,M,,,,0000*34
$GPGSA,A,2,06,02,19,17,,,,,,,,,181.9,154.2,96.5*00
$GPRMC,165114.445,A,3806.5155,N,12251.8135,W,002.3,187.1,200818,,,A*71
$GPGGA,165115.445,3806.5151,N,12251.8134,W,1,05,3.7,-1.2,M,,,,0000*36
$GPGSA,A,3,06,02,19,12,17,,,,,,,,5.5,3.7,4.0*3B
$GPRMC,165115.445,A,3806.5151,N,12251.8134,W,002.1,186.1,200818,,,A*76
$GPGGA,165116.445,3806.5141,N,12251.8138,W,1,05,3.7,-1.7,M,,,,0000*3D
$GPGSA,A,3,06,02,19,12,17,,,,,,,,5.5,3.7,4.0*3B
$GPGSV,2,1,07,06,48,052,38,02,75,170,28,19,32,057,42,12,70,338,37*72
$GPGSV,2,2,07,17,10,067,40,24,43,221,,25,27,312,*4E
$GPRMC,165116.445,A,3806.5141,N,12251.8138,W,002.3,189.4,200818,,,A*70
$GPGGA,165117.445,3806.5134,N,12251.8144,W,1,05,3.7,-1.9,M,,,,0000*3B
$GPGSA,A,3,06,02,19,12,17,,,,,,,,5.5,3.7,4.0*3B
$GPRMC,165117.445,A,3806.5134,N,12251.8144,W,002.4,192.9,200818,,,A*78
$GPGGA,165118.445,3806.5127,N,12251.8149,W,1,05,3.7,-2.4,M,,,,0000*35
$GPGSA,A,3,06,02,19,12,17,,,,,,,,5.5,3.7,4.0*3B
$GPRMC,165118.445,A,3806.5127,N,12251.8149,W,002.5,194.2,200818,,,A*74
$GPGGA,165119.445,3806.5118,N,12251.8154,W,1,05,3.7,-2.7,M,,,,0000*37
$GPGSA,A,3,06,02,19,12,17,,,,,,,,5.5,3.7,4.0*3B
$GPGSV,2,1,07,06,48,052,38,02,75,170,28,19,32,057,44,12,70,338,34*77
$GPGSV,2,2,07,17,10,067,40,24,42,220,,25,27,312,*4E
$GPRMC,165119.445,A,3806.5118,N,12251.8154,W,002.6,196.4,200818,,,A*72
$GPGGA,165120.445,3806.5109,N,12251.8155,W,1,05,3.7,-3.3,M,,,,0000*39
$GPGSA,A,3,06,02,19,12,17,,,,,,,,5.5,3.7,4.0*3B
$GPRMC,165120.445,A,3806.5109,N,12251.8155,W,002.6,192.5,200818,,,A*7C
$GPGGA,165121.445,3806.5102,N,12251.8155,W,1,05,3.7,-3.5,M,,,,0000*35
$GPGSA,A,3,06,02,19,12,17,,,,,,,,5.5,3.7,4.0*3B
$GPRMC,165121.445,A,3806.5102,N,12251.8155,W,002.6,188.7,200818,,,A*7F
$GPGGA,165122.445,3806.5101,N,12251.8169,W,1,05,3.7,-5.1,M,,,,0000*38
$GPGSA,A,3,06,02,19,12,17,,,,,,,,5.5,3.7,4.0*3B
$GPGSV,2,1,07,06,48,052,40,02,75,170,30,19,32,057,41,12,70,338,38*78
$GPGSV,2,2,07,17,10,067,38,24,42,220,,25,27,312,*41
$GPRMC,165122.445,A,3806.5101,N,12251.8169,W,002.5,191.4,200818,,,A*78
$GPGGA,165123.445,3806.5096,N,12251.8178,W,1,04,24.5,-5.9,M,,,,0000*08
$GPGSA,A,3,06,19,12,17,,,,,,,,,25.6,24.5,7.4*38
$GPRMC,165123.445,A,3806.5096,N,12251.8178,W,002.4,193.3,200818,,,A*72
$GPGGA,165124.445,3806.5084,N,12251.8179,W,1,05,3.7,-7.1,M,,,,0000*31
$GPGSA,A,3,06,02,19,12,17,,,,,,,,5.5,3.7,4.0*3B
$GPRMC,165124.445,A,3806.5084,N,12251.8179,W,002.6,190.5,200818,,,A*70
$GPGGA,165125.445,3806.5075,N,12251.8182,W,1,05,3.7,-8.9,M,,,,0000*3D
$GPGSA,A,3,06,02,19,12,17,,,,,,,,5.5,3.7,4.0*3B
$GPGSV,2,1,07,06,48,052,34,02,75,170,29,19,32,057,40,12,70,338,34*7E
$GPGSV,2,2,07,17,10,067,39,24,42,220,,25,27,312,*40
$GPRMC,165125.445,A,3806.5075,N,12251.8182,W,002.5,187.9,200818,,,A*72
$GPGGA,165126.445,3806.5076,N,12251.8179,W,1,05,3.7,-8.3,M,,,,0000*33
$GPGSA,A,3,06,02,19,12,17,,,,,,,,5.5,3.7,4.0*3B
$GPRMC,165126.445,A,3806.5076,N,12251.8179,W,002.3,182.5,200818,,,A*79
$GPGGA,165127.445,3806.5075,N,12251.8182,W,1,05,3.7,-9.1,M,,,,0000*36
$GPGSA,A,3,06,02,19,12,17,,,,,,,,5.5,3.7,4.0*3B
$GPRMC,165127.445,A,3806.5075,N,12251.8182,W,002.1,179.5,200818,,,A*79
$GPGGA,165128.445,3806.5068,N,12251.8173,W,1,05,3.7,-9.3,M,,,,0000*39
$GPGSA,A,3,06,02,19,12,17,,,,,,,,5.5,3.7,4.0*3B
$GPGSV,2,1,07,06,48,052,34,02,75,170,29,19,32,057,34,12,70,338,38*71
$GPGSV,2,2,07,17,10,068,36,24,42,220,,25,27,312,*40
$GPRMC,165128.445,A,3806.5068,N,12251.8173,W,002.1,173.2,200818,,,A*79
$GPGGA,165129.445,3806.5067,N,12251.8175,W,1,05,3.7,-9.9,M,,,,0000*3B
$GPGSA,A,3,06,02,19,12,17,,,,,,,,5.5,3.7,4.0*3B
$GPRMC,165129.445,A,3806.5067,N,12251.8175,W,002.0,172.9,200818,,,A*7A
$GPGGA,165130.445,3806.5061,N,12251.8172,W,1,05,3.7,-9.6,M,,,,0000*3D
$GPGSA,A,3,06,02,19,12,17,,,,,,,,5.5,3.7,4.0*3B
$GPRMC,165130.445,A,3806.5061,N,12251.8172,W,002.0,169.8,200818,,,A*78
$GPGGA,165131.445,3806.5058,N,12251.8175,W,1,05,3.7,-10.1,M,,,,0000*0E
$GPGSA,A,3,06,02,19,12,17,,,,,,,,5.5,3.7,4.0*3B
$GPGSV,2,1,07,06,48,052,32,02,75,170,27,19,32,057,29,12,70,338,36*7B
$GPGSV,2,2,07,17,10,068,38,24,42,220,,25,27,312,*4E
$GPRMC,165131.445,A,3806.5058,N,12251.8175,W,001.9,169.3,200818,,,A*75
$GPGGA,165132.445,3806.5050,N,12251.8184,W,1,04,25.0,-12.8,M,,,,0000*32
$GPGSA,A,3,06,19,12,17,,,,,,,,,26.1,25.0,7.6*3A
$GPRMC,165132.445,A,3806.5050,N,12251.8184,W,002.0,174.9,200818,,,A*7C
$GPGGA,165133.445,3806.5043,N,12251.8179,W,1,05,3.7,-12.7,M,,,,0000*0E
$GPGSA,A,3,06,02,19,12,17,,,,,,,,5.5,3.7,4.0*3B
$GPRMC,165133.445,A,3806.5043,N,12251.8179,W,002.0,169.4,200818,,,A*7C
$GPGGA,165134.445,3806.5039,N,12251.8174,W,1,04,4.0,-12.6,M,,,,0000*09
$GPGSA,A,3,06,02,12,17,,,,,,,,,5.8,4.0,4.3*3D
$GPGSV,2,1,07,06,48,052,33,02,75,170,31,19,32,057,29,12,70,338,37*7C
$GPGSV,2,2,07,17,10,068,35,24,42,220,,25,27,312,*43
$GPRMC,165134.445,A,3806.5039,N,12251.8174,W,001.9,165.9,200818,,,A*70
$GPGGA,165135.445,3806.5028,N,12251.8185,W,1,05,3.7,-15.4,M,,,,0000*02
$GPGSA,A,3,06,02,19,12,17,,,,,,,,5.5,3.7,4.0*3B
$GPRMC,165135.445,A,3806.5028,N,12251.8185,W,002.1,173.0,200818,,,A*7A
$GPGGA,165136.445,3806.5025,N,12251.8188,W,1,05,3.7,-16.4,M,,,,0000*02
$GPGSA,A,3,06,02,19,12,17,,,,,,,,5.5,3.7,4.0*3B
$GPRMC,165136.445,A,3806.5025,N,12251.8188,W,002.1,172.1,200818,,,A*79
$GPGGA,165137.445,3806.5018,N,12251.8184,W,1,04,4.0,-16.8,M,,,,0000*0C
$GPGSA,A,3,06,02,12,17,,,,,,,,,5.8,4.0,4.3*3D
$GPGSV,2,1,07,06,48,052,31,02,75,170,28,19,32,057,24,12,70,338,39*75
$GPGSV,2,2,07,17,10,068,32,24,42,220,,25,27,312,*44
$GPRMC,165137.445,A,3806.5018,N,12251.8184,W,002.2,167.3,200818,,,A*7F
$GPGGA,165138.445,3806.5014,N,12251.8184,W,1,05,3.7,-16.8,M,,,,0000*0E
$GPGSA,A,3,06,02,19,12,17,,,,,,,,5.5,3.7,4.0*3B
$GPRMC,165138.445,A,3806.5014,N,12251.8184,W,002.2,167.2,200818,,,A*7D
$GPGGA,165139.445,3806.5005,N,12251.8183,W,1,05,3.7,-18.1,M,,,,0000*0F
$GPGSA,A,3,06,02,19,12,17,,,,,,,,5.5,3.7,4.0*3B
$GPRMC,165139.445,A,3806.5005,N,12251.8183,W,002.3,165.5,200818,,,A*7F
$GPGGA,165140.445,3806.5006,N,12251.8184,W,1,05,3.7,-18.8,M,,,,0000*0C
$GPGSA,A,3,06,02,19,12,17,,,,,,,,5.5,3.7,4.0*3B
$GPGSV,2,1,07,06,48,052,34,02,75,170,28,19,32,057,34,12,71,339,34*7C
$GPGSV,2,2,07,17,10,068,38,24,42,220,,25,27,312,*4E
$GPRMC,165140.445,A,3806.5006,N,12251.8184,W,002.2,164.2,200818,,,A*72
$GPGGA,165141.445,3806.5001,N,12251.8187,W,1,05,3.7,-19.5,M,,,,0000*05
$GPGSA,A,3,06,02,19,12,17,,,,,,,,5.5,3.7,4.0*3B
$GPRMC,165141.445,A,3806.5001,N,12251.8187,W,002.4,170.6,200818,,,A*70
$GPGGA,165142.445,3806.5002,N,12251.8185,W,1,05,3.7,-18.3,M,,,,0000*00
$GPGSA,A,3,06,02,19,12,17,,,,,,,,5.5,3.7,4.0*3B
$GPRMC,165142.445,A,3806.5002,N,12251.8185,W,002.3,172.7,200818,,,A*76
$GPGGA,165143.445,3806.4995,N,12251.8188,W,1,05,3.7,-19.4,M,,,,0000*0C
$GPGSA,A,3,06,02,19,12,17,,,,,,,,5.5,3.7,4.0*3B
$GPGSV,2,1,07,06,48,052,37,02,75,170,28,19,32,057,40,12,71,339,34*7C
$GPGSV,2,2,07,17,10,068,40,24,42,220,,25,27,312,*41
$GPRMC,165143.445,A,3806.4995,N,12251.8188,W,002.2,176.1,200818,,,A*7F
$GPGGA,165144.445,3806.4989,N,12251.8183,W,1,05,3.7,-18.1,M,,,,0000*09
$GPGSA,A,3,06,02,19,12,17,,,,,,,,5.5,3.7,4.0*3B
$GPRMC,165144.445,A,3806.4989,N,12251.8183,W,002.2,173.6,200818,,,A*7C
$GPGGA,165145.445,3806.4984,N,12251.8196,W,1,05,3.7,-20.6,M,,,,0000*0D
$GPGSA,A,3,06,02,19,12,17,,,,,,,,5.5,3.7,4.0*3B
$GPRMC,165145.445,A,3806.4984,N,12251.8196,W,002.2,178.5,200818,,,A*7C
$GPGGA,165146.445,3806.4972,N,12251.8168,W,1,05,3.7,-18.2,M,,,,0000*09
$GPGSA,A,3,06,02,19,12,17,,,,,,,,5.5,3.7,4.0*3B
$GPGSV,2,1,07,06,48,052,40,02,75,170,27,19,32,057,40,12,71,339,44*74
$GPGSV,2,2,07,17,10,068,39,24,42,220,,25,27,312,*4F
$GPRMC,165146.445,A,3806.4972,N,12251.8168,W,002.3,176.6,200818,,,A*7B
$GPGGA,165147.445,3806.4964,N,12251.8174,W,1,04,25.8,-19.2,M,,,,0000*39
$GPGSA,A,3,06,19,12,17,,,,,,,,,27.0,25.8,8.0*3B
$GPRMC,165147.445,A,3806.4964,N,12251.8174,W,002.3,181.0,200818,,,A*7E
$GPGGA,165148.445,3806.4965,N,12251.8174,W,1,05,3.7,-18.8,M,,,,0000*06
$GPGSA,A,3,06,02,19,12,17,,,,,,,,5.5,3.7,4.0*3B
$GPRMC,165148.445,A,3806.4965,N,12251.8174,W,002.3,181.1,200818,,,A*71
$GPGGA,165149.445,3806.4964,N,12251.8173,W,1,05,3.8,-17.6,M,,,,0000*0F
$GPGSA,A,3,06,02,19,12,17,,,,,,,,5.5,3.8,4.0*34
$GPGSV,2,1,07,06,48,052,39,02,75,169,28,19,32,057,42,12,71,339,32*7E
$GPGSV,2,2,07,17,10,068,39,24,42,220,,25,27,312,*4F
$GPRMC,165149.445,A,3806.4964,N,12251.8173,W,002.3,184.3,200818,,,A*71
$GPGGA,165150.445,3806.4959,N,12251.8175,W,1,05,3.8,-18.1,M,,,,0000*07
$GPGSA,A,3,06,02,19,12,17,,,,,,,,5.5,3.8,4.0*34
$GPRMC,165150.445,A,3806.4959,N,12251.8175,W,002.4,185.0,200818,,,A*74
$GPGGA,165151.445,3806.4950,N,12251.8184,W,1,05,3.8,-19.2,M,,,,0000*03
$GPGSA,A,3,06,02,19,12,17,,,,,,,,5.5,3.8,4.0*34
$GPRMC,165151.445,A,3806.4950,N,12251.8184,W,002.4,188.5,200818,,,A*7A
$GPGGA,165152.445,3806.4944,N,12251.8189,W,1,05,3.8,-18.8,M,,,,0000*03
$GPGSA,A,3,06,02,19,12,17,,,,,,,,5.5,3.8,4.0*34
$GPGSV,2,1,07,06,48,052,39,02,75,169,27,19,32,057,41,12,71,339,38*78
$GPGSV,2,2,07,17,10,068,39,24,42,220,,25,27,312,*4F
$GPRMC,165152.445,A,3806.4944,N,12251.8189,W,002.4,191.5,200818,,,A*79
$GPGGA,165153.445,3806.4939,N,12251.8192,W,1,05,3.8,-19.6,M,,,,0000*0D
$GPGSA,A,3,06,02,19,12,17,,,,,,,,5.5,3.8,4.0*34
$GPRMC,165153.445,A,3806.4939,N,12251.8192,W,002.4,191.8,200818,,,A*75
$GPGGA,165154.445,3806.4933,N,12251.8195,W,1,04,26.2,-19.7,M,,,,0000*3A
$GPGSA,A,3,06,19,12,17,,,,,,,,,27.5,26.2,8.2*35
$GPRMC,165154.445,A,3806.4933,N,12251.8195,W,002.4,191.8,200818,,,A*7F
$GPGGA,165155.445,3806.4929,N,12251.8202,W,1,05,3.8,-20.2,M,,,,0000*0E
$GPGSA,A,3,06,02,19,12,17,,,,,,,,5.5,3.8,4.0*34
$GPGSV,2,1,07,06,48,052,25,02,75,169,27,19,32,057,29,12,71,339,33*70
$GPGSV,2,2,07,17,10,068,37,24,42,220,,25,27,312,*41
$GPRMC,165155.445,A,3806.4929,N,12251.8202,W,002.5,196.8,200818,,,A*7E
$GPGGA,165156.445,3806.4921,N,12251.8201,W,1,05,3.8,-19.9,M,,,,0000*07
$GPGSA,A,3,06,02,19,12,17,,,,,,,,5.5,3.8,4.0*34
$GPRMC,165156.445,A,3806.4921,N,12251.8201,W,002.5,195.4,200818,,,A*79
$GPGGA,165157.445,3806.4915,N,12251.8198,W,1,05,3.8,-19.0,M,,,,0000*0B
$GPGSA,A,3,06,02,19,12,17,,,,,,,,5.5,3.8,4.0*34
$GPRMC,165157.445,A,3806.4915,N,12251.8198,W,002.3,190.1,200818,,,A*7A
$GPGGA,165158.445,3806.4905,N,12251.8197,W,1,05,3.8,-18.9,M,,,,0000*02
$GPGSA,A,3,06,02,19,12,17,,,,,,,,5.5,3.8,4.0*34
$GPGSV,2,1,07,06,48,052,33,02,75,169,29,19,32,057,37,12,71,339,25*71
$GPGSV,2,2,07,17,10,068,32,24,42,220,,25,27,312,*44
$GPRMC,165158.445,A,3806.4905,N,12251.8197,W,002.3,185.4,200818,,,A*7A
$GPGGA,165159.445,3806.4902,N,12251.8199,W,1,04,105.9,-19.4,M,,,,0000*01
$GPGSA,A,2,06,02,19,17,,,,,,,,,125.3,105.9,66.9*08
$GPRMC,165159.445,A,3806.4902,N,12251.8199,W,002.3,183.8,200818,,,A*78
$GPGGA,165200.445,3806.4898,N,12251.8199,W,1,04,4.0,-19.4,M,,,,0000*05
$GPGSA,A,3,06,02,12,17,,,,,,,,,5.9,4.0,4.3*3C
$GPRMC,165200.445,A,3806.4898,N,12251.8199,W,002.3,180.2,200818,,,A*7C
$GPGGA,165201.445,3806.4888,N,12251.8195,W,1,04,26.6,-19.9,M,,,,0000*32
$GPGSA,A,3,06,19,12,17,,,,,,,,,27.9,26.6,8.4*3B
$GPGSV,2,1,07,06,48,052,34,02,75,169,22,19,32,057,32,12,71,339,35*79
$GPGSV,2,2,07,17,10,068,28,24,42,220,,25,27,312,*4F
$GPRMC,165201.445,A,3806.4888,N,12251.8195,W,002.4,171.4,200818,,,A*7F
$GPGGA,165202.445,3806.4883,N,12251.8194,W,1,04,4.0,-20.0,M,,,,0000*0E
$GPGSA,A,3,06,02,12,17,,,,,,,,,5.9,4.0,4.3*3C
$GPRMC,165202.445,A,3806.4883,N,12251.8194,W,002.4,168.2,200818,,,A*78
$GPGGA,165203.445,3806.4876,N,12251.8190,W,1,05,3.8,-20.0,M,,,,0000*0F
$GPGSA,A,3,06,02,19,12,17,,,,,,,,5.5,3.8,4.1*35
$GPRMC,165203.445,A,3806.4876,N,12251.8190,W,002.2,161.6,200818,,,A*7C
$GPGGA,165204.445,3806.4873,N,12251.8190,W,1,04,4.8,-20.3,M,,,,0000*08
$GPGSA,A,3,02,19,12,17,,,,,,,,,7.6,4.8,5.8*3D
$GPGSV,2,1,07,06,48,052,28,02,75,169,34,19,32,057,28,12,71,339,33*7E
$GPGSV,2,2,07,17,10,068,27,24,42,220,,25,27,312,*40
$GPRMC,165204.445,A,3806.4873,N,12251.8190,W,002.2,159.5,200818,,,A*76
$GPGGA,165205.445,3806.4872,N,12251.8186,W,1,04,5.6,-20.5,M,,,,0000*06
$GPGSA,A,3,06,02,19,12,,,,,,,,,12.0,5.6,10.6*3A
$GPRMC,165205.445,A,3806.4872,N,12251.8186,W,002.1,152.2,200818,,,A*7E
$GPGGA,165206.445,3806.4878,N,12251.8190,W,1,05,3.8,-21.1,M,,,,0000*04
$GPGSA,A,3,06,02,19,12,17,,,,,,,,5.5,3.8,4.1*35
$GPRMC,165206.445,A,3806.4878,N,12251.8190,W,002.0,148.0,200818,,,A*78
$GPGGA,165207.445,3806.4872,N,12251.8181,W,1,05,3.8,-21.4,M,,,,0000*0A
$GPGSA,A,3,06,02,19,12,17,,,,,,,,5.5,3.8,4.1*35
$GPGSV,2,1,07,06,48,052,29,02,75,169,27,19,32,057,33,12,71,339,33*77
$GPGSV,2,2,07,17,10,068,30,24,42,220,,25,27,312,*46
$GPRMC,165207.445,A,3806.4872,N,12251.8181,W,002.1,140.7,200818,,,A*7D
$GPGGA,165208.445,3806.4872,N,12251.8176,W,1,05,3.8,-21.2,M,,,,0000*0B
$GPGSA,A,3,06,02,19,12,17,,,,,,,,5.5,3.8,4.1*35
$GPRMC,165208.445,A,3806.4872,N,12251.8176,W,002.0,137.0,200818,,,A*7C
$GPGGA,165209.445,3806.4865,N,12251.8167,W,1,05,3.8,-21.3,M,,,,0000*0D
$GPGSA,A,3,06,02,19,12,17,,,,,,,,5.5,3.8,4.1*35
$GPRMC,165209.445,A,3806.4865,N,12251.8167,W,002.1,138.5,200818,,,A*70
$GPGGA,165210.445,3806.4863,N,12251.8163,W,1,04,4.8,-22.3,M,,,,0000*02
$GPGSA,A,3,02,19,12,17,,,,,,,,,7.6,4.8,5.8*3D
$GPGSV,2,1,07,06,48,052,30,02,75,169,29,19,32,057,32,12,71,339,32*71
$GPGSV,2,2,07,17,10,068,33,24,42,220,,25,27,312,*45
$GPRMC,165210.445,A,3806.4863,N,12251.8163,W,002.0,137.0,200818,,,A*71
$GPGGA,165211.445,3806.4853,N,12251.8149,W,1,04,27.3,-22.7,M,,,,0000*36
$GPGSA,A,3,06,19,12,17,,,,,,,,,28.6,27.3,8.7*3C
$GPRMC,165211.445,A,3806.4853,N,12251.8149,W,002.2,135.1,200818,,,A*7A
$GPGGA,165212.445,3806.4849,N,12251.8143,W,1,04,4.8,-23.0,M,,,,0000*08
$GPGSA,A,3,02,19,12,17,,,,,,,,,7.6,4.8,5.8*3D
$GPRMC,165212.445,A,3806.4849,N,12251.8143,W,002.2,133.7,200818,,,A*78
$GPGGA,165213.445,3806.4846,N,12251.8135,W,1,05,3.8,-22.8,M,,,,0000*08
$GPGSA,A,3,06,02,19,12,17,,,,,,,,5.5,3.8,4.1*35
$GPGSV,2,1,07,06,48,052,27,02,75,169,28,19,32,057,31,12,71,339,33*74
$GPGSV,2,2,07,17,10,068,33,24,42,220,,25,27,312,*45
$GPRMC,165213.445,A,3806.4846,N,12251.8135,W,002.2,128.6,200818,,,A*7C
$GPGGA,165214.445,3806.4841,N,12251.8129,W,1,05,3.8,-23.4,M,,,,0000*08
$GPGSA,A,3,06,02,19,12,17,,,,,,,,5.5,3.8,4.1*35
$GPRMC,165214.445,A,3806.4841,N,12251.8129,W,002.3,128.1,200818,,,A*77
$GPGGA,165215.445,3806.4834,N,12251.8121,W,1,05,3.8,-24.3,M,,,,0000*03
$GPGSA,A,3,06,02,19,12,17,,,,,,,,5.6,3.8,4.1*36
$GPRMC,165215.445,A,3806.4834,N,12251.8121,W,002.3,129.3,200818,,,A*7F
$GPGGA,165216.445,3806.4824,N,12251.8110,W,1,05,3.8,-24.3,M,,,,0000*03
$GPGSA,A,3,06,02,19,12,17,,,,,,,,5.6,3.8,4.1*36
$GPGSV,2,1,07,06,48,052,32,02,75,169,36,19,32,057,32,12,71,339,33*7C
$GPGSV,2,2,07,17,10,068,36,24,42,220,,25,27,312,*40
$GPRMC,165216.445,A,3806.4824,N,12251.8110,W,002.3,129.2,200818,,,A*7E
$GPGGA,165217.445,3806.4821,N,12251.8104,W,1,04,4.1,-24.3,M,,,,0000*0D
$GPGSA,A,3,06,02,12,17,,,,,,,,,5.9,4.1,4.3*3D
$GPRMC,165217.445,A,3806.4821,N,12251.8104,W,002.2,128.7,200818,,,A*7A
$GPGGA,165218.445,3806.4824,N,12251.8104,W,1,05,3.8,-25.3,M,,,,0000*09
$GPGSA,A,3,06,02,19,12,17,,,,,,,,5.6,3.8,4.1*36
$GPRMC,165218.445,A,3806.4824,N,12251.8104,W,002.0,123.6,200818,,,A*78
$GPGGA,165219.445,3806.4818,N,12251.8104,W,1,05,3.8,-26.8,M,,,,0000*0F
$GPGSA,A,3,06,02,19,12,17,,,,,,,,5.6,3.8,4.1*36
$GPGSV,2,1,07,06,48,052,32,02,76,169,28,19,32,057,33,12,71,339,31*73
$GPGSV,2,2,07,17,10,068,33,24,42,220,,25,27,312,*45
$GPRMC,165219.445,A,3806.4818,N,12251.8104,W,002.0,129.1,200818,,,A*7B
$GPGGA,165220.445,3806.4810,N,12251.8095,W,1,04,27.9,-28.0,M,,,,0000*34
$GPGSA,A,3,06,19,12,17,,,,,,,,,29.3,27.9,8.9*3C
$GPRMC,165220.445,A,3806.4810,N,12251.8095,W,002.1,128.9,200818,,,A*78
$GPGGA,165221.445,3806.4806,N,12251.8090,W,1,04,27.9,-28.4,M,,,,0000*33
$GPGSA,A,3,06,19,12,17,,,,,,,,,29.3,27.9,9.0*34
$GPRMC,165221.445,A,3806.4806,N,12251.8090,W,002.1,129.6,200818,,,A*75
$GPGGA,165222.445,3806.4800,N,12251.8086,W,1,05,3.8,-29.6,M,,,,0000*04
$GPGSA,A,3,06,02,19,12,17,,,,,,,,5.6,3.8,4.1*36
$GPGSV,2,1,08,06,48,052,27,02,76,169,30,19,32,057,27,12,71,339,28*7C
$GPGSV,2,2,08,17,10,068,36,24,42,220,,25,27,312,,05,09,158,*7F
$GPRMC,165222.445,A,3806.4800,N,12251.8086,W,002.1,132.1,200818,,,A*7A
$GPGGA,165223.445,3806.4798,N,12251.8081,W,1,05,3.8,-29.8,M,,,,0000*02
$GPGSA,A,3,06,02,19,12,17,,,,,,,,5.6,3.8,4.1*36
$GPRMC,165223.445,A,3806.4798,N,12251.8081,W,002.1,130.8,200818,,,A*79
$GPGGA,165224.445,3806.4790,N,12251.8076,W,1,05,3.8,-30.4,M,,,,0000*01
$GPGSA,A,3,06,02,19,12,17,,,,,,,,5.6,3.8,4.1*36
$GPRMC,165224.445,A,3806.4790,N,12251.8076,W,002.1,132.0,200818,,,A*74
$GPGGA,165225.445,3806.4784,N,12251.8067,W,1,04,4.1,-31.3,M,,,,0000*0C
$GPGSA,A,3,06,02,12,17,,,,,,,,,5.9,4.1,4.3*3D
$GPGSV,2,1,08,06,48,052,28,02,76,169,32,19,32,057,24,12,71,339,34*7F
$GPGSV,2,2,08,17,10,068,39,24,42,220,,25,27,312,,05,09,158,*70
$GPRMC,165225.445,A,3806.4784,N,12251.8067,W,002.1,131.8,200818,,,A*7B
$GPGGA,165226.445,3806.4782,N,12251.8062,W,1,05,3.8,-32.3,M,,,,0000*00
$GPGSA,A,3,06,02,19,12,17,,,,,,,,5.6,3.8,4.1*36
$GPRMC,165226.445,A,3806.4782,N,12251.8062,W,002.1,131.8,200818,,,A*7B
$GPGGA,165227.445,3806.4774,N,12251.8059,W,1,04,28.4,-34.3,M,,,,0000*32
$GPGSA,A,3,06,19,12,17,,,,,,,,,29.8,28.4,9.2*3F
$GPRMC,165227.445,A,3806.4774,N,12251.8059,W,002.1,134.2,200818,,,A*74
$GPGGA,165228.445,3806.4773,N,12251.8049,W,1,05,3.8,-32.9,M,,,,0000*03
$GPGSA,A,3,06,02,19,12,17,,,,,,,,5.6,3.8,4.1*36
$GPGSV,2,1,08,06,48,052,28,02,76,169,30,19,32,057,29,12,71,339,34*70
$GPGSV,2,2,08,17,10,068,36,24,42,220,,25,27,312,,05,09,158,*7F
$GPRMC,165228.445,A,3806.4773,N,12251.8049,W,002.1,131.6,200818,,,A*7C
$GPGGA,165229.445,3806.4765,N,12251.8040,W,1,05,3.8,-33.9,M,,,,0000*0D
$GPGSA,A,3,06,02,19,12,17,,,,,,,,5.6,3.8,4.1*36
$GPRMC,165229.445,A,3806.4765,N,12251.8040,W,002.1,133.4,200818,,,A*73
$GPGGA,165230.445,3806.4768,N,12251.8041,W,1,05,3.8,-34.8,M,,,,0000*0F
$GPGSA,A,3,06,02,19,12,17,,,,,,,,5.6,3.8,4.1*36
$GPRMC,165230.445,A,3806.4768,N,12251.8041,W,002.0,129.2,200818,,,A*7B
$GPGGA,165231.445,3806.4770,N,12251.8045,W,1,04,5.6,-36.7,M,,,,0000*07
$GPGSA,A,3,06,02,19,12,,,,,,,,,12.1,5.6,10.7*3A
$GPGSV,2,1,08,06,48,052,25,02,76,169,33,19,32,057,26,12,71,339,35*70
$GPGSV,2,2,08,17,10,068,30,24,42,220,,25,27,312,,05,09,158,*79
$GPRMC,165231.445,A,3806.4770,N,12251.8045,W,002.0,130.4,200818,,,A*79
$GPGGA,165232.445,3806.4765,N,12251.8045,W,1,04,28.7,-38.9,M,,,,0000*3E
$GPGSA,A,3,06,19,12,17,,,,,,,,,30.2,28.7,9.3*3F
$GPRMC,165232.445,A,3806.4765,N,12251.8045,W,002.0,130.2,200818,,,A*78
$GPGGA,165233.445,3806.4763,N,12251.8036,W,1,05,3.8,-37.5,M,,,,0000*09
$GPGSA,A,3,06,02,19,12,17,,,,,,,,5.6,3.8,4.1*36
$GPRMC,165233.445,A,3806.4763,N,12251.8036,W,002.0,128.2,200818,,,A*72
$GPGGA,165234.445,3806.4756,N,12251.8020,W,1,05,3.8,-35.8,M,,,,0000*00
$GPGSA,A,3,06,02,19,12,17,,,,,,,,5.6,3.8,4.1*36
$GPGSV,2,1,08,06,48,052,29,02,76,169,31,19,32,057,28,12,71,339,31*74
$GPGSV,2,2,08,17,10,068,36,24,42,220,,25,27,312,,05,09,158,*7F
$GPRMC,165234.445,A,3806.4756,N,12251.8020,W,002.1,128.4,200818,,,A*73
$GPGGA,165235.445,3806.4755,N,12251.8006,W,1,05,3.8,-34.6,M,,,,0000*09
$GPGSA,A,3,06,02,19,12,17,,,,,,,,5.6,3.8,4.1*36
$GPRMC,165235.445,A,3806.4755,N,12251.8006,W,002.2,122.8,200818,,,A*70
$GPGGA,165236.445,3806.4750,N,12251.8002,W,1,04,84.5,-34.8,M,,,,0000*36
$GPGSA,A,2,06,02,19,17,,,,,,,,,100.2,84.5,53.8*3D
$GPRMC,165236.445,A,3806.4750,N,12251.8002,W,002.2,129.6,200818,,,A*77
$GPGGA,165237.445,3806.4744,N,12251.7994,W,1,05,3.8,-35.0,M,,,,0000*01
$GPGSA,A,3,06,02,19,12,17,,,,,,,,5.6,3.8,4.1*36
$GPGSV,2,1,08,06,48,052,28,02,76,169,31,19,32,057,24,12,71,339,34*7C
$GPGSV,2,2,08,17,10,068,33,24,42,220,,25,27,312,,05,09,158,*7A
$GPRMC,165237.445,A,3806.4744,N,12251.7994,W,002.2,129.9,200818,,,A*75
$GPGGA,165238.445,3806.4736,N,12251.7987,W,1,05,3.8,-35.5,M,,,,0000*0C
$GPGSA,A,3,06,02,19,12,17,,,,,,,,5.6,3.8,4.1*36
$GPRMC,165238.445,A,3806.4736,N,12251.7987,W,002.3,131.5,200818,,,A*79
$GPGGA,165239.445,3806.4731,N,12251.7980,W,1,04,29.2,-35.7,M,,,,0000*3C
$GPGSA,A,3,06,19,12,17,,,,,,,,,30.8,29.2,9.6*34
$GPRMC,165239.445,A,3806.4731,N,12251.7980,W,002.4,129.9,200818,,,A*7A
$GPGGA,165240.445,3806.4727,N,12251.7972,W,1,05,3.8,-35.8,M,,,,0000*04
$GPGSA,A,3,06,02,19,12,17,,,,,,,,5.6,3.8,4.1*36
$GPGSV,2,1,08,06,48,052,27,02,76,169,29,19,32,058,25,12,71,339,31*71
$GPGSV,2,2,08,17,10,068,32,24,42,220,,25,27,312,,05,09,158,*7B
$GPRMC,165240.445,A,3806.4727,N,12251.7972,W,002.3,129.1,200818,,,A*71
$GPGGA,165241.445,3806.4722,N,12251.7967,W,1,04,29.4,-36.1,M,,,,0000*3B
$GPGSA,A,3,06,19,12,17,,,,,,,,,30.9,29.4,9.6*33
$GPRMC,165241.445,A,3806.4722,N,12251.7967,W,002.2,133.7,200818,,,A*7D
$GPGGA,165242.445,3806.4718,N,12251.7963,W,1,05,3.8,-36.1,M,,,,0000*00
$GPGSA,A,3,06,02,19,12,17,,,,,,,,5.6,3.8,4.1*36
$GPRMC,165242.445,A,3806.4718,N,12251.7963,W,002.2,134.3,200818,,,A*70
$GPGGA,165243.445,3806.4716,N,12251.7960,W,1,05,3.8,-36.6,M,,,,0000*0B
$GPGSA,A,3,06,02,19,12,17,,,,,,,,5.6,3.8,4.1*36
$GPGSV,2,1,08,06,48,052,29,02,76,169,34,19,32,058,26,12,71,339,32*73
$GPGSV,2,2,08,17,10,068,31,24,42,220,,25,27,312,,05,09,158,*78
$GPRMC,165243.445,A,3806.4716,N,12251.7960,W,002.1,133.0,200818,,,A*7B
$GPGGA,165244.445,3806.4712,N,12251.7955,W,1,04,4.1,-36.6,M,,,,0000*01
$GPGSA,A,3,06,02,12,17,,,,,,,,,6.0,4.1,4.3*37
$GPRMC,165244.445,A,3806.4712,N,12251.7955,W,002.1,132.7,200818,,,A*78
$GPGGA,165245.445,3806.4708,N,12251.7948,W,1,04,4.1,-36.8,M,,,,0000*09
$GPGSA,A,3,06,02,12,17,,,,,,,,,6.0,4.1,4.3*37
$GPRMC,165245.445,A,3806.4708,N,12251.7948,W,002.1,127.4,200818,,,A*79
$GPGGA,165246.445,3806.4703,N,12251.7940,W,1,05,3.8,-36.4,M,,,,0000*0A
$GPGSA,A,3,06,02,19,12,17,,,,,,,,5.6,3.8,4.1*36
$GPGSV,2,1,08,06,48,052,29,02,76,169,31,19,32,058,24,12,71,339,33*75
$GPGSV,2,2,08,17,10,068,34,24,42,220,,25,27,312,,05,09,158,*7D
$GPRMC,165246.445,A,3806.4703,N,12251.7940,W,002.1,126.1,200818,,,A*7D
$GPGGA,165247.445,3806.4700,N,12251.7931,W,1,05,3.8,-36.5,M,,,,0000*0F
$GPGSA,A,3,06,02,19,12,17,,,,,,,,5.6,3.8,4.1*36
$GPRMC,165247.445,A,3806.4700,N,12251.7931,W,002.2,125.2,200818,,,A*7A
$GPGGA,165248.445,3806.4696,N,12251.7920,W,1,05,3.8,-36.6,M,,,,0000*0D
$GPGSA,A,3,06,02,19,12,17,,,,,,,,5.6,3.8,4.1*36
$GPRMC,165248.445,A,3806.4696,N,12251.7920,W,002.4,121.8,200818,,,A*73
$GPGGA,165249.445,3806.4698,N,12251.7914,W,1,03,20.0,-35.8,M,,,,0000*37
$GPGSA,A,2,06,12,17,,,,,,,,,,20.0,20.0,20.0*02
$GPGSV,2,1,08,06,48,052,33,02,76,169,23,19,32,058,26,12,71,339,32*7E
$GPGSV,2,2,08,17,10,068,36,24,42,220,,25,27,312,,05,09,158,*7F
$GPRMC,165249.445,A,3806.4698,N,12251.7914,W,002.3,121.4,200818,,,A*70
$GPGGA,165250.445,3806.4693,N,12251.7909,W,1,05,3.8,-35.8,M,,,,0000*07
$GPGSA,A,3,06,02,19,12,17,,,,,,,,5.6,3.8,4.1*36
$GPRMC,165250.445,A,3806.4693,N,12251.7909,W,002.2,126.3,200818,,,A*7E
$GPGGA,165251.445,3806.4693,N,12251.7899,W,1,05,3.8,-35.2,M,,,,0000*04
$GPGSA,A,3,06,02,19,12,17,,,,,,,,5.6,3.8,4.1*36
$GPRMC,165251.445,A,3806.4693,N,12251.7899,W,002.2,124.3,200818,,,A*75
$GPGGA,165252.445,3806.4691,N,12251.7891,W,1,05,3.8,-35.3,M,,,,0000*0C
$GPGSA,A,3,06,02,19,12,17,,,,,,,,5.6,3.8,4.1*36
$GPGSV,2,1,08,06,48,052,32,02,76,169,28,19,32,058,26,12,71,339,32*74
$GPGSV,2,2,08,17,10,068,34,24,42,220,,25,27,312,,05,09,158,*7D
$GPRMC,165252.445,A,3806.4691,N,12251.7891,W,002.2,123.6,200818,,,A*7E
$GPGGA,165253.445,3806.4688,N,12251.7887,W,1,05,3.8,-35.2,M,,,,0000*03
$GPGSA,A,3,06,02,19,12,17,,,,,,,,5.6,3.8,4.1*36
$GPRMC,165253.445,A,3806.4688,N,12251.7887,W,002.2,126.7,200818,,,A*74
$GPGGA,165254.445,3806.4684,N,12251.7885,W,1,05,3.8,-34.9,M,,,,0000*00
$GPGSA,A,3,06,02,19,12,17,,,,,,,,5.6,3.8,4.1*36
$GPRMC,165254.445,A,3806.4684,N,12251.7885,W,001.9,139.0,200818,,,A*7C
$GPGGA,165255.445,3806.4684,N,12251.7880,W,1,04,4.1,-32.7,M,,,,0000*03
$GPGSA,A,3,06,02,12,17,,,,,,,,,6.0,4.1,4.3*37
$GPGSV,2,1,08,06,48,052,36,02,76,169,32,19,32,058,28,12,71,339,41*71
$GPGSV,2,2,08,17,10,068,41,24,42,220,,25,27,312,,05,09,158,*7F
$GPRMC,165255.445,A,3806.4684,N,12251.7880,W,001.6,160.4,200818,,,A*7F
$GPGGA,165256.445,3806.4674,N,12251.7876,W,1,05,3.8,-31.8,M,,,,0000*05
$GPGSA,A,3,06,02,19,12,17,,,,,,,,5.6,3.8,4.1*36
$GPRMC,165256.445,A,3806.4674,N,12251.7876,W,001.8,166.3,200818,,,A*75
$GPGGA,165257.445,3806.4676,N,12251.7877,W,1,05,3.8,-30.5,M,,,,0000*0B
$GPGSA,A,3,06,02,19,12,17,,,,,,,,5.6,3.8,4.1*36
$GPRMC,165257.445,A,3806.4676,N,12251.7877,W,001.6,162.0,200818,,,A*7E
$GPGGA,165258.445,3806.4674,N,12251.7868,W,1,05,3.8,-29.3,M,,,,0000*06
$GPGSA,A,3,06,02,19,12,17,,,,,,,,5.6,3.8,4.1*36
$GPGSV,2,1,08,06,48,052,34,02,76,169,27,19,31,058,31,12,71,339,34*7E
$GPGSV,2,2,08,17,10,068,33,24,42,220,,25,27,312,,05,09,158,*7A
$GPRMC,165258.445,A,3806.4674,N,12251.7868,W,001.5,147.4,200818,,,A*7D
$GPGGA,165259.445,3806.4670,N,12251.7864,W,1,03,20.0,-29.3,M,,,,0000*30
$GPGSA,A,2,02,12,17,,,,,,,,,,20.0,20.0,20.0*06
$GPRMC,165259.445,A,3806.4670,N,12251.7864,W,001.7,137.3,200818,,,A*76
$GPGGA,165300.445,3806.4667,N,12251.7855,W,1,05,3.9,-28.7,M,,,,0000*02
$GPGSA,A,3,06,02,19,12,17,,,,,,,,5.6,3.9,4.1*37
$GPRMC,165300.445,A,3806.4667,N,12251.7855,W,001.8,131.8,200818,,,A*7D
$GPGGA,165301.445,3806.4671,N,12251.7844,W,1,05,3.9,-27.7,M,,,,0000*0B
$GPGSA,A,3,06,02,19,12,17,,,,,,,,5.6,3.9,4.1*37
$GPGSV,2,1,08,06,48,052,40,02,76,169,30,19,31,058,41,12,71,339,37*7F
$GPGSV,2,2,08,17,10,068,37,24,42,220,,25,28,312,,05,09,158,*71
$GPRMC,165301.445,A,3806.4671,N,12251.7844,W,001.9,135.7,200818,,,A*71
$GPGGA,165302.445,3806.4666,N,12251.7844,W,1,04,31.1,-27.2,M,,,,0000*33
$GPGSA,A,3,06,19,12,17,,,,,,,,,32.8,31.1,10.4*06
$GPRMC,165302.445,A,3806.4666,N,12251.7844,W,001.7,142.8,200818,,,A*75
$GPGGA,165303.445,3806.4655,N,12251.7838,W,1,05,3.9,-26.5,M,,,,0000*07
$GPGSA,A,3,06,02,19,12,17,,,,,,,,5.6,3.9,4.1*37
$GPRMC,165303.445,A,3806.4655,N,12251.7838,W,002.0,155.0,200818,,,A*75
$GPGGA,165304.445,3806.4648,N,12251.7832,W,1,05,3.9,-25.7,M,,,,0000*07
$GPGSA,A,3,06,02,19,12,17,,,,,,,,5.6,3.9,4.1*37
$GPGSV,2,1,08,06,48,052,40,02,76,169,28,19,31,058,40,12,71,339,35*75
$GPGSV,2,2,08,17,10,068,34,24,42,220,,25,28,312,,05,09,158,*72
$GPRMC,165304.445,A,3806.4648,N,12251.7832,W,002.3,157.7,200818,,,A*72
$GPGGA,165305.445,3806.4640,N,12251.7833,W,1,05,3.9,-25.1,M,,,,0000*09
$GPGSA,A,3,06,02,19,12,17,,,,,,,,5.6,3.9,4.1*37
$GPRMC,165305.445,A,3806.4640,N,12251.7833,W,002.3,157.8,200818,,,A*75
$GPGGA,165306.445,3806.4627,N,12251.7830,W,1,05,3.9,-25.3,M,,,,0000*0A
$GPGSA,A,3,06,02,19,12,17,,,,,,,,5.6,3.9,4.1*37
$GPRMC,165306.445,A,3806.4627,N,12251.7830,W,002.4,157.5,200818,,,A*7E
$GPGGA,165307.445,3806.4622,N,12251.7832,W,1,05,3.9,-25.6,M,,,,0000*09
$GPGSA,A,3,06,02,19,12,17,,,,,,,,5.6,3.9,4.1*37
$GPGSV,2,1,08,06,48,052,33,02,76,168,30,19,31,058,33,12,71,339,34*7C
$GPGSV,2,2,08,17,10,068,32,24,42,220,,25,28,312,,05,09,158,*74
$GPRMC,165307.445,A,3806.4622,N,12251.7832,W,002.4,155.4,200818,,,A*7B
$GPGGA,165308.445,3806.4620,N,12251.7825,W,1,05,3.9,-25.4,M,,,,0000*00
$GPGSA,A,3,06,02,19,12,17,,,,,,,,5.6,3.9,4.1*37
$GPRMC,165308.445,A,3806.4620,N,12251.7825,W,002.5,147.6,200818,,,A*70
$GPGGA,165309.445,3806.4626,N,12251.7826,W,1,04,4.9,-26.2,M,,,,0000*07
$GPGSA,A,3,02,19,12,17,,,,,,,,,7.6,4.9,5.8*3C
$GPRMC,165309.445,A,3806.4626,N,12251.7826,W,002.4,144.7,200818,,,A*77
$GPGGA,165310.445,3806.4617,N,12251.7816,W,1,04,31.8,-26.0,M,,,,0000*3B
$GPGSA,A,3,06,19,12,17,,,,,,,,,33.6,31.8,10.8*0C
$GPGSV,2,1,08,06,48,051,25,02,76,168,29,19,31,058,28,12,71,340,39*79
$GPGSV,2,2,08,17,10,068,29,24,42,220,,25,28,312,,05,09,158,*7E
$GPRMC,165310.445,A,3806.4617,N,12251.7816,W,002.6,139.5,200818,,,A*74
$GPGGA,165311.445,3806.4612,N,12251.7807,W,1,05,3.9,-26.0,M,,,,0000*0E
$GPGSA,A,3,06,02,19,12,17,,,,,,,,5.6,3.9,4.1*37
$GPRMC,165311.445,A,3806.4612,N,12251.7807,W,002.7,134.4,200818,,,A*7D
$GPGGA,165312.445,3806.4606,N,12251.7798,W,1,04,4.9,-26.5,M,,,,0000*02
$GPGSA,A,3,02,19,12,17,,,,,,,,,7.6,4.9,5.8*3C
$GPRMC,165312.445,A,3806.4606,N,12251.7798,W,002.7,130.8,200818,,,A*7A
$GPGGA,165313.445,3806.4605,N,12251.7793,W,1,04,4.9,-27.0,M,,,,0000*0F
$GPGSA,A,3,02,19,12,17,,,,,,,,,7.6,4.9,5.8*3C
$GPGSV,2,1,08,06,48,051,24,02,76,168,28,19,31,058,26,12,71,340,33*7D
$GPGSV,2,2,08,17,10,068,32,24,42,220,,25,28,312,,05,09,158,*74
$GPRMC,165313.445,A,3806.4605,N,12251.7793,W,002.5,127.2,200818,,,A*7D
$GPGGA,165314.445,3806.4607,N,12251.7788,W,1,05,3.9,-27.2,M,,,,0000*04
$GPGSA,A,3,06,02,19,12,17,,,,,,,,5.6,3.9,4.1*37
$GPRMC,165314.445,A,3806.4607,N,12251.7788,W,002.3,124.0,200818,,,A*75
$GPGGA,165315.445,3806.4600,N,12251.7780,W,1,05,3.9,-27.7,M,,,,0000*0F
$GPGSA,A,3,06,02,19,12,17,,,,,,,,5.6,3.9,4.1*37
$GPRMC,165315.445,A,3806.4600,N,12251.7780,W,002.4,124.9,200818,,,A*75
$GPGGA,165316.445,3806.4596,N,12251.7772,W,1,05,3.9,-27.9,M,,,,0000*03
$GPGSA,A,3,06,02,19,12,17,,,,,,,,5.6,3.9,4.1*37
$GPGSV,2,1,08,06,48,051,25,02,76,168,26,19,31,058,25,12,71,340,35*77
$GPGSV,2,2,08,17,10,068,33,24,42,220,,25,28,312,,05,09,158,*75
$GPRMC,165316.445,A,3806.4596,N,12251.7772,W,002.3,124.4,200818,,,A*7D
$GPGGA,165317.445,3806.4593,N,12251.7766,W,1,05,3.9,-28.5,M,,,,0000*01
$GPGSA,A,3,06,02,19,12,17,,,,,,,,5.6,3.9,4.1*37
$GPRMC,165317.445,A,3806.4593,N,12251.7766,W,002.3,125.2,200818,,,A*7B
$GPGGA,165318.445,3806.4583,N,12251.7756,W,1,04,4.1,-28.3,M,,,,0000*04
$GPGSA,A,3,06,02,12,17,,,,,,,,,6.0,4.1,4.4*30
$GPRMC,165318.445,A,3806.4583,N,12251.7756,W,002.5,132.1,200818,,,A*75
$GPGGA,165319.445,3806.4580,N,12251.7750,W,1,04,4.1,-28.2,M,,,,0000*01
$GPGSA,A,3,06,02,12,17,,,,,,,,,6.0,4.1,4.4*30
$GPGSV,2,1,08,06,48,051,31,02,76,168,27,19,31,058,26,12,71,340,30*75
$GPGSV,2,2,08,17,10,068,30,24,42,220,,25,28,312,,05,09,158,*76
$GPRMC,165319.445,A,3806.4580,N,12251.7750,W,002.5,132.3,200818,,,A*73
$GPGGA,165320.445,3806.4590,N,12251.7732,W,1,05,3.9,-22.5,M,,,,0000*0D
$GPGSA,A,3,06,02,19,12,17,,,,,,,,5.6,3.9,4.1*37
$GPRMC,165320.445,A,3806.4590,N,12251.7732,W,002.3,124.2,200818,,,A*7C
$GPGGA,165321.445,3806.4586,N,12251.7726,W,1,05,3.9,-22.2,M,,,,0000*09
$GPGSA,A,3,06,02,19,12,17,,,,,,,,5.6,3.9,4.1*37
$GPRMC,165321.445,A,3806.4586,N,12251.7726,W,002.3,124.5,200818,,,A*78
$GPGGA,165322.445,3806.4586,N,12251.7717,W,1,05,3.9,-21.0,M,,,,0000*09
$GPGSA,A,3,06,02,19,12,17,,,,,,,,5.6,3.9,4.1*37
$GPGSV,2,1,08,06,48,051,30,02,76,168,28,19,31,058,30,12,71,340,31*7D
$GPGSV,2,2,08,17,10,068,33,24,42,220,,25,28,312,,05,09,158,*75
$GPRMC,165322.445,A,3806.4586,N,12251.7717,W,002.2,122.3,200818,,,A*78
$GPGGA,165323.445,3806.4578,N,12251.7708,W,1,04,5.8,-20.4,M,,,,0000*04
$GPGSA,A,3,06,02,19,12,,,,,,,,,12.3,5.8,10.8*39
$GPRMC,165323.445,A,3806.4578,N,12251.7708,W,002.3,125.5,200818,,,A*76
$GPGGA,165324.445,3806.4574,N,12251.7700,W,1,05,3.9,-19.7,M,,,,0000*08
$GPGSA,A,3,06,02,19,12,17,,,,,,,,5.7,3.9,4.1*36
$GPRMC,165324.445,A,3806.4574,N,12251.7700,W,002.3,126.0,200818,,,A*73
$GPGGA,165325.445,3806.4570,N,12251.7693,W,1,05,3.9,-19.3,M,,,,0000*02
$GPGSA,A,3,06,02,19,12,17,,,,,,,,5.7,3.9,4.1*36
$GPGSV,2,1,08,06,48,051,25,02,76,168,30,19,31,058,28,12,71,340,28*71
$GPGSV,2,2,08,17,10,068,27,24,42,220,,25,28,312,,05,09,158,*70
$GPRMC,165325.445,A,3806.4570,N,12251.7693,W,002.3,125.6,200818,,,A*78
$GPGGA,165326.445,3806.4575,N,12251.7679,W,1,05,3.9,-17.0,M,,,,0000*0D
$GPGSA,A,3,06,02,19,12,17,,,,,,,,5.7,3.9,4.1*36
$GPRMC,165326.445,A,3806.4575,N,12251.7679,W,002.2,123.8,200818,,,A*73
$GPGGA,165327.445,3806.4563,N,12251.7682,W,1,05,3.9,-17.7,M,,,,0000*08
$GPGSA,A,3,06,02,19,12,17,,,,,,,,5.7,3.9,4.1*36
$GPRMC,165327.445,A,3806.4563,N,12251.7682,W,002.2,142.8,200818,,,A*76
$GPGGA,165328.445,3806.4553,N,12251.7661,W,1,05,3.9,-14.9,M,,,,0000*04
$GPGSA,A,3,06,02,19,12,17,,,,,,,,5.7,3.9,4.1*36
$GPGSV,2,1,08,06,48,051,39,02,76,168,28,19,31,058,40,12,71,340,37*75
$GPGSV,2,2,08,17,10,068,28,24,42,220,,25,28,312,,05,09,158,*7F
$GPRMC,165328.445,A,3806.4553,N,12251.7661,W,002.3,151.2,200818,,,A*7E
$GPGGA,165329.445,3806.4546,N,12251.7660,W,1,05,3.9,-14.8,M,,,,0000*01
$GPGSA,A,3,06,02,19,12,17,,,,,,,,5.7,3.9,4.1*36
$GPRMC,165329.445,A,3806.4546,N,12251.7660,W,002.4,156.9,200818,,,A*71
$GPGGA,165330.445,3806.4535,N,12251.7657,W,1,05,3.9,-14.4,M,,,,0000*05
$GPGSA,A,3,06,02,19,12,17,,,,,,,,5.7,3.9,4.1*36
$GPRMC,165330.445,A,3806.4535,N,12251.7657,W,002.6,163.3,200818,,,A*77
$GPGGA,165331.445,3806.4530,N,12251.7657,W,1,05,3.9,-13.9,M,,,,0000*0B
$GPGSA,A,3,06,02,19,12,17,,,,,,,,5.7,3.9,4.1*36
$GPGSV,2,1,08,06,48,051,33,02,76,168,27,19,31,058,42,12,71,340,33*76
$GPGSV,2,2,08,17,10,068,34,24,42,220,,25,28,312,,05,09,158,*72
$GPRMC,165331.445,A,3806.4530,N,12251.7657,W,002.8,168.4,200818,,,A*71
$GPGGA,165332.445,3806.4523,N,12251.7652,W,1,04,5.8,-13.0,M,,,,0000*00
$GPGSA,A,3,06,02,19,12,,,,,,,,,12.3,5.8,10.8*39
$GPRMC,165332.445,A,3806.4523,N,12251.7652,W,002.8,171.0,200818,,,A*79
$GPGGA,165333.445,3806.4511,N,12251.7645,W,1,05,3.9,-11.6,M,,,,0000*04
$GPGSA,A,3,06,02,19,12,17,,,,,,,,5.7,3.9,4.1*36
$GPRMC,165333.445,A,3806.4511,N,12251.7645,W,003.0,178.4,200818,,,A*7B
$GPGGA,165334.445,3806.4505,N,12251.7652,W,1,05,3.9,-12.2,M,,,,0000*07
$GPGSA,A,3,06,02,19,12,17,,,,,,,,5.7,3.9,4.1*36
$GPGSV,2,1,08,06,48,051,25,02,76,168,28,19,31,058,34,12,71,340,32*7E
$GPGSV,2,2,08,17,10,068,25,24,42,220,,25,28,312,,05,09,158,*72
$GPRMC,165334.445,A,3806.4505,N,12251.7652,W,002.9,181.9,200818,,,A*7C
$GPGGA,165335.445,3806.4498,N,12251.7656,W,1,05,3.9,-11.8,M,,,,0000*0E
$GPGSA,A,3,06,02,19,12,17,,,,,,,,5.7,3.9,4.1*36
$GPRMC,165335.445,A,3806.4498,N,12251.7656,W,002.9,185.9,200818,,,A*78
$GPGGA,165336.445,3806.4488,N,12251.7659,W,1,05,3.9,-11.1,M,,,,0000*0A
$GPGSA,A,3,06,02,19,12,17,,,,,,,,5.7,3.9,4.1*36
$GPRMC,165336.445,A,3806.4488,N,12251.7659,W,003.0,191.6,200818,,,A*77
$GPGGA,165337.445,3806.4480,N,12251.7663,W,1,05,3.9,-10.6,M,,,,0000*0C
$GPGSA,A,3,06,02,19,12,17,,,,,,,,5.7,3.9,4.1*36
$GPGSV,2,1,08,06,48,051,31,02,76,168,25,19,31,058,32,12,71,340,37*75
$GPGSV,2,2,08,17,10,068,27,24,42,220,,25,28,312,,05,09,158,*70
$GPRMC,165337.445,A,3806.4480,N,12251.7663,W,002.9,195.1,200818,,,A*7C
$GPGGA,165338.445,3806.4474,N,12251.7670,W,1,05,3.9,-10.9,M,,,,0000*05
$GPGSA,A,3,06,02,19,12,17,,,,,,,,5.7,3.9,4.1*36
$GPRMC,165338.445,A,3806.4474,N,12251.7670,W,002.9,197.2,200818,,,A*7B
$GPGGA,165339.445,3806.4467,N,12251.7676,W,1,05,3.9,-11.1,M,,,,0000*09
$GPGSA,A,3,06,02,19,12,17,,,,,,,,5.7,3.9,4.1*36
$GPRMC,165339.445,A,3806.4467,N,12251.7676,W,002.8,194.0,200818,,,A*7E
$GPGGA,165340.445,3806.4462,N,12251.7681,W,1,05,3.9,-10.7,M,,,,0000*0D
$GPGSA,A,3,06,02,19,12,17,,,,,,,,5.7,3.9,4.1*36
$GPGSV,2,1,08,06,48,051,29,02,76,168,28,19,31,058,28,12,71,340,34*79
$GPGSV,2,2,08,17,10,068,26,24,42,220,,25,28,312,,05,09,158,*71
$GPRMC,165340.445,A,3806.4462,N,12251.7681,W,002.8,196.1,200818,,,A*7E
$GPGGA,165341.445,3806.4455,N,12251.7691,W,1,04,5.8,-11.0,M,,,,0000*09
$GPGSA,A,3,06,02,19,12,,,,,,,,,12.3,5.8,10.9*38
$GPRMC,165341.445,A,3806.4455,N,12251.7691,W,002.8,199.4,200818,,,A*70
$GPGGA,165342.445,3806.4446,N,12251.7697,W,1,04,5.9,-10.8,M,,,,0000*06
$GPGSA,A,3,06,02,19,12,,,,,,,,,12.3,5.9,10.9*39
$GPRMC,165342.445,A,3806.4446,N,12251.7697,W,002.7,202.0,200818,,,A*7D
$GPGGA,165343.445,3806.4433,N,12251.7712,W,1,04,35.2,-14.1,M,,,,0000*3C
$GPGSA,A,3,06,19,12,17,,,,,,,,,37.3,35.2,12.3*0A
$GPGSV,2,1,08,06,47,051,32,02,76,168,25,19,31,058,33,12,71,340,35*7A
$GPGSV,2,2,08,17,09,068,33,24,42,220,,25,28,312,,05,09,158,*7D
$GPRMC,165343.445,A,3806.4433,N,12251.7712,W,002.9,204.2,200818,,,A*78
$GPGGA,165344.445,3806.4419,N,12251.7722,W,1,05,3.9,-16.8,M,,,,0000*04
$GPGSA,A,3,06,02,19,12,17,,,,,,,,5.7,3.9,4.1*36
$GPRMC,165344.445,A,3806.4419,N,12251.7722,W,002.8,205.7,200818,,,A*71
$GPGGA,165345.445,3806.4408,N,12251.7717,W,1,05,3.9,-15.2,M,,,,0000*0A
$GPGSA,A,3,06,02,19,12,17,,,,,,,,5.7,3.9,4.1*36
$GPRMC,165345.445,A,3806.4408,N,12251.7717,W,002.8,204.2,200818,,,A*72
$GPGGA,165346.445,3806.4402,N,12251.7726,W,1,04,35.5,-15.0,M,,,,0000*3B
$GPGSA,A,3,06,19,12,17,,,,,,,,,37.7,35.5,12.5*0F
$GPGSV,2,1,08,06,47,051,33,02,76,168,25,19,31,058,34,12,71,340,37*7E
$GPGSV,2,2,08,17,09,068,34,24,42,220,,25,28,312,,05,09,158,*7A
$GPRMC,165346.445,A,3806.4402,N,12251.7726,W,002.9,206.4,200818,,,A*7C
$GPGGA,165347.445,3806.4399,N,12251.7741,W,1,04,4.9,-16.7,M,,,,0000*04
$GPGSA,A,3,02,19,12,17,,,,,,,,,7.6,4.9,5.8*3C
$GPRMC,165347.445,A,3806.4399,N,12251.7741,W,002.7,209.3,200818,,,A*7F
$GPGGA,165348.445,3806.4393,N,12251.7753,W,1,05,3.9,-17.5,M,,,,0000*07
$GPGSA,A,3,06,02,19,12,17,,,,,,,,5.7,3.9,4.1*36
$GPRMC,165348.445,A,3806.4393,N,12251.7753,W,002.7,212.9,200818,,,A*79
$GPGGA,165349.445,3806.4385,N,12251.7759,W,1,04,35.9,-18.3,M,,,,0000*36
$GPGSA,A,3,06,19,12,17,,,,,,,,,38.1,35.9,12.7*08
$GPGSV,2,1,08,06,47,051,29,02,76,168,24,19,31,058,34,12,71,340,39*7A
$GPGSV,2,2,08,17,09,068,30,24,42,219,,25,28,312,,05,09,158,*74
$GPRMC,165349.445,A,3806.4385,N,12251.7759,W,002.7,213.3,200818,,,A*7E
$GPGGA,165350.445,3806.4376,N,12251.7766,W,1,04,36.0,-19.2,M,,,,0000*34
$GPGSA,A,3,06,19,12,17,,,,,,,,,38.2,36.0,12.7*01
$GPRMC,165350.445,A,3806.4376,N,12251.7766,W,002.8,212.9,200818,,,A*72
$GPGGA,165351.445,3806.4367,N,12251.7762,W,1,04,4.9,-18.1,M,,,,0000*0B
$GPGSA,A,3,02,19,12,17,,,,,,,,,7.6,4.9,5.8*3C
$GPRMC,165351.445,A,3806.4367,N,12251.7762,W,002.8,209.8,200818,,,A*7C
$GPGGA,165352.445,3806.4371,N,12251.7770,W,1,05,3.9,-18.4,M,,,,0000*0F
$GPGSA,A,3,06,02,19,12,17,,,,,,,,5.7,3.9,4.1*36
$GPGSV,2,1,08,06,47,051,32,02,76,168,26,19,31,058,38,12,71,340,37*70
$GPGSV,2,2,08,17,09,068,27,24,42,219,,25,28,312,,05,09,158,*72
$GPRMC,165352.445,A,3806.4371,N,12251.7770,W,002.3,213.8,200818,,,A*7B
$GPGGA,165353.445,3806.4374,N,12251.7759,W,1,05,3.9,-15.1,M,,,,0000*08
$GPGSA,A,3,06,02,19,12,17,,,,,,,,5.7,3.9,4.1*36
$GPRMC,165353.445,A,3806.4374,N,12251.7759,W,001.9,209.0,200818,,,A*7E
$GPGGA,165354.445,3806.4382,N,12251.7765,W,1,05,3.9,-15.5,M,,,,0000*0D
$GPGSA,A,3,06,02,19,12,17,,,,,,,,5.7,3.9,4.1*36
$GPRMC,165354.445,A,3806.4382,N,12251.7765,W,001.6,210.9,200818,,,A*71
$GPGGA,165355.445,3806.4382,N,12251.7777,W,1,05,3.9,-17.9,M,,,,0000*01
$GPGSA,A,3,06,02,19,12,17,,,,,,,,5.7,3.9,4.1*36
$GPGSV,2,1,08,06,47,051,38,02,76,168,26,19,31,058,40,12,71,340,38*7A
$GPGSV,2,2,08,17,09,068,25,24,42,219,,25,28,312,,05,09,158,*70
$GPRMC,165355.445,A,3806.4382,N,12251.7777,W,001.7,210.0,200818,,,A*7B
$GPGGA,165356.445,3806.4385,N,12251.7767,W,1,05,3.9,-15.3,M,,,,0000*0C
$GPGSA,A,3,06,02,19,12,17,,,,,,,,5.7,3.9,4.1*36
$GPRMC,165356.445,A,3806.4385,N,12251.7767,W,001.5,202.1,200818,,,A*7E
$GPGGA,165357.445,3806.4373,N,12251.7769,W,1,05,3.9,-15.2,M,,,,0000*0B
$GPGSA,A,3,06,02,19,12,17,,,,,,,,5.7,3.9,4.1*36
$GPRMC,165357.445,A,3806.4373,N,12251.7769,W,001.8,198.8,200818,,,A*7C
$GPGGA,165358.445,3806.4363,N,12251.7753,W,1,05,3.9,-11.6,M,,,,0000*0C
$GPGSA,A,3,06,02,19,12,17,,,,,,,,5.7,3.9,4.1*36
$GPGSV,2,1,08,06,47,051,39,02,76,168,28,19,31,058,40,12,71,340,35*78
$GPGSV,2,2,08,17,09,068,25,24,42,219,,25,28,312,,05,09,158,*70
$GPRMC,165358.445,A,3806.4363,N,12251.7753,W,001.9,190.4,200818,,,A*7E
$GPGGA,165359.445,3806.4353,N,12251.7752,W,1,04,5.9,-11.7,M,,,,0000*09
$GPGSA,A,3,06,02,19,12,,,,,,,,,12.4,5.9,10.9*3E
$GPRMC,165359.445,A,3806.4353,N,12251.7752,W,002.0,184.9,200818,,,A*7F
$GPGGA,165400.445,3806.4351,N,12251.7755,W,1,04,5.9,-12.7,M,,,,0000*04
$GPGSA,A,3,06,02,19,12,,,,,,,,,12.4,5.9,10.9*3E
$GPRMC,165400.445,A,3806.4351,N,12251.7755,W,001.9,179.5,200818,,,A*75
$GPGGA,165401.445,3806.4347,N,12251.7733,W,1,05,3.9,-6.4,M,,,,0000*33
$GPGSA,A,3,06,02,19,12,17,,,,,,,,5.7,3.9,4.1*36
$GPGSV,2,1,08,06,47,051,37,02,76,168,28,19,31,058,39,12,72,340,35*7B
$GPGSV,2,2,08,17,09,068,24,24,42,219,,25,28,312,,05,09,158,*71
$GPRMC,165401.445,A,3806.4347,N,12251.7733,W,001.9,175.8,200818,,,A*72
$GPGGA,165402.445,3806.4350,N,12251.7732,W,1,05,3.9,-5.4,M,,,,0000*34
$GPGSA,A,3,06,02,19,12,17,,,,,,,,5.7,3.9,4.1*36
$GPRMC,165402.445,A,3806.4350,N,12251.7732,W,001.7,171.5,200818,,,A*71
$GPGGA,165403.445,3806.4343,N,12251.7736,W,1,04,37.6,-7.4,M,,,,0000*08
$GPGSA,A,3,06,19,12,17,,,,,,,,,40.0,37.6,13.5*08
$GPRMC,165403.445,A,3806.4343,N,12251.7736,W,001.9,168.6,200818,,,A*73
$GPGGA,165404.445,3806.4338,N,12251.7722,W,1,04,37.8,-5.2,M,,,,0000*0C
$GPGSA,A,2,06,19,12,17,,,,,,,,,40.1,37.8,13.5*06
$GPGSV,2,1,08,06,47,051,37,02,76,168,27,19,31,058,30,12,72,340,37*7F
$GPGSV,2,2,08,17,09,068,30,24,41,219,,25,28,312,,05,09,158,*77
$GPRMC,165404.445,A,3806.4338,N,12251.7722,W,002.0,159.7,200818,,,A*74
$GPGGA,165405.445,3806.4337,N,12251.7727,W,1,05,3.9,-5.6,M,,,,0000*34
$GPGSA,A,3,06,02,19,12,17,,,,,,,,5.7,3.9,4.1*36
$GPRMC,165405.445,A,3806.4337,N,12251.7727,W,001.9,163.3,200818,,,A*78
$GPGGA,165406.445,3806.4315,N,12251.7721,W,1,05,4.0,-5.2,M,,,,0000*3B
$GPGSA,A,3,06,02,19,12,17,,,,,,,,5.7,4.0,4.1*38
$GPRMC,165406.445,A,3806.4315,N,12251.7721,W,002.1,166.2,200818,,,A*72
$GPGGA,165407.445,3806.4310,N,12251.7721,W,1,04,4.2,-5.1,M,,,,0000*3F
$GPGSA,A,3,06,02,12,17,,,,,,,,,6.1,4.2,4.4*32
$GPGSV,2,1,08,06,47,051,31,02,76,168,26,19,31,058,25,12,72,340,32*79
$GPGSV,2,2,08,17,09,068,28,24,41,219,,25,28,312,,05,09,158,*7E
$GPRMC,165407.445,A,3806.4310,N,12251.7721,W,002.1,166.8,200818,,,A*7C
$GPGGA,165408.445,3806.4308,N,12251.7719,W,1,05,4.0,-4.9,M,,,,0000*38
$GPGSA,A,3,06,02,19,12,17,,,,,,,,5.7,4.0,4.1*38
$GPRMC,165408.445,A,3806.4308,N,12251.7719,W,001.9,162.9,200818,,,A*7F
$GPGGA,165409.445,3806.4310,N,12251.7717,W,1,05,4.0,-4.9,M,,,,0000*3E
$GPGSA,A,3,06,02,19,12,17,,,,,,,,5.7,4.0,4.1*38
$GPRMC,165409.445,A,3806.4310,N,12251.7717,W,001.7,155.7,200818,,,A*7D
$GPGGA,165410.445,3806.4306,N,12251.7713,W,1,05,4.0,-4.5,M,,,,0000*39
$GPGSA,A,3,06,02,19,12,17,,,,,,,,5.7,4.0,4.1*38
$GPGSV,2,1,08,06,47,051,25,02,76,168,32,19,31,058,25,12,72,340,30*7B
$GPGSV,2,2,08,17,09,068,28,24,41,219,,25,28,312,,05,09,158,*7E
$GPRMC,165410.445,A,3806.4306,N,12251.7713,W,001.7,146.8,200818,,,A*7B
