


$IIRMC,093853,A,1035.401,S,15622.495,W,04.6,317,060211,10,E,A*0D
$IIVHW,,,303,M,04.4,N,,*64
$IIVLW,04289,N,372.8,N*5A
$IIVWR,141,R,08.9,N,,,,*64
$IIGLL,1035.401,S,15622.495,W,093853,A,A*53
$IIHDG,303,,,10,E*13
$IIMTW,+28.5,C*37
$IIMWV,141,R,08.9,N,A*16
$IIMWV,154,T,12.5,N,A*13
$IIRMC,093853,A,1035.401,S,15622.495,W,04.6,317,060211,10,E,A*0D
$IIVHW,,,303,M,04.5,N,,*65
$IIVLW,04289,N,372.8,N*5A
$IIVWR,141,R,09.2,N,,,,*6E
$IIGLL,1035.399,S,15622.498,W,093855,A,A*5E
$IIHDG,304,,,10,E*14
$IIMTW,+28.5,C*37
$IIMWV,141,R,09.2,N,A*1C
$IIMWV,154,T,12.7,N,A*11
$IIRMB,A,3.00,L,,TNGRVA  ,,,,,138.90,313,04.7,V,A*73
$IIRMC,093855,A,1035.399,S,15622.498,W,04.8,317,060211,10,E,A*0E
$IIVHW,,,305,M,04.5,N,,*63
$IIVLW,04289,N,372.8,N*5A
$IIVWR,141,R,08.7,N,,,,*6A
$IIGLL,1035.399,S,15622.498,W,093855,A,A*5E
$IIHDG,305,,,10,E*15
$IIMTW,+28.5,C*37
$IIMWV,141,R,08.7,N,A*18
$IIMWV,154,T,13.0,N,A*17
$IIRMB,A,3.00,L,,TNGRVA  ,,,,,138.90,313,04.8,V,A*7C
$IIRMC,093857,A,1035.397,S,15622.499,W,04.8,317,060211,10,E,A*03
$IIVHW,,,306,M,04.4,N,,*61
$IIVLW,04289,N,372.8,N*5A
$IIVWR,141,R,09.0,N,,,,*6C
$IIGLL,1035.397,S,15622.499,W,093857,A,A*53
$IIHDG,306,,,10,E*16
$IIMTW,+28.5,C*37
$IIMWV,141,R,09.1,N,A*1F
$IIMWV,154,T,12.7,N,A*11
$IIRMC,093857,A,1035.397,S,15622.499,W,04.8,317,060211,10,E,A*03
$IIVHW,,,306,M,04.4,N,,*61
$IIVLW,04289,N,372.8,N*5A
$IIVWR,141,R,09.1,N,,,,*6D
$IIGLL,1035.397,S,15622.499,W,093857,A,A*53
$IIHDG,306,,,10,E*16
$IIMTW,+28.5,C*37
$IIMWV,141,R,09.1,N,A*1F
$IIMWV,154,T,12.8,N,A*1E
$IIRMB,A,3.00,L,,TNGRVA  ,,,,,138.90,313,04.8,V,A*7C
$IIRMC,093859,A,1035.396,S,15622.502,W,04.8,317,060211,10,E,A*0F
$IIVHW,,,306,M,04.3,N,,*66
$IIVLW,04289,N,372.8,N*5A
$IIVWR,141,R,09.1,N,,,,*6D
$IIGLL,1035.396,S,15622.502,W,093859,A,A*5F
$IIHDG,307,,,10,E*17
$IIMTW,+28.5,C*37
$IIMWV,141,R,09.1,N,A*1F
$IIMWV,153,T,12.7,N,A*16
$IIRMC,093859,A,1035.396,S,15622.502,W,04.8,317,060211,10,E,A*0F
$IIVHW,,,307,M,04.3,N,,*67
$IIVLW,04289,N,372.8,N*5A
$IIVWR,141,R,09.1,N,,,,*6D
$IIGLL,1035.394,S,15622.504,W,093901,A,A*57
$IIHDG,307,,,10,E*17
$IIMTW,+28.5,C*37
$IIMWV,141,R,09.2,N,A*1C
$IIMWV,153,T,12.7,N,A*16
$IIRMB,A,3.00,L,,TNGRVA  ,,,,,138.90,313,04.6,V,A*72
$IIRMC,093901,A,1035.394,S,15622.504,W,04.6,314,060211,10,E,A*0A
$IIVHW,,,307,M,04.4,N,,*60
$IIVLW,04289,N,372.8,N*5A
$IIVWR,136,R,08.7,N,,,,*6A
$IIGLL,1035.394,S,15622.504,W,093901,A,A*57
$IIHDG,308,,,10,E*18
$IIMTW,+28.5,C*37
$IIMWV,136,R,08.7,N,A*18
$IIMWV,154,T,12.9,N,A*1F
$IIRMC,093901,A,1035.394,S,15622.504,W,04.6,314,060211,10,E,A*0A
$IIVHW,,,308,M,04.5,N,,*6E
$IIVLW,04289,N,372.8,N*5A
$IIVWR,136,R,08.7,N,,,,*6A
$IIGLL,1035.392,S,15622.506,W,093903,A,A*51
$IIHDG,309,,,10,E*19
$IIMTW,+28.5,C*37
$IIMWV,136,R,08.7,N,A*18
$IIMWV,151,T,12.2,N,A*11
$IIRMB,A,3.00,L,,TNGRVA  ,,,,,138.90,313,04.6,V,A*72
$IIRMC,093903,A,1035.392,S,15622.506,W,04.6,314,060211,10,E,A*0C
$IIVHW,,,310,M,04.4,N,,*66
$IIVLW,04289,N,372.8,N*5A
$IIVWR,136,R,09.0,N,,,,*6C
$IIGLL,1035.392,S,15622.506,W,093903,A,A*51
$IIHDG,310,,,10,E*11
$IIMTW,+28.5,C*37
$IIMWV,136,R,09.0,N,A*1E
$IIMWV,151,T,12.3,N,A*10
$IIRMB,A,3.00,L,,TNGRVA  ,,,,,138.90,313,04.6,V,A*72
$IIRMC,093905,A,1035.390,S,15622.508,W,04.6,314,060211,10,E,A*06
$IIVHW,,,309,M,04.4,N,,*6E
$IIVLW,04289,N,372.8,N*5A
$IIVWR,136,R,09.3,N,,,,*6F
$IIGLL,1035.390,S,15622.508,W,093905,A,A*5B
$IIHDG,309,,,10,E*19
$IIMTW,+28.5,C*37
$IIMWV,136,R,09.2,N,A*1C
$IIMWV,150,T,12.8,N,A*1A
$IIRMC,093905,A,1035.390,S,15622.508,W,04.6,314,060211,10,E,A*06
$IIVHW,,,309,M,04.4,N,,*6E
$IIVLW,04289,N,372.8,N*5A
$IIVWR,136,R,09.2,N,,,,*6E
$IIGLL,1035.390,S,15622.508,W,093905,A,A*5B
$IIHDG,309,,,10,E*19
$IIMTW,+28.5,C*37
$IIMWV,136,R,08.8,N,A*17
$IIMWV,150,T,12.6,N,A*14
$IIRMB,A,3.00,L,,TNGRVA  ,,,,,138.90,313,04.1,V,A*75
$IIRMC,093907,A,1035.387,S,15622.511,W,04.5,338,060211,10,E,A*07
$IIVHW,,,308,M,04.3,N,,*68
$IIVLW,04289,N,372.8,N*5A
$IIVWR,136,R,08.8,N,,,,*65
$IIGLL,1035.387,S,15622.511,W,093907,A,A*57
$IIHDG,308,,,10,E*18
$IIMTW,+28.5,C*37
$IIMWV,136,R,08.9,N,A*16
$IIMWV,150,T,12.1,N,A*13
$IIRMC,093907,A,1035.387,S,15622.511,W,04.5,338,060211,10,E,A*07
$IIVHW,,,308,M,04.2,N,,*69
$IIVLW,04289,N,372.8,N*5A
$IIVWR,136,R,08.9,N,,,,*64
$IIGLL,1035.386,S,15622.512,W,093909,A,A*5B
$IIHDG,309,,,10,E*19
$IIMTW,+28.5,C*37
$IIMWV,136,R,09.2,N,A*1C
$IIMWV,150,T,12.3,N,A*11
$IIRMB,A,3.00,L,,TNGRVA  ,,,,,138.90,313,04.4,V,A*70
$IIRMC,093909,A,1035.386,S,15622.512,W,04.5,321,060211,10,E,A*03
$IIVHW,,,309,M,04.4,N,,*6E
$IIVLW,04289,N,372.8,N*5A
$IIVWR,136,R,09.2,N,,,,*6E
$IIGLL,1035.386,S,15622.512,W,093909,A,A*5B
$IIHDG,308,,,10,E*18
$IIMTW,+28.5,C*37
$IIMWV,136,R,09.2,N,A*1C
$IIMWV,150,T,12.6,N,A*14
$IIRMC,093909,A,1035.386,S,15622.512,W,04.5,321,060211,10,E,A*03
$IIVHW,,,308,M,04.4,N,,*6F
$IIVLW,04289,N,372.8,N*5A
$IIVWR,136,R,08.6,N,,,,*6B
$IIGLL,1035.384,S,15622.513,W,093911,A,A*51
$IIHDG,308,,,10,E*18
$IIMTW,+28.5,C*37
$IIMWV,136,R,08.6,N,A*19
$IIMWV,150,T,12.6,N,A*14
$IIRMB,A,3.00,L,,TNGRVA  ,,,,,138.90,313,04.7,V,A*73
$IIRMC,093911,A,1035.384,S,15622.513,W,04.8,320,060211,10,E,A*05
$IIVHW,,,308,M,04.5,N,,*6E
$IIVLW,04289,N,372.8,N*5A
$IIVWR,136,R,08.6,N,,,,*6B
$IIGLL,1035.384,S,15622.513,W,093911,A,A*51
$IIHDG,308,,,10,E*18
$IIMTW,+28.5,C*37
$IIMWV,136,R,08.6,N,A*19
$IIMWV,151,T,12.1,N,A*12
$IIRMB,A,3.00,L,,TNGRVA  ,,,,,138.90,313,04.9,V,A*7D
$IIRMC,093913,A,1035.381,S,15622.514,W,04.9,319,060211,10,E,A*0E
$IIVHW,,,307,M,04.4,N,,*60
$IIVLW,04289,N,372.8,N*5A
$IIVWR,135,R,08.6,N,,,,*68
$IIGLL,1035.381,S,15622.514,W,093913,A,A*51
$IIHDG,307,,,10,E*17
$IIMTW,+28.5,C*37
$IIMWV,136,R,08.4,N,A*1B
$IIMWV,150,T,12.1,N,A*13
$IIRMC,093913,A,1035.381,S,15622.514,W,04.9,319,060211,10,E,A*0E
$IIVHW,,,306,M,04.3,N,,*66
$IIVLW,04289,N,372.8,N*5A
$IIVWR,136,R,08.4,N,,,,*69
$IIGLL,1035.381,S,15622.514,W,093913,A,A*51
$IIHDG,306,,,10,E*16
$IIMTW,+28.5,C*37
$IIMWV,136,R,08.4,N,A*1B
$IIMWV,151,T,11.8,N,A*18
$IIRMB,A,3.00,L,,TNGRVA  ,,,,,138.90,313,04.6,V,A*72
$IIRMC,093915,A,1035.379,S,15622.515,W,04.6,322,060211,10,E,A*09
$IIVHW,,,305,M,04.4,N,,*62
$IIVLW,04289,N,372.8,N*5A
$IIVWR,136,R,08.4,N,,,,*69
$IIGLL,1035.379,S,15622.515,W,093915,A,A*51
$IIHDG,306,,,10,E*16
$IIMTW,+28.5,C*37
$IIMWV,136,R,08.3,N,A*1C
$IIMWV,151,T,11.8,N,A*18
$IIRMC,093915,A,1035.379,S,15622.515,W,04.6,322,060211,10,E,A*09
$IIVHW,,,306,M,04.4,N,,*61
$IIVLW,04289,N,372.8,N*5A
$IIVWR,136,R,08.3,N,,,,*6E
$IIGLL,1035.376,S,15622.516,W,093917,A,A*5F
$IIHDG,306,,,10,E*16
$IIMTW,+28.5,C*37
$IIMWV,136,R,08.1,N,A*1E
$IIMWV,151,T,11.8,N,A*18
$IIRMB,A,3.00,L,,TNGRVA  ,,,,,138.90,313,04.6,V,A*72
$IIRMC,093917,A,1035.376,S,15622.516,W,04.7,320,060211,10,E,A*04
$IIVHW,,,306,M,04.4,N,,*61
$IIVLW,04289,N,372.8,N*5A
$IIVWR,136,R,08.7,N,,,,*6A
$IIGLL,1035.376,S,15622.516,W,093917,A,A*5F
$IIHDG,306,,,10,E*16
$IIMTW,+28.5,C*37
$IIMWV,136,R,08.7,N,A*18
$IIMWV,152,T,11.6,N,A*15
$IIRMC,093917,A,1035.376,S,15622.516,W,04.7,320,060211,10,E,A*04
$IIVHW,,,306,M,04.5,N,,*60
$IIVLW,04289,N,372.8,N*5A
$IIVWR,136,R,08.9,N,,,,*64
$IIGLL,1035.375,S,15622.516,W,093918,A,A*53
$IIHDG,305,,,10,E*15
$IIMTW,+28.5,C*37
$IIMWV,136,R,08.9,N,A*16
$IIMWV,151,T,12.2,N,A*11
$IIRMB,A,3.00,L,,TNGRVA  ,,,,,138.80,313,04.7,V,A*72
$IIRMC,093919,A,1035.374,S,15622.517,W,04.7,321,060211,10,E,A*08
$IIVHW,,,304,M,04.2,N,,*65
$IIVLW,04289,N,372.8,N*5A
$IIVWR,136,R,08.5,N,,,,*68
$IIGLL,1035.374,S,15622.517,W,093919,A,A*52
$IIHDG,304,,,10,E*14
$IIMTW,+28.5,C*37
$IIMWV,136,R,08.5,N,A*1A
$IIMWV,151,T,12.4,N,A*17
$IIRMB,A,3.00,L,,TNGRVA  ,,,,,138.80,313,04.7,V,A*72
$IIRMC,093920,A,1035.373,S,15622.519,W,04.8,321,060211,10,E,A*04
$IIVHW,,,304,M,04.2,N,,*65
$IIVLW,04289,N,372.8,N*5A
$IIVWR,136,R,08.5,N,,,,*68
$IIGLL,1035.373,S,15622.519,W,093920,A,A*51
$IIHDG,304,,,10,E*14
$IIMTW,+28.5,C*37
$IIMWV,136,R,08.5,N,A*1A
$IIMWV,150,T,11.8,N,A*19
$IIRMC,093921,A,1035.372,S,15622.519,W,04.8,321,060211,10,E,A*04
$IIVHW,,,304,M,04.2,N,,*65
$IIVLW,04289,N,372.8,N*5A
$IIVWR,136,R,08.5,N,,,,*68
$IIGLL,1035.372,S,15622.519,W,093921,A,A*51
$IIHDG,304,,,10,E*14
$IIMTW,+28.5,C*37
$IIMWV,136,R,08.6,N,A*19
$IIMWV,150,T,11.8,N,A*19
$IIRMB,A,3.00,L,,TNGRVA  ,,,,,138.80,313,04.8,V,A*7D
$IIRMC,093922,A,1035.371,S,15622.520,W,04.8,320,060211,10,E,A*0F
$IIVHW,,,304,M,04.1,N,,*66
$IIVLW,04289,N,372.8,N*5A
$IIVWR,136,R,08.6,N,,,,*6B
$IIGLL,1035.370,S,15622.521,W,093923,A,A*5A
$IIHDG,304,,,10,E*14
$IIMTW,+28.5,C*37
$IIMWV,136,R,08.8,N,A*17
$IIMWV,150,T,11.8,N,A*19
$IIRMC,093923,A,1035.370,S,15622.521,W,04.8,320,060211,10,E,A*0E
$IIVHW,,,304,M,04.2,N,,*65
$IIVLW,04289,N,372.8,N*5A
$IIVWR,136,R,08.8,N,,,,*65
$IIGLL,1035.368,S,15622.522,W,093925,A,A*56
$IIHDG,304,,,10,E*14
$IIMTW,+28.5,C*37
$IIMWV,136,R,08.4,N,A*1B
$IIMWV,150,T,12.0,N,A*12
$IIRMB,A,3.00,L,,TNGRVA  ,,,,,138.80,313,05.0,V,A*74
$IIRMC,093925,A,1035.368,S,15622.522,W,05.0,319,060211,10,E,A*01
$IIVHW,,,304,M,04.1,N,,*66
$IIVLW,04289,N,372.8,N*5A
$IIVWR,136,R,08.2,N,,,,*6F
$IIGLL,1035.368,S,15622.522,W,093925,A,A*56
$IIHDG,304,,,10,E*14
$IIMTW,+28.5,C*37
$IIMWV,136,R,08.2,N,A*1D
$IIMWV,151,T,11.6,N,A*16
$IIRMC,093925,A,1035.368,S,15622.522,W,05.0,319,060211,10,E,A*01
$IIVHW,,,304,M,04.1,N,,*66
$IIVLW,04289,N,372.8,N*5A
$IIVWR,136,R,08.7,N,,,,*6A
$IIGLL,1035.367,S,15622.524,W,093926,A,A*5C
$IIHDG,305,,,10,E*15
$IIMTW,+28.5,C*37
$IIMWV,136,R,08.7,N,A*18
$IIMWV,151,T,11.4,N,A*14
$IIRMB,A,3.00,L,,TNGRVA  ,,,,,138.80,313,04.9,V,A*7C
$IIRMC,093927,A,1035.367,S,15622.524,W,04.9,317,060211,10,E,A*0C
$IIVHW,,,304,M,04.0,N,,*67
$IIVLW,04289,N,372.8,N*5A
$IIVWR,136,R,08.8,N,,,,*65
$IIGLL,1035.367,S,15622.524,W,093927,A,A*5D
$IIHDG,304,,,10,E*14
$IIMTW,+28.5,C*37
$IIMWV,136,R,08.8,N,A*17
$IIMWV,150,T,11.9,N,A*18
$IIRMB,A,3.00,L,,TNGRVA  ,,,,,138.80,313,04.4,V,A*71
$IIRMC,093928,A,1035.365,S,15622.526,W,04.6,319,060211,10,E,A*02
$IIVHW,,,303,M,04.0,N,,*60
$IIVLW,04289,N,372.8,N*5A
$IIVWR,136,R,08.8,N,,,,*65
$IIGLL,1035.365,S,15622.526,W,093928,A,A*52
$IIHDG,303,,,10,E*13
$IIMTW,+28.5,C*37
$IIMWV,136,R,08.6,N,A*19
$IIMWV,150,T,12.0,N,A*12
$IIRMC,093929,A,1035.364,S,15622.527,W,04.6,319,060211,10,E,A*03
$IIVHW,,,303,M,04.2,N,,*62
$IIVLW,04289,N,372.8,N*5A
$IIVWR,136,R,08.6,N,,,,*6B
$IIGLL,1035.364,S,15622.527,W,093929,A,A*53
$IIHDG,303,,,10,E*13
$IIMTW,+28.5,C*37
$IIMWV,136,R,08.7,N,A*18
$IIMWV,150,T,11.8,N,A*19
$IIRMB,A,3.00,L,,TNGRVA  ,,,,,138.80,313,04.4,V,A*71
$IIRMC,093930,A,1035.363,S,15622.528,W,04.4,320,060211,10,E,A*0B
$IIVHW,,,304,M,04.3,N,,*64
$IIVLW,04289,N,372.8,N*5A
$IIVWR,136,R,08.7,N,,,,*6A
$IIGLL,1035.363,S,15622.528,W,093930,A,A*53
$IIHDG,305,,,10,E*15
$IIMTW,+28.5,C*37
$IIMWV,136,R,08.9,N,A*16
$IIMWV,150,T,12.0,N,A*12
$IIRMC,093930,A,1035.363,S,15622.528,W,04.4,320,060211,10,E,A*0B
$IIVHW,,,305,M,04.3,N,,*65
$IIVLW,04289,N,372.8,N*5A
$IIVWR,136,R,08.9,N,,,,*64
$IIGLL,1035.361,S,15622.530,W,093932,A,A*5A
$IIHDG,305,,,10,E*15
$IIMTW,+28.5,C*37
$IIMWV,136,R,08.5,N,A*1A
$IIMWV,150,T,12.3,N,A*11
$IIRMB,A,3.00,L,,TNGRVA  ,,,,,138.80,313,04.4,V,A*71
$IIRMC,093932,A,1035.361,S,15622.530,W,04.4,320,060211,10,E,A*02
$IIVHW,,,305,M,04.2,N,,*64
$IIVLW,04289,N,372.8,N*5A
$IIVWR,136,R,08.3,N,,,,*6E
$IIGLL,1035.361,S,15622.530,W,093933,A,A*5B
$IIHDG,306,,,10,E*16
$IIMTW,+28.5,C*37
$IIMWV,136,R,08.3,N,A*1C
$IIMWV,151,T,11.9,N,A*19
$IIRMC,093933,A,1035.361,S,15622.530,W,04.4,320,060211,10,E,A*03
$IIVHW,,,306,M,04.2,N,,*67
$IIVLW,04289,N,372.8,N*5A
$IIVWR,136,R,08.1,N,,,,*6C
$IIGLL,1035.360,S,15622.531,W,093934,A,A*5C
$IIHDG,305,,,10,E*15
$IIMTW,+28.5,C*37
$IIMWV,136,R,08.1,N,A*1E
$IIMWV,151,T,11.6,N,A*16
$IIRMB,A,3.00,L,,TNGRVA  ,,,,,138.80,313,04.4,V,A*71
$IIRMC,093935,A,1035.359,S,15622.532,W,04.4,320,060211,10,E,A*0C
$IIVHW,,,305,M,04.1,N,,*67
$IIVLW,04289,N,372.8,N*5A
$IIVWR,136,R,07.8,N,,,,*6A
$IIGLL,1035.359,S,15622.532,W,093935,A,A*54
$IIHDG,305,,,10,E*15
$IIMTW,+28.5,C*37
$IIMWV,136,R,07.8,N,A*18
$IIMWV,151,T,11.3,N,A*13
$IIRMB,A,3.00,L,,TNGRVA  ,,,,,138.80,313,04.3,V,A*76
$IIRMC,093936,A,1035.358,S,15622.533,W,04.3,317,060211,10,E,A*0C
$IIVHW,,,305,M,04.1,N,,*67
$IIVLW,04289,N,372.8,N*5A
$IIVWR,136,R,07.7,N,,,,*65
$IIGLL,1035.358,S,15622.533,W,093936,A,A*57
$IIHDG,305,,,10,E*15
$IIMTW,+28.5,C*37
$IIMWV,136,R,07.7,N,A*17
$IIMWV,151,T,10.9,N,A*18
$IIRMC,093937,A,1035.358,S,15622.534,W,04.3,317,060211,10,E,A*0A
$IIVHW,,,304,M,04.1,N,,*66
$IIVLW,04289,N,372.8,N*5A
$IIVWR,136,R,07.7,N,,,,*65
$IIGLL,1035.358,S,15622.534,W,093937,A,A*51
$IIHDG,304,,,10,E*14
$IIMTW,+28.5,C*37
$IIMWV,136,R,07.7,N,A*17
$IIMWV,151,T,11.0,N,A*10
$IIRMB,A,3.00,L,,TNGRVA  ,,,,,138.80,313,04.3,V,A*76
$IIRMC,093938,A,1035.356,S,15622.535,W,04.3,317,060211,10,E,A*0A
$IIVHW,,,303,M,04.1,N,,*61
$IIVLW,04289,N,372.8,N*5A
$IIVWR,136,R,07.7,N,,,,*65
$IIGLL,1035.356,S,15622.535,W,093939,A,A*50
$IIHDG,304,,,10,E*14
$IIMTW,+28.5,C*37
$IIMWV,136,R,07.5,N,A*15
$IIMWV,151,T,11.0,N,A*10
$IIRMC,093939,A,1035.356,S,15622.535,W,04.3,317,060211,10,E,A*0B
$IIVHW,,,304,M,04.1,N,,*66
$IIVLW,04289,N,372.8,N*5A
$IIVWR,136,R,07.5,N,,,,*67
$IIGLL,1035.355,S,15622.537,W,093940,A,A*5F
$IIHDG,303,,,10,E*13
$IIMTW,+28.5,C*37
$IIMWV,136,R,07.8,N,A*18
$IIMWV,152,T,10.8,N,A*1A
$IIRMB,A,3.00,L,,TNGRVA  ,,,,,138.80,313,04.4,V,A*71
$IIRMC,093940,A,1035.355,S,15622.537,W,04.4,318,060211,10,E,A*0C
$IIVHW,,,303,M,04.1,N,,*61
$IIVLW,04289,N,372.8,N*5A
$IIVWR,136,R,08.0,N,,,,*6D
$IIGLL,1035.354,S,15622.538,W,093941,A,A*50
$IIHDG,303,,,10,E*13
$IIMTW,+28.5,C*37
$IIMWV,136,R,08.0,N,A*1F
$IIMWV,151,T,11.1,N,A*11
$IIRMC,093941,A,1035.354,S,15622.538,W,04.4,318,060211,10,E,A*03
$IIVHW,,,303,M,04.2,N,,*62
$IIVLW,04289,N,372.8,N*5A
$IIVWR,136,R,08.0,N,,,,*6D
$IIGLL,1035.353,S,15622.538,W,093942,A,A*54
$IIHDG,303,,,10,E*13
$IIMTW,+28.5,C*37
$IIMWV,136,R,08.0,N,A*1F
$IIMWV,151,T,11.3,N,A*13
$IIRMB,A,3.00,L,,TNGRVA  ,,,,,138.80,313,04.3,V,A*76
$IIRMC,093943,A,1035.353,S,15622.539,W,04.4,320,060211,10,E,A*0C
$IIVHW,,,303,M,04.2,N,,*62
$IIVLW,04289,N,372.8,N*5A
$IIVWR,136,R,07.6,N,,,,*64
$IIGLL,1035.353,S,15622.539,W,093943,A,A*54
$IIHDG,303,,,10,E*13
$IIMTW,+28.5,C*37
$IIMWV,136,R,07.6,N,A*16
$IIMWV,151,T,11.4,N,A*14
$IIRMB,A,3.00,L,,TNGRVA  ,,,,,138.80,313,04.4,V,A*71
$IIRMC,093944,A,1035.351,S,15622.539,W,04.4,320,060211,10,E,A*09
$IIVHW,,,303,M,04.2,N,,*62
$IIVLW,04289,N,372.8,N*5A
$IIVWR,136,R,07.6,N,,,,*64
$IIGLL,1035.351,S,15622.539,W,093944,A,A*51
$IIHDG,303,,,10,E*13
$IIMTW,+28.5,C*37
$IIMWV,136,R,08.2,N,A*1D
$IIMWV,151,T,10.9,N,A*18
$IIRMC,093945,A,1035.350,S,15622.540,W,04.4,320,060211,10,E,A*07
$IIVHW,,,303,M,04.0,N,,*60
$IIVLW,04289,N,372.8,N*5A
$IIVWR,136,R,08.2,N,,,,*6F
$IIGLL,1035.350,S,15622.540,W,093945,A,A*5F
$IIHDG,303,,,10,E*13
$IIMTW,+28.5,C*37
$IIMWV,136,R,08.3,N,A*1C
$IIMWV,151,T,11.4,N,A*14
$IIRMB,A,3.00,L,,TNGRVA  ,,,,,138.80,313,04.5,V,A*70
$IIRMC,093946,A,1035.349,S,15622.541,W,04.6,318,060211,10,E,A*04
$IIVHW,,,302,M,04.0,N,,*61
$IIVLW,04289,N,372.8,N*5A
$IIVWR,136,R,08.3,N,,,,*6E
$IIGLL,1035.348,S,15622.541,W,093947,A,A*55
$IIHDG,302,,,10,E*12
$IIMTW,+28.5,C*37
$IIMWV,136,R,07.8,N,A*18
$IIMWV,150,T,11.4,N,A*15
$IIRMC,093947,A,1035.348,S,15622.541,W,04.6,318,060211,10,E,A*04
$IIVHW,,,302,M,04.0,N,,*61
$IIVLW,04289,N,372.8,N*5A
$IIVWR,136,R,07.8,N,,,,*6A
$IIGLL,1035.346,S,15622.542,W,093948,A,A*57
$IIHDG,302,,,10,E*12
$IIMTW,+28.5,C*37
$IIMWV,136,R,07.5,N,A*15
$IIMWV,151,T,10.9,N,A*18
$IIRMB,A,3.00,L,,TNGRVA  ,,,,,138.80,313,04.5,V,A*70
$IIRMC,093948,A,1035.346,S,15622.542,W,04.5,317,060211,10,E,A*0A
$IIVHW,,,302,M,04.0,N,,*61
$IIVLW,04289,N,372.8,N*5A
$IIVWR,136,R,08.1,N,,,,*6C
$IIGLL,1035.346,S,15622.543,W,093949,A,A*57
$IIHDG,302,,,10,E*12
$IIMTW,+28.5,C*37
$IIMWV,136,R,08.1,N,A*1E
$IIMWV,151,T,10.6,N,A*17
$IIRMC,093949,A,1035.346,S,15622.543,W,04.5,317,060211,10,E,A*0A
$IIVHW,,,302,M,04.0,N,,*61
$IIVLW,04289,N,372.8,N*5A
$IIVWR,136,R,08.3,N,,,,*6E
$IIGLL,1035.345,S,15622.544,W,093950,A,A*5B
$IIHDG,301,,,10,E*11
$IIMTW,+28.5,C*37
$IIMWV,136,R,08.3,N,A*1C
$IIMWV,151,T,11.2,N,A*12
$IIRMB,A,3.00,L,,TNGRVA  ,,,,,138.80,313,04.4,V,A*71
$IIRMC,093951,A,1035.344,S,15622.545,W,04.4,316,060211,10,E,A*07
$IIVHW,,,301,M,03.9,N,,*6C
$IIVLW,04289,N,372.8,N*5A
$IIVWR,136,R,08.3,N,,,,*6E
$IIGLL,1035.344,S,15622.545,W,093951,A,A*5A
$IIHDG,301,,,10,E*11
$IIMTW,+28.5,C*37
$IIMWV,136,R,08.3,N,A*1C
$IIMWV,150,T,11.4,N,A*15
$IIRMB,A,3.00,L,,TNGRVA  ,,,,,138.80,313,04.1,V,A*74
$IIRMC,093952,A,1035.343,S,15622.546,W,04.1,318,060211,10,E,A*0B
$IIVHW,,,301,M,03.9,N,,*6C
$IIVLW,04289,N,372.8,N*5A
$IIVWR,136,R,07.7,N,,,,*65
$IIGLL,1035.343,S,15622.546,W,093952,A,A*5D
$IIHDG,301,,,10,E*11
$IIMTW,+28.5,C*37
$IIMWV,136,R,07.4,N,A*14
$IIMWV,151,T,10.8,N,A*19
$IIRMC,093953,A,1035.342,S,15622.547,W,04.1,318,060211,10,E,A*0A
$IIVHW,,,301,M,03.9,N,,*6C
$IIVLW,04289,N,372.8,N*5A
$IIVWR,136,R,07.4,N,,,,*66
$IIGLL,1035.342,S,15622.547,W,093953,A,A*5C
$IIHDG,301,,,10,E*11
$IIMTW,+28.5,C*37
$IIMWV,136,R,07.9,N,A*19
$IIMWV,151,T,10.6,N,A*17
$IIRMB,A,3.00,L,,TNGRVA  ,,,,,138.80,313,04.1,V,A*74
$IIRMC,093954,A,1035.342,S,15622.547,W,04.1,317,060211,10,E,A*02
$IIVHW,,,301,M,04.0,N,,*62
$IIVLW,04289,N,372.8,N*5A
$IIVWR,136,R,07.9,N,,,,*6B
$IIGLL,1035.341,S,15622.548,W,093955,A,A*56
$IIHDG,301,,,10,E*11
$IIMTW,+28.5,C*37
$IIMWV,136,R,08.2,N,A*1D
$IIMWV,151,T,11.1,N,A*11
$IIRMC,093955,A,1035.341,S,15622.548,W,04.1,317,060211,10,E,A*0F
$IIVHW,,,301,M,04.0,N,,*62
$IIVLW,04289,N,372.8,N*5A
$IIVWR,136,R,08.2,N,,,,*6F
$IIGLL,1035.340,S,15622.549,W,093956,A,A*55
$IIHDG,302,,,10,E*12
$IIMTW,+28.5,C*37
$IIMWV,136,R,08.0,N,A*1F
$IIMWV,151,T,11.4,N,A*14
$IIRMB,A,3.00,L,,TNGRVA  ,,,,,138.80,313,04.1,V,A*74
$IIRMC,093956,A,1035.340,S,15622.549,W,04.1,317,060211,10,E,A*0C
$IIVHW,,,302,M,04.0,N,,*61
$IIVLW,04289,N,372.8,N*5A
$IIVWR,136,R,07.5,N,,,,*67
$IIGLL,1035.339,S,15622.550,W,093957,A,A*52
$IIHDG,302,,,10,E*12
$IIMTW,+28.5,C*37
$IIMWV,136,R,07.5,N,A*15
$IIMWV,151,T,11.2,N,A*12
$IIRMC,093957,A,1035.339,S,15622.550,W,04.1,317,060211,10,E,A*0B
$IIVHW,,,302,M,04.0,N,,*61
$IIVLW,04289,N,372.8,N*5A
$IIVWR,136,R,08.0,N,,,,*6D
$IIGLL,1035.338,S,15622.551,W,093958,A,A*5D
$IIHDG,303,,,10,E*13
$IIMTW,+28.5,C*37
$IIMWV,136,R,08.0,N,A*1F
$IIMWV,152,T,10.7,N,A*15
$IIRMB,A,3.00,L,,TNGRVA  ,,,,,138.80,313,04.1,V,A*74
$IIRMC,093959,A,1035.338,S,15622.551,W,04.1,317,060211,10,E,A*05
$IIVHW,,,303,M,04.0,N,,*60
$IIVLW,04289,N,372.8,N*5A
$IIVWR,136,R,08.7,N,,,,*6A
$IIGLL,1035.338,S,15622.551,W,093959,A,A*5C
$IIHDG,303,,,10,E*13
$IIMTW,+28.5,C*37
$IIMWV,136,R,08.7,N,A*18
$IIMWV,151,T,11.2,N,A*12
$IIRMB,A,3.00,L,,TNGRVA  ,,,,,138.80,313,04.3,V,A*76
$IIRMC,094000,A,1035.337,S,15622.552,W,04.3,318,060211,10,E,A*06
$IIVHW,,,303,M,03.9,N,,*6E
$IIVLW,04289,N,372.8,N*5A
$IIVWR,136,R,08.9,N,,,,*64
$IIGLL,1035.337,S,15622.552,W,094000,A,A*52
$IIHDG,303,,,10,E*13
$IIMTW,+28.5,C*37
$IIMWV,136,R,08.9,N,A*16
$IIMWV,150,T,12.0,N,A*12
$IIRMC,094001,A,1035.336,S,15622.553,W,04.3,318,060211,10,E,A*07
$IIVHW,,,303,M,03.9,N,,*6E
$IIVLW,04289,N,372.8,N*5A
$IIVWR,136,R,08.9,N,,,,*64
$IIGLL,1035.336,S,15622.553,W,094001,A,A*53
$IIHDG,303,,,10,E*13
$IIMTW,+28.5,C*37
$IIMWV,136,R,08.4,N,A*1B
$IIMWV,149,T,11.9,N,A*10
$IIRMB,A,3.00,L,,TNGRVA  ,,,,,138.80,313,04.3,V,A*76
$IIRMC,094002,A,1035.335,S,15622.554,W,04.3,318,060211,10,E,A*00
$IIVHW,,,303,M,03.9,N,,*6E
$IIVLW,04289,N,372.9,N*5B
$IIVWR,136,R,08.4,N,,,,*69
$IIGLL,1035.334,S,15622.555,W,094003,A,A*55
$IIHDG,304,,,10,E*14
$IIMTW,+28.5,C*37
$IIMWV,136,R,08.0,N,A*1F
$IIMWV,150,T,11.5,N,A*14
$IIRMC,094003,A,1035.334,S,15622.555,W,04.3,318,060211,10,E,A*01
$IIVHW,,,304,M,03.9,N,,*69
$IIVLW,04289,N,372.9,N*5B
$IIVWR,136,R,08.0,N,,,,*6D
$IIGLL,1035.333,S,15622.556,W,094004,A,A*56
$IIHDG,306,,,10,E*16
$IIMTW,+28.5,C*37
$IIMWV,136,R,08.1,N,A*1E
$IIMWV,150,T,11.0,N,A*11
$IIRMB,A,3.00,L,,TNGRVA  ,,,,,138.80,313,04.3,V,A*76
$IIRMC,094004,A,1035.333,S,15622.556,W,04.3,318,060211,10,E,A*02
$IIVHW,,,306,M,03.9,N,,*6B
$IIVLW,04289,N,372.9,N*5B
$IIVWR,136,R,08.8,N,,,,*65
$IIGLL,1035.332,S,15622.556,W,094005,A,A*56
$IIHDG,307,,,10,E*17
$IIMTW,+28.5,C*37
$IIMWV,136,R,08.8,N,A*17
$IIMWV,150,T,11.1,N,A*10
$IIRMC,094005,A,1035.332,S,15622.556,W,04.3,318,060211,10,E,A*02
$IIVHW,,,307,M,03.9,N,,*6A
$IIVLW,04289,N,372.9,N*5B
$IIVWR,136,R,08.8,N,,,,*65
$IIGLL,1035.331,S,15622.556,W,094006,A,A*56
$IIHDG,307,,,10,E*17
$IIMTW,+28.5,C*37
$IIMWV,136,R,08.8,N,A*17
$IIMWV,150,T,11.9,N,A*18
$IIRMB,A,3.00,L,,TNGRVA  ,,,,,138.80,313,04.3,V,A*76
$IIRMC,094007,A,1035.330,S,15622.557,W,04.3,316,060211,10,E,A*0D
$IIVHW,,,306,M,03.9,N,,*6B
$IIVLW,04289,N,372.9,N*5B
$IIVWR,150,R,08.1,N,,,,*6C
$IIGLL,1035.330,S,15622.557,W,094007,A,A*57
$IIHDG,306,,,10,E*16
$IIMTW,+28.5,C*37
$IIMWV,150,R,08.1,N,A*1E
$IIMWV,150,T,11.9,N,A*18
$IIRMB,A,3.00,L,,TNGRVA  ,,,,,138.80,313,04.3,V,A*76
$IIRMC,094008,A,1035.329,S,15622.556,W,04.3,318,060211,10,E,A*05
$IIVHW,,,306,M,04.0,N,,*65
$IIVLW,04289,N,372.9,N*5B
$IIVWR,150,R,07.8,N,,,,*6A
$IIDPT,001.1,+0.7,*40
$IIGLL,1035.329,S,15622.556,W,094008,A,A*51
$IIHDG,306,,,10,E*16
$IIMTW,+28.5,C*37
$IIMWV,150,R,08.3,N,A*1C
$IIMWV,160,T,11.3,N,A*11
$IIRMC,094009,A,1035.329,S,15622.557,W,04.3,318,060211,10,E,A*05
$IIVHW,,,307,M,04.0,N,,*64
$IIVLW,04289,N,372.9,N*5B
$IIVWR,150,R,08.3,N,,,,*6E
$IIDPT,001.1,+0.7,*40
$IIGLL,1035.329,S,15622.557,W,094009,A,A*51
$IIHDG,308,,,10,E*18
$IIMTW,+28.5,C*37
$IIMWV,150,R,08.9,N,A*16
$IIMWV,160,T,12.0,N,A*11
$IIRMB,A,3.00,L,,TNGRVA  ,,,,,138.80,313,04.4,V,A*71
$IIRMC,094010,A,1035.328,S,15622.558,W,04.3,317,060211,10,E,A*0C
$IIVHW,,,308,M,04.1,N,,*6A
$IIVLW,04289,N,372.9,N*5B
$IIVWR,150,R,08.9,N,,,,*64
$IIDPT,001.1,+0.7,*40
$IIGLL,1035.328,S,15622.559,W,094011,A,A*57
$IIHDG,307,,,10,E*17
$IIMTW,+28.5,C*37
$IIMWV,150,R,08.9,N,A*16
$IIMWV,160,T,12.5,N,A*14
$IIRMC,094011,A,1035.328,S,15622.559,W,04.3,317,060211,10,E,A*0C
$IIVHW,,,307,M,04.1,N,,*65
$IIVLW,04289,N,372.9,N*5B
$IIVWR,150,R,08.6,N,,,,*6B
$IIDPT,001.1,+0.7,*40
$IIGLL,1035.326,S,15622.560,W,094012,A,A*50
$IIHDG,308,,,10,E*18
$IIMTW,+28.5,C*37
$IIMWV,150,R,08.6,N,A*19
$IIMWV,160,T,12.5,N,A*14
$IIRMB,A,3.00,L,,TNGRVA  ,,,,,138.80,313,04.4,V,A*71
$IIRMC,094013,A,1035.325,S,15622.561,W,04.4,319,060211,10,E,A*01
$IIVHW,,,309,M,04.0,N,,*6A
$IIVLW,04289,N,372.9,N*5B
$IIVWR,150,R,08.6,N,,,,*6B
$IIDPT,001.1,+0.7,*40
$IIGLL,1035.325,S,15622.561,W,094013,A,A*53
$IIHDG,309,,,10,E*19
$IIMTW,+28.5,C*37
$IIMWV,150,R,08.6,N,A*19
$IIMWV,160,T,12.2,N,A*13
$IIRMB,A,3.00,L,,TNGRVA  ,,,,,138.80,313,04.4,V,A*71
$IIRMC,094014,A,1035.324,S,15622.562,W,04.4,318,060211,10,E,A*05
$IIVHW,,,309,M,03.9,N,,*64
$IIVLW,04289,N,372.9,N*5B
$IIVWR,150,R,08.4,N,,,,*69
$IIDPT,001.1,+0.7,*40
$IIGLL,1035.324,S,15622.562,W,094014,A,A*56
$IIHDG,309,,,10,E*19
$IIMTW,+28.5,C*37
$IIMWV,150,R,07.9,N,A*19
$IIMWV,160,T,11.6,N,A*14
$IIRMB,A,3.00,L,,TNGRVA  ,,,,,138.80,313,04.6,V,A*73
$IIRMC,094016,A,1035.321,S,15622.564,W,04.6,321,060211,10,E,A*0C
$IIVHW,,,309,M,03.8,N,,*65
$IIVLW,04289,N,372.9,N*5B
$IIVWR,150,R,07.9,N,,,,*6B
$IIDPT,001.1,+0.7,*40
$IIGLL,1035.320,S,15622.565,W,094017,A,A*56
$IIHDG,309,,,10,E*19
$IIMTW,+28.5,C*37
$IIMWV,150,R,07.7,N,A*17
$IIMWV,160,T,11.3,N,A*11
$IIRMC,094017,A,1035.320,S,15622.565,W,04.6,321,060211,10,E,A*0D
$IIVHW,,,309,M,03.9,N,,*64
$IIVLW,04289,N,372.9,N*5B
$IIVWR,150,R,07.6,N,,,,*64
$IIDPT,001.1,+0.7,*40
$IIGLL,1035.319,S,15622.565,W,094018,A,A*53
$IIHDG,309,,,10,E*19
$IIMTW,+28.5,C*37
$IIMWV,150,R,07.6,N,A*16
$IIMWV,160,T,11.2,N,A*10
$IIRMB,A,3.00,L,,TNGRVA  ,,,,,138.80,313,04.5,V,A*70
$IIRMC,094019,A,1035.319,S,15622.566,W,04.6,322,060211,10,E,A*09
$IIVHW,,,309,M,03.9,N,,*64
$IIVLW,04289,N,372.9,N*5B
$IIVWR,150,R,07.8,N,,,,*6A
$IIDPT,001.1,+0.7,*40
$IIGLL,1035.319,S,15622.566,W,094019,A,A*51
$IIHDG,309,,,10,E*19
$IIMTW,+28.5,C*37
$IIMWV,150,R,07.8,N,A*18
$IIMWV,160,T,11.3,N,A*11
$IIRMB,A,3.00,L,,TNGRVA  ,,,,,138.80,313,04.5,V,A*70
$IIRMC,094020,A,1035.317,S,15622.567,W,04.5,321,060211,10,E,A*0C
$IIVHW,,,308,M,03.9,N,,*65
$IIVLW,04289,N,372.9,N*5B
$IIVWR,150,R,07.9,N,,,,*6B
$IIDPT,001.1,+0.7,*40
$IIGLL,1035.317,S,15622.567,W,094020,A,A*54
$IIHDG,308,,,10,E*18
$IIMTW,+28.5,C*37
$IIMWV,150,R,08.1,N,A*1E
$IIMWV,160,T,11.4,N,A*16
$IIRMC,094021,A,1035.317,S,15622.567,W,04.5,321,060211,10,E,A*0D
$IIVHW,,,308,M,04.0,N,,*6B
$IIVLW,04289,N,372.9,N*5B
$IIVWR,150,R,08.1,N,,,,*6C
$IIDPT,001.1,+0.7,*40
$IIGLL,1035.316,S,15622.569,W,094022,A,A*59
$IIHDG,308,,,10,E*18
$IIMTW,+28.5,C*37
$IIMWV,141,R,08.2,N,A*1D
$IIMWV,160,T,11.7,N,A*15
$IIRMB,A,3.00,L,,TNGRVA  ,,,,,138.80,313,04.5,V,A*70
$IIRMC,094022,A,1035.316,S,15622.569,W,04.5,321,060211,10,E,A*01
$IIVHW,,,308,M,04.0,N,,*6B
$IIVLW,04289,N,372.9,N*5B
$IIVWR,141,R,08.1,N,,,,*6C
$IIDPT,001.1,+0.7,*40
$IIGLL,1035.315,S,15622.569,W,094023,A,A*5B
$IIHDG,308,,,10,E*18
$IIMTW,+28.5,C*37
$IIMWV,141,R,08.1,N,A*1E
$IIMWV,154,T,11.4,N,A*11
$IIRMC,094023,A,1035.315,S,15622.569,W,04.5,321,060211,10,E,A*03
$IIVHW,,,307,M,04.1,N,,*65
$IIVLW,04289,N,372.9,N*5B
$IIVWR,136,R,08.2,N,,,,*6F
$IIDPT,001.1,+0.7,*40
$IIGLL,1035.313,S,15622.570,W,094024,A,A*52
$IIHDG,307,,,10,E*17
$IIMTW,+28.5,C*37
$IIMWV,136,R,08.2,N,A*1D
$IIMWV,154,T,11.5,N,A*10
$IIRMB,A,3.00,L,,TNGRVA  ,,,,,138.80,313,04.5,V,A*70
$IIRMC,094025,A,1035.313,S,15622.571,W,04.5,322,060211,10,E,A*09
$IIVHW,,,307,M,04.2,N,,*66
$IIVLW,04289,N,372.9,N*5B
$IIVWR,136,R,08.4,N,,,,*69
$IIDPT,001.1,+0.7,*40
$IIGLL,1035.313,S,15622.571,W,094025,A,A*52
$IIHDG,307,,,10,E*17
$IIMTW,+28.5,C*37
$IIMWV,136,R,08.4,N,A*1B
$IIMWV,150,T,12.0,N,A*12
$IIRMB,A,3.00,L,,TNGRVA  ,,,,,138.80,313,04.5,V,A*70
$IIRMC,094027,A,1035.311,S,15622.572,W,04.5,322,060211,10,E,A*0A
$IIVHW,,,306,M,04.1,N,,*64
$IIVLW,04289,N,372.9,N*5B
$IIVWR,136,R,08.3,N,,,,*6E
$IIGLL,1035.311,S,15622.572,W,094027,A,A*51
$IIHDG,306,,,10,E*16
$IIMTW,+28.5,C*37
$IIMWV,136,R,08.5,N,A*1A
$IIMWV,150,T,11.5,N,A*14
$IIRMB,A,3.00,L,,TNGRVA  ,,,,,138.80,313,04.5,V,A*70
$IIRMC,094028,A,1035.309,S,15622.574,W,04.5,322,060211,10,E,A*0A
$IIVHW,,,306,M,04.2,N,,*67
$IIVLW,04289,N,372.9,N*5B
$IIVWR,136,R,08.5,N,,,,*68
$IIGLL,1035.309,S,15622.574,W,094028,A,A*51
$IIHDG,306,,,10,E*16
$IIMTW,+28.5,C*37
$IIMWV,136,R,08.9,N,A*16
$IIMWV,150,T,11.8,N,A*19
$IIRMC,094028,A,1035.309,S,15622.574,W,04.5,322,060211,10,E,A*0A
$IIVHW,,,306,M,04.1,N,,*64
$IIVLW,04289,N,372.9,N*5B
$IIVWR,136,R,08.9,N,,,,*64
$IIGLL,1035.308,S,15622.574,W,094030,A,A*59
$IIHDG,306,,,10,E*16
$IIMTW,+28.5,C*37
$IIMWV,136,R,08.9,N,A*16
$IIMWV,150,T,12.2,N,A*10
$IIRMB,A,3.00,L,,TNGRVA  ,,,,,138.80,313,04.5,V,A*70
$IIRMC,094030,A,1035.308,S,15622.574,W,04.5,322,060211,10,E,A*02
$IIVHW,,,306,M,03.9,N,,*6B
$IIVLW,04289,N,372.9,N*5B
$IIVWR,136,R,08.7,N,,,,*6A
$IIGLL,1035.308,S,15622.575,W,094031,A,A*59
$IIHDG,305,,,10,E*15
$IIMTW,+28.5,C*37
$IIMWV,136,R,08.7,N,A*18
$IIMWV,150,T,12.0,N,A*12
$IIRMC,094031,A,1035.308,S,15622.575,W,04.5,322,060211,10,E,A*02
$IIVHW,,,305,M,03.9,N,,*68
$IIVLW,04289,N,372.9,N*5B
$IIVWR,136,R,08.4,N,,,,*69
$IIGLL,1035.306,S,15622.576,W,094032,A,A*57
$IIHDG,304,,,10,E*14
$IIMTW,+28.5,C*37
$IIMWV,136,R,08.4,N,A*1B
$IIMWV,149,T,11.8,N,A*11
$IIRMB,A,3.00,L,,TNGRVA  ,,,,,138.80,313,04.5,V,A*70
$IIRMC,094033,A,1035.306,S,15622.576,W,04.5,322,060211,10,E,A*0D
$IIVHW,,,305,M,04.0,N,,*66
$IIVLW,04289,N,372.9,N*5B
$IIVWR,136,R,08.4,N,,,,*69
$IIGLL,1035.306,S,15622.576,W,094033,A,A*56
$IIHDG,305,,,10,E*15
$IIMTW,+28.5,C*37
$IIMWV,136,R,08.4,N,A*1B
$IIMWV,150,T,11.5,N,A*14
$IIRMB,A,3.00,L,,TNGRVA  ,,,,,138.80,313,04.5,V,A*70
$IIRMC,094034,A,1035.304,S,15622.577,W,04.5,322,060211,10,E,A*09
$IIVHW,,,306,M,04.0,N,,*65
$IIVLW,04289,N,372.9,N*5B
$IIVWR,136,R,08.4,N,,,,*69
$IIGLL,1035.304,S,15622.577,W,094034,A,A*52
$IIHDG,306,,,10,E*16
$IIMTW,+28.5,C*37
$IIMWV,136,R,08.5,N,A*1A
$IIMWV,150,T,11.5,N,A*14
$IIRMC,094035,A,1035.303,S,15622.578,W,04.5,322,060211,10,E,A*00
$IIVHW,,,306,M,04.1,N,,*64
$IIVLW,04289,N,372.9,N*5B
$IIVWR,136,R,08.5,N,,,,*68
$IIGLL,1035.303,S,15622.578,W,094035,A,A*5B
$IIHDG,306,,,10,E*16
$IIMTW,+28.5,C*37
$IIMWV,144,R,08.4,N,A*1E
$IIMWV,150,T,11.7,N,A*16
$IIRMB,A,3.00,L,,TNGRVA  ,,,,,138.80,313,04.6,V,A*73
$IIRMC,094036,A,1035.302,S,15622.579,W,04.6,321,060211,10,E,A*03
$IIVHW,,,305,M,04.0,N,,*66
$IIVLW,04289,N,372.9,N*5B
$IIVWR,144,R,08.4,N,,,,*6C
$IIGLL,1035.302,S,15622.580,W,094037,A,A*5F
$IIHDG,305,,,10,E*15
$IIMTW,+28.5,C*37
$IIMWV,136,R,07.8,N,A*18
$IIMWV,156,T,11.9,N,A*1E
$IIRMC,094037,A,1035.302,S,15622.580,W,04.6,321,060211,10,E,A*04
$IIVHW,,,305,M,03.9,N,,*68
$IIVLW,04289,N,372.9,N*5B
$IIVWR,136,R,07.8,N,,,,*6A
$IIGLL,1035.301,S,15622.581,W,094038,A,A*52
$IIHDG,306,,,10,E*16
$IIMTW,+28.5,C*37
$IIMWV,136,R,07.9,N,A*19
$IIMWV,151,T,10.9,N,A*18
$IIRMB,A,3.00,L,,TNGRVA  ,,,,,138.80,313,04.5,V,A*70
$IIRMC,094038,A,1035.301,S,15622.581,W,04.5,319,060211,10,E,A*01
$IIVHW,,,306,M,03.9,N,,*6B
$IIVLW,04289,N,372.9,N*5B
$IIVWR,136,R,08.4,N,,,,*69
$IIGLL,1035.301,S,15622.582,W,094039,A,A*50
$IIHDG,306,,,10,E*16
$IIMTW,+28.5,C*37
$IIMWV,136,R,08.4,N,A*1B
$IIMWV,151,T,11.0,N,A*10
$IIRMC,094039,A,1035.301,S,15622.582,W,04.5,319,060211,10,E,A*03
$IIVHW,,,306,M,04.0,N,,*65
$IIVLW,04289,N,372.9,N*5B
$IIVWR,144,R,08.5,N,,,,*6D
$IIGLL,1035.300,S,15622.584,W,094040,A,A*59
$IIHDG,305,,,10,E*15
$IIMTW,+28.5,C*37
$IIMWV,144,R,08.5,N,A*1F
$IIMWV,150,T,11.5,N,A*14
$IIRMB,A,3.00,L,,TNGRVA  ,,,,,138.70,313,04.3,V,A*79
$IIRMC,094041,A,1035.299,S,15622.584,W,04.4,322,060211,10,E,A*03
$IIVHW,,,304,M,04.0,N,,*67
$IIVLW,04289,N,372.9,N*5B
$IIVWR,144,R,08.3,N,,,,*6B
$IIGLL,1035.299,S,15622.584,W,094041,A,A*59
$IIHDG,304,,,10,E*14
$IIMTW,+28.5,C*37
$IIMWV,144,R,08.3,N,A*19
$IIMWV,155,T,11.9,N,A*1D
$IIRMB,A,3.00,L,,TNGRVA  ,,,,,138.70,313,04.3,V,A*79
$IIRMC,094042,A,1035.298,S,15622.585,W,04.3,323,060211,10,E,A*06
$IIVHW,,,304,M,04.0,N,,*67
$IIVLW,04289,N,372.9,N*5B
$IIVWR,151,R,08.0,N,,,,*6C
$IIGLL,1035.298,S,15622.585,W,094042,A,A*5A
$IIHDG,304,,,10,E*14
$IIMTW,+28.5,C*37
$IIMWV,151,R,08.4,N,A*1A
$IIMWV,161,T,11.5,N,A*16
$IIRMC,094043,A,1035.297,S,15622.586,W,04.3,323,060211,10,E,A*0B
$IIVHW,,,303,M,03.9,N,,*6E
$IIVLW,04289,N,372.9,N*5B
$IIVWR,151,R,08.4,N,,,,*68
$IIGLL,1035.297,S,15622.586,W,094043,A,A*57
$IIHDG,303,,,10,E*13
$IIMTW,+28.5,C*37
$IIMWV,151,R,08.8,N,A*16
$IIMWV,160,T,11.9,N,A*1B
$IIRMB,A,3.00,L,,TNGRVA  ,,,,,138.70,313,04.2,V,A*78
$IIRMC,094044,A,1035.297,S,15622.586,W,04.3,323,060211,10,E,A*0C
$IIVHW,,,304,M,04.0,N,,*67
$IIVLW,04289,N,372.9,N*5B
$IIVWR,151,R,08.8,N,,,,*64
$IIGLL,1035.296,S,15622.587,W,094045,A,A*51
$IIHDG,304,,,10,E*14
$IIMTW,+28.5,C*37
$IIMWV,151,R,08.4,N,A*1A
$IIMWV,160,T,12.3,N,A*12
$IIRMC,094045,A,1035.296,S,15622.587,W,04.3,323,060211,10,E,A*0D
$IIVHW,,,304,M,03.9,N,,*69
$IIVLW,04289,N,372.9,N*5B
$IIVWR,151,R,08.4,N,,,,*68
$IIGLL,1035.295,S,15622.588,W,094046,A,A*5E
$IIHDG,303,,,10,E*13
$IIMTW,+28.5,C*37
$IIMWV,151,R,08.0,N,A*1E
$IIMWV,160,T,11.9,N,A*1B
$IIRMB,A,3.00,L,,TNGRVA  ,,,,,138.70,313,04.3,V,A*79
$IIRMC,094046,A,1035.295,S,15622.588,W,04.4,321,060211,10,E,A*07
$IIVHW,,,303,M,03.8,N,,*6F
$IIVLW,04289,N,372.9,N*5B
$IIVWR,151,R,07.7,N,,,,*64
$IIGLL,1035.294,S,15622.588,W,094047,A,A*5E
$IIHDG,302,,,10,E*12
$IIMTW,+28.5,C*37
$IIMWV,151,R,07.7,N,A*16
$IIMWV,160,T,11.4,N,A*16
$IIRMC,094047,A,1035.294,S,15622.588,W,04.4,321,060211,10,E,A*07
$IIVHW,,,302,M,03.8,N,,*6E
$IIVLW,04289,N,372.9,N*5B
$IIVWR,151,R,07.7,N,,,,*64
$IIGLL,1035.293,S,15622.589,W,094048,A,A*57
$IIHDG,303,,,10,E*13
$IIMTW,+28.5,C*37
$IIMWV,151,R,07.7,N,A*16
$IIMWV,161,T,11.1,N,A*12
$IIRMB,A,3.00,L,,TNGRVA  ,,,,,138.70,313,04.4,V,A*7E
$IIRMC,094049,A,1035.293,S,15622.590,W,04.4,318,060211,10,E,A*0D
$IIVHW,,,303,M,03.8,N,,*6F
$IIVLW,04289,N,372.9,N*5B
$IIVWR,151,R,07.5,N,,,,*66
$IIGLL,1035.293,S,15622.590,W,094049,A,A*5E
$IIHDG,303,,,10,E*13
$IIMTW,+28.5,C*37
$IIMWV,151,R,07.5,N,A*14
$IIMWV,161,T,11.1,N,A*12
$IIRMB,A,3.00,L,,TNGRVA  ,,,,,138.70,313,04.4,V,A*7E
$IIRMC,094050,A,1035.293,S,15622.592,W,04.4,316,060211,10,E,A*09
$IIVHW,,,302,M,03.9,N,,*6F
$IIVLW,04289,N,372.9,N*5B
$IIVWR,151,R,07.3,N,,,,*60
$IIGLL,1035.293,S,15622.592,W,094050,A,A*54
$IIHDG,302,,,10,E*12
$IIMTW,+28.5,C*37
$IIMWV,151,R,07.3,N,A*12
$IIMWV,161,T,10.8,N,A*1A
$IIRMC,094051,A,1035.292,S,15622.594,W,04.4,316,060211,10,E,A*0F
$IIVHW,,,302,M,03.8,N,,*6E
$IIVLW,04289,N,372.9,N*5B
$IIVWR,151,R,07.3,N,,,,*60
$IIGLL,1035.292,S,15622.594,W,094051,A,A*52
$IIHDG,302,,,10,E*12
$IIMTW,+28.5,C*37
$IIMWV,151,R,07.4,N,A*15
$IIMWV,161,T,10.7,N,A*15
$IIRMB,A,3.00,L,,TNGRVA  ,,,,,138.70,313,04.4,V,A*7E
$IIRMC,094052,A,1035.291,S,15622.595,W,04.4,317,060211,10,E,A*0F
$IIVHW,,,301,M,03.8,N,,*6D
$IIVLW,04289,N,372.9,N*5B
$IIVWR,151,R,07.4,N,,,,*67
$IIGLL,1035.290,S,15622.595,W,094053,A,A*53
$IIHDG,302,,,10,E*12
$IIMTW,+28.5,C*37
$IIMWV,151,R,07.4,N,A*15
$IIMWV,161,T,10.7,N,A*15
$IIRMC,094053,A,1035.290,S,15622.595,W,04.4,317,060211,10,E,A*0F
$IIVHW,,,302,M,03.7,N,,*61
$IIVLW,04289,N,372.9,N*5B
$IIVWR,151,R,07.4,N,,,,*67
$IIGLL,1035.289,S,15622.595,W,094054,A,A*5C
$IIHDG,303,,,10,E*13
$IIMTW,+28.5,C*37
$IIMWV,151,R,07.3,N,A*12
$IIMWV,161,T,10.6,N,A*14
$IIRMB,A,3.00,L,,TNGRVA  ,,,,,138.70,313,04.4,V,A*7E
$IIRMC,094054,A,1035.289,S,15622.595,W,04.4,312,060211,10,E,A*05
$IIVHW,,,303,M,03.7,N,,*60
$IIVLW,04289,N,372.9,N*5B
$IIVWR,151,R,07.9,N,,,,*6A
$IIGLL,1035.289,S,15622.596,W,094055,A,A*5E
$IIHDG,303,,,10,E*13
$IIMTW,+28.5,C*37
$IIMWV,151,R,07.9,N,A*18
$IIMWV,161,T,10.5,N,A*17
$IIRMC,094055,A,1035.289,S,15622.596,W,04.4,312,060211,10,E,A*07
$IIVHW,,,303,M,03.8,N,,*6F
$IIVLW,04289,N,372.9,N*5B
$IIVWR,143,R,08.2,N,,,,*6D
$IIGLL,1035.287,S,15622.597,W,094056,A,A*52
$IIHDG,302,,,10,E*12
$IIMTW,+28.5,C*37
$IIMWV,143,R,08.2,N,A*1F
$IIMWV,161,T,11.2,N,A*11
$IIRMB,A,3.00,L,,TNGRVA  ,,,,,138.70,313,04.4,V,A*7E
$IIRMC,094057,A,1035.287,S,15622.598,W,04.4,312,060211,10,E,A*05
$IIVHW,,,302,M,03.8,N,,*6E
$IIVLW,04289,N,372.9,N*5B
$IIVWR,143,R,08.1,N,,,,*6E
$IIGLL,1035.287,S,15622.598,W,094057,A,A*5C
$IIHDG,302,,,10,E*12
$IIMTW,+28.5,C*37
$IIMWV,143,R,08.1,N,A*1C
$IIMWV,155,T,11.4,N,A*10
$IIRMB,A,3.00,L,,TNGRVA  ,,,,,138.70,313,04.4,V,A*7E
$IIRMC,094058,A,1035.286,S,15622.599,W,04.4,312,060211,10,E,A*0A
$IIVHW,,,302,M,03.9,N,,*6F
$IIVLW,04289,N,372.9,N*5B
$IIVWR,143,R,07.8,N,,,,*68
$IIGLL,1035.286,S,15622.599,W,094058,A,A*53
$IIHDG,302,,,10,E*12
$IIMTW,+28.5,C*37
$IIMWV,143,R,07.8,N,A*1A
$IIMWV,156,T,11.1,N,A*16
$IIRMC,094059,A,1035.285,S,15622.599,W,04.4,312,060211,10,E,A*08
$IIVHW,,,302,M,03.9,N,,*6F
$IIVLW,04289,N,372.9,N*5B
$IIVWR,143,R,07.8,N,,,,*68
$IIGLL,1035.285,S,15622.599,W,094059,A,A*51
$IIHDG,302,,,10,E*12
$IIMTW,+28.5,C*37
$IIMWV,143,R,08.1,N,A*1C
$IIMWV,156,T,11.1,N,A*16
$IIRMB,A,3.00,L,,TNGRVA  ,,,,,138.70,313,04.4,V,A*7E
$IIRMC,094100,A,1035.285,S,15622.601,W,04.4,315,060211,10,E,A*00
$IIVHW,,,302,M,03.9,N,,*6F
$IIVLW,04289,N,372.9,N*5B
$IIVWR,143,R,08.1,N,,,,*6E
$IIGLL,1035.284,S,15622.601,W,094101,A,A*5E
$IIHDG,302,,,10,E*12
$IIMTW,+28.5,C*37
$IIMWV,143,R,08.1,N,A*1C
$IIMWV,155,T,11.4,N,A*10
$IIRMC,094101,A,1035.284,S,15622.601,W,04.4,315,060211,10,E,A*00
$IIVHW,,,302,M,03.9,N,,*6F
$IIVLW,04289,N,372.9,N*5B
$IIVWR,143,R,08.1,N,,,,*6E
$IIGLL,1035.283,S,15622.602,W,094102,A,A*59
$IIHDG,303,,,10,E*13
$IIMTW,+28.5,C*37
$IIMWV,143,R,07.9,N,A*1B
$IIMWV,155,T,11.3,N,A*17
$IIRMB,A,3.00,L,,TNGRVA  ,,,,,138.70,313,04.4,V,A*7E
$IIRMC,094102,A,1035.283,S,15622.602,W,04.4,315,060211,10,E,A*07
$IIVHW,,,303,M,03.9,N,,*6E
$IIVLW,04289,N,372.9,N*5B
$IIVWR,143,R,08.2,N,,,,*6D
$IIGLL,1035.282,S,15622.603,W,094103,A,A*58
$IIHDG,304,,,10,E*14
$IIMTW,+28.5,C*37
$IIMWV,143,R,08.2,N,A*1F
$IIMWV,155,T,11.2,N,A*16
$IIRMC,094103,A,1035.282,S,15622.603,W,04.4,315,060211,10,E,A*06
$IIVHW,,,304,M,03.9,N,,*69
$IIVLW,04289,N,372.9,N*5B
$IIVWR,143,R,08.3,N,,,,*6C
$IIGLL,1035.281,S,15622.604,W,094104,A,A*5B
$IIHDG,304,,,10,E*14
$IIMTW,+28.5,C*37
$IIMWV,143,R,08.3,N,A*1E
$IIMWV,155,T,11.4,N,A*10
$IIRMB,A,3.00,L,,TNGRVA  ,,,,,138.70,313,04.4,V,A*7E
$IIRMC,094105,A,1035.281,S,15622.605,W,04.4,315,060211,10,E,A*05
$IIVHW,,,304,M,03.7,N,,*67
$IIVLW,04289,N,372.9,N*5B
$IIVWR,143,R,08.4,N,,,,*6B
$IIGLL,1035.281,S,15622.605,W,094105,A,A*5B
$IIHDG,304,,,10,E*14
$IIMTW,+28.5,C*37
$IIMWV,143,R,08.4,N,A*19
$IIMWV,155,T,11.4,N,A*10
$IIRMB,A,3.00,L,,TNGRVA  ,,,,,138.70,313,04.2,V,A*78
$IIRMC,094106,A,1035.280,S,15622.606,W,04.2,312,060211,10,E,A*05
$IIVHW,,,304,M,03.7,N,,*67
$IIVLW,04289,N,372.9,N*5B
$IIVWR,143,R,08.3,N,,,,*6C
$IIGLL,1035.280,S,15622.606,W,094106,A,A*5A
$IIHDG,304,,,10,E*14
$IIMTW,+28.5,C*37
$IIMWV,143,R,08.3,N,A*1E
$IIMWV,155,T,11.4,N,A*10
$IIRMC,094107,A,1035.279,S,15622.606,W,04.2,312,060211,10,E,A*02
$IIVHW,,,304,M,03.7,N,,*67
$IIVLW,04289,N,372.9,N*5B
$IIVWR,143,R,08.3,N,,,,*6C
$IIGLL,1035.279,S,15622.606,W,094107,A,A*5D
$IIHDG,304,,,10,E*14
$IIMTW,+28.5,C*37
$IIMWV,143,R,08.5,N,A*18
$IIMWV,155,T,11.4,N,A*10
$IIRMB,A,3.00,L,,TNGRVA  ,,,,,138.70,313,04.0,V,A*7A
$IIRMC,094108,A,1035.279,S,15622.608,W,04.0,313,060211,10,E,A*00
$IIVHW,,,304,M,03.8,N,,*68
$IIVLW,04289,N,372.9,N*5B
$IIVWR,143,R,08.5,N,,,,*6A
$IIGLL,1035.278,S,15622.608,W,094109,A,A*5C
$IIHDG,304,,,10,E*14
$IIMTW,+28.5,C*37
$IIMWV,143,R,08.4,N,A*19
$IIMWV,154,T,11.7,N,A*12
$IIRMC,094109,A,1035.278,S,15622.608,W,04.0,313,060211,10,E,A*00
$IIVHW,,,304,M,03.8,N,,*68
$IIVLW,04289,N,372.9,N*5B
$IIVWR,143,R,08.4,N,,,,*6B
$IIGLL,1035.277,S,15622.609,W,094110,A,A*5A
$IIHDG,305,,,10,E*15
$IIMTW,+28.5,C*37
$IIMWV,143,R,08.4,N,A*19
$IIMWV,155,T,11.7,N,A*13
$IIRMB,A,3.00,L,,TNGRVA  ,,,,,138.70,313,04.3,V,A*79
$IIRMC,094110,A,1035.277,S,15622.609,W,04.3,315,060211,10,E,A*03
$IIVHW,,,305,M,03.8,N,,*69
$IIVLW,04289,N,372.9,N*5B
$IIVWR,143,R,08.9,N,,,,*66
$IIGLL,1035.276,S,15622.610,W,094111,A,A*52
$IIHDG,305,,,10,E*15
$IIMTW,+28.5,C*37
$IIMWV,143,R,08.9,N,A*14
$IIMWV,155,T,11.7,N,A*13
$IIRMC,094111,A,1035.276,S,15622.610,W,04.3,315,060211,10,E,A*0B
$IIVHW,,,305,M,03.8,N,,*69
$IIVLW,04289,N,372.9,N*5B
$IIVWR,143,R,08.9,N,,,,*66
$IIGLL,1035.274,S,15622.610,W,094112,A,A*53
$IIHDG,305,,,10,E*15
$IIMTW,+28.5,C*37
$IIMWV,143,R,08.9,N,A*14
$IIMWV,154,T,12.2,N,A*14
$IIRMB,A,3.00,L,,TNGRVA  ,,,,,138.70,313,04.3,V,A*79
$IIRMC,094113,A,1035.273,S,15622.610,W,04.3,317,060211,10,E,A*0E
$IIVHW,,,306,M,03.9,N,,*6B
$IIVLW,04289,N,372.9,N*5B
$IIVWR,143,R,08.2,N,,,,*6D
$IIGLL,1035.273,S,15622.610,W,094113,A,A*55
$IIHDG,306,,,10,E*16
$IIMTW,+28.5,C*37
$IIMWV,143,R,08.2,N,A*1F
$IIMWV,154,T,12.2,N,A*14
$IIRMB,A,3.00,L,,TNGRVA  ,,,,,138.70,313,04.3,V,A*79
$IIRMC,094114,A,1035.272,S,15622.611,W,04.3,321,060211,10,E,A*0C
$IIVHW,,,307,M,03.9,N,,*6A
$IIVLW,04289,N,372.9,N*5B
$IIVWR,143,R,08.0,N,,,,*6F
$IIGLL,1035.272,S,15622.611,W,094114,A,A*52
$IIHDG,307,,,10,E*17
$IIMTW,+28.5,C*37
$IIMWV,143,R,08.7,N,A*1A
$IIMWV,155,T,11.3,N,A*17
$IIRMC,094115,A,1035.271,S,15622.611,W,04.3,321,060211,10,E,A*0E
$IIVHW,,,307,M,03.9,N,,*6A
$IIVLW,04289,N,372.9,N*5B
$IIVWR,143,R,08.7,N,,,,*68
$IIGLL,1035.271,S,15622.611,W,094115,A,A*50
$IIHDG,307,,,10,E*17
$IIMTW,+28.5,C*37
$IIMWV,143,R,08.9,N,A*14
$IIMWV,154,T,11.9,N,A*1C
$IIRMB,A,3.00,L,,TNGRVA  ,,,,,138.70,313,04.3,V,A*79
$IIRMC,094116,A,1035.270,S,15622.613,W,04.3,320,060211,10,E,A*0F
$IIVHW,,,306,M,03.9,N,,*6B
$IIVLW,04289,N,372.9,N*5B
$IIVWR,143,R,08.9,N,,,,*66
$IIGLL,1035.269,S,15622.613,W,094117,A,A*59
$IIHDG,307,,,10,E*17
$IIMTW,+28.5,C*37
$IIMWV,143,R,08.7,N,A*1A
$IIMWV,154,T,12.3,N,A*15
$IIRMC,094117,A,1035.269,S,15622.613,W,04.3,320,060211,10,E,A*06
$IIVHW,,,307,M,04.0,N,,*64
$IIVLW,04289,N,372.9,N*5B
$IIVWR,143,R,08.7,N,,,,*68
$IIGLL,1035.269,S,15622.615,W,094118,A,A*50
$IIHDG,308,,,10,E*18
$IIMTW,+28.5,C*37
$IIMWV,143,R,07.8,N,A*1A
$IIMWV,154,T,12.0,N,A*16
$IIRMB,A,3.00,L,,TNGRVA  ,,,,,138.70,313,04.4,V,A*7E
$IIRMC,094118,A,1035.269,S,15622.615,W,04.3,319,060211,10,E,A*05
$IIVHW,,,308,M,04.0,N,,*6B
$IIVLW,04289,N,372.9,N*5B
$IIVWR,150,R,07.5,N,,,,*67
$IIGLL,1035.268,S,15622.615,W,094119,A,A*50
$IIHDG,308,,,10,E*18
$IIMTW,+28.5,C*37
$IIMWV,150,R,07.5,N,A*15
$IIMWV,156,T,11.1,N,A*16
$IIRMC,094119,A,1035.268,S,15622.615,W,04.3,319,060211,10,E,A*05
$IIVHW,,,308,M,03.9,N,,*65
$IIVLW,04289,N,372.9,N*5B
$IIVWR,150,R,08.1,N,,,,*6C
$IIGLL,1035.267,S,15622.616,W,094120,A,A*56
$IIHDG,307,,,10,E*17
$IIMTW,+28.5,C*37
$IIMWV,150,R,08.1,N,A*1E
$IIMWV,160,T,11.0,N,A*12
$IIRMB,A,3.00,L,,TNGRVA  ,,,,,138.70,313,04.3,V,A*79
$IIRMC,094121,A,1035.267,S,15622.617,W,04.3,315,060211,10,E,A*0F
$IIVHW,,,307,M,03.8,N,,*6B
$IIVLW,04289,N,372.9,N*5B
$IIVWR,150,R,08.6,N,,,,*6B
$IIGLL,1035.267,S,15622.617,W,094121,A,A*56
$IIHDG,307,,,10,E*17
$IIMTW,+28.5,C*37
$IIMWV,150,R,08.6,N,A*19
$IIMWV,160,T,11.6,N,A*14
$IIRMB,A,3.00,L,,TNGRVA  ,,,,,138.70,313,04.4,V,A*7E
$IIRMC,094122,A,1035.266,S,15622.618,W,04.4,313,060211,10,E,A*03
$IIVHW,,,307,M,03.8,N,,*6B
$IIVLW,04289,N,372.9,N*5B
$IIVWR,151,R,08.2,N,,,,*6E
$IIGLL,1035.266,S,15622.618,W,094122,A,A*5B
$IIHDG,307,,,10,E*17
$IIMTW,+28.5,C*37
$IIMWV,151,R,07.9,N,A*18
$IIMWV,160,T,11.6,N,A*14
$IIRMC,094123,A,1035.265,S,15622.619,W,04.4,313,060211,10,E,A*00
$IIVHW,,,307,M,04.0,N,,*64
$IIVLW,04289,N,372.9,N*5B
$IIVWR,151,R,07.9,N,,,,*6A
$IIGLL,1035.265,S,15622.619,W,094123,A,A*58
$IIHDG,307,,,10,E*17
$IIMTW,+28.5,C*37
$IIMWV,151,R,08.2,N,A*1C
$IIMWV,161,T,11.4,N,A*17
$IIRMB,A,3.00,L,,TNGRVA  ,,,,,138.70,313,04.5,V,A*7F
$IIRMC,094124,A,1035.263,S,15622.620,W,04.5,313,060211,10,E,A*0A
$IIVHW,,,308,M,04.1,N,,*6A
$IIVLW,04289,N,372.9,N*5B
$IIVWR,151,R,08.2,N,,,,*6E
$IIGLL,1035.263,S,15622.621,W,094125,A,A*53
$IIHDG,307,,,10,E*17
$IIMTW,+28.5,C*37
$IIMWV,151,R,08.4,N,A*1A
$IIMWV,161,T,11.8,N,A*1B
$IIRMC,094125,A,1035.263,S,15622.621,W,04.5,313,060211,10,E,A*0A
$IIVHW,,,307,M,04.0,N,,*64
$IIVLW,04289,N,372.9,N*5B
$IIVWR,151,R,08.4,N,,,,*68
$IIGLL,1035.262,S,15622.622,W,094126,A,A*52
$IIHDG,306,,,10,E*16
$IIMTW,+28.5,C*37
$IIMWV,151,R,08.1,N,A*1F
$IIMWV,160,T,12.0,N,A*11
$IIRMB,A,3.00,L,,TNGRVA  ,,,,,138.70,313,04.5,V,A*7F
$IIRMC,094126,A,1035.262,S,15622.622,W,04.5,313,060211,10,E,A*0B
$IIVHW,,,306,M,04.0,N,,*65
$IIVLW,04289,N,372.9,N*5B
$IIVWR,151,R,07.8,N,,,,*6B
$IIGLL,1035.261,S,15622.623,W,094127,A,A*51
$IIHDG,307,,,10,E*17
$IIMTW,+28.5,C*37
$IIMWV,151,R,07.8,N,A*19
$IIMWV,161,T,11.7,N,A*14
$IIRMC,094127,A,1035.261,S,15622.623,W,04.5,313,060211,10,E,A*08
$IIVHW,,,307,M,04.0,N,,*64
$IIVLW,04289,N,372.9,N*5B
$IIVWR,144,R,07.5,N,,,,*62
$IIGLL,1035.260,S,15622.624,W,094128,A,A*58
$IIHDG,308,,,10,E*18
$IIMTW,+28.5,C*37
$IIMWV,144,R,07.5,N,A*10
$IIMWV,161,T,11.4,N,A*17
$IIRMB,A,3.00,L,,TNGRVA  ,,,,,138.70,313,04.6,V,A*7C
$IIRMC,094129,A,1035.259,S,15622.624,W,04.6,312,060211,10,E,A*08
$IIVHW,,,308,M,04.0,N,,*6B
$IIVLW,04289,N,372.9,N*5B
$IIVWR,151,R,07.9,N,,,,*6A
$IIGLL,1035.259,S,15622.624,W,094129,A,A*53
$IIHDG,308,,,10,E*18
$IIMTW,+28.5,C*37
$IIMWV,151,R,07.9,N,A*18
$IIMWV,157,T,11.0,N,A*16
$IIRMB,A,3.00,L,,TNGRVA  ,,,,,138.70,313,04.7,V,A*7D
$IIRMC,094130,A,1035.258,S,15622.626,W,04.7,310,060211,10,E,A*00
$IIVHW,,,307,M,04.1,N,,*65
$IIVLW,04289,N,372.9,N*5B
$IIVWR,151,R,08.2,N,,,,*6E
$IIGLL,1035.258,S,15622.626,W,094130,A,A*58
$IIHDG,307,,,10,E*17
$IIMTW,+28.5,C*37
$IIMWV,151,R,08.2,N,A*1C
$IIMWV,161,T,11.8,N,A*1B
$IIRMC,094131,A,1035.258,S,15622.626,W,04.7,310,060211,10,E,A*01
$IIVHW,,,306,M,04.1,N,,*64
$IIVLW,04289,N,372.9,N*5B
$IIVWR,151,R,08.2,N,,,,*6E
$IIGLL,1035.258,S,15622.626,W,094131,A,A*59
$IIHDG,306,,,10,E*16
$IIMTW,+28.5,C*37
$IIMWV,151,R,07.8,N,A*19
$IIMWV,161,T,11.9,N,A*1A
$IIRMB,A,3.00,L,,TNGRVA  ,,,,,138.70,313,04.7,V,A*7D
$IIRMC,094132,A,1035.257,S,15622.628,W,04.7,310,060211,10,E,A*03
$IIVHW,,,305,M,04.2,N,,*64
$IIVLW,04289,N,372.9,N*5B
$IIVWR,151,R,07.8,N,,,,*6B
$IIGLL,1035.256,S,15622.628,W,094133,A,A*5B
$IIHDG,306,,,10,E*16
$IIMTW,+28.5,C*37
$IIMWV,151,R,07.2,N,A*13
$IIMWV,161,T,11.5,N,A*16
$IIRMC,094133,A,1035.256,S,15622.628,W,04.7,310,060211,10,E,A*03
$IIVHW,,,306,M,04.2,N,,*67
$IIVLW,04289,N,372.9,N*5B
$IIVWR,151,R,07.2,N,,,,*61
$IIGLL,1035.255,S,15622.630,W,094134,A,A*56
$IIHDG,307,,,10,E*17
$IIMTW,+28.5,C*37
$IIMWV,151,R,08.0,N,A*1E
$IIMWV,162,T,11.0,N,A*10
$IIRMB,A,3.00,L,,TNGRVA  ,,,,,138.70,313,04.7,V,A*7D
$IIRMC,094134,A,1035.255,S,15622.630,W,04.7,310,060211,10,E,A*0E
$IIVHW,,,307,M,04.2,N,,*66
$IIVLW,04289,N,372.9,N*5B
$IIVWR,151,R,08.4,N,,,,*68
$IIGLL,1035.255,S,15622.630,W,094135,A,A*57
$IIHDG,308,,,10,E*18
$IIMTW,+28.5,C*37
$IIMWV,151,R,08.4,N,A*1A
$IIMWV,161,T,11.8,N,A*1B
$IIRMC,094135,A,1035.255,S,15622.630,W,04.7,310,060211,10,E,A*0F
$IIVHW,,,308,M,04.2,N,,*69
$IIVLW,04289,N,372.9,N*5B
$IIVWR,151,R,08.5,N,,,,*69
$IIGLL,1035.253,S,15622.630,W,094136,A,A*52
$IIHDG,307,,,10,E*17
$IIMTW,+28.5,C*37
$IIMWV,151,R,08.5,N,A*1B
$IIMWV,161,T,12.1,N,A*11
$IIRMB,A,3.00,L,,TNGRVA  ,,,,,138.70,313,03.9,V,A*74
$IIRMC,094137,A,1035.252,S,15622.630,W,04.2,336,060211,10,E,A*0B
$IIVHW,,,307,M,04.1,N,,*65
$IIVLW,04289,N,372.9,N*5B
$IIVWR,151,R,08.0,N,,,,*6C
$IIGLL,1035.252,S,15622.630,W,094137,A,A*52
$IIHDG,307,,,10,E*17
$IIMTW,+28.5,C*37
$IIMWV,151,R,08.0,N,A*1E
$IIMWV,160,T,12.0,N,A*11
$IIRMB,A,3.00,L,,TNGRVA  ,,,,,138.70,313,04.0,V,A*7A
$IIRMC,094138,A,1035.251,S,15622.631,W,04.0,314,060211,10,E,A*04
$IIVHW,,,306,M,04.0,N,,*65
$IIVLW,04289,N,372.9,N*5B
$IIVWR,151,R,07.6,N,,,,*65
$IIGLL,1035.251,S,15622.631,W,094138,A,A*5F
$IIHDG,306,,,10,E*16
$IIMTW,+28.5,C*37
$IIMWV,151,R,08.0,N,A*1E
$IIMWV,161,T,11.2,N,A*11
$IIRMC,094139,A,1035.250,S,15622.631,W,04.0,314,060211,10,E,A*04
$IIVHW,,,306,M,04.2,N,,*67
$IIVLW,04289,N,372.9,N*5B
$IIVWR,151,R,08.0,N,,,,*6C
$IIGLL,1035.250,S,15622.631,W,094139,A,A*5F
$IIHDG,306,,,10,E*16
$IIMTW,+28.5,C*37
$IIMWV,151,R,08.1,N,A*1F
$IIMWV,161,T,11.7,N,A*14
$IIRMB,A,3.00,L,,TNGRVA  ,,,,,138.70,313,04.5,V,A*7F
$IIRMC,094140,A,1035.249,S,15622.632,W,04.5,323,060211,10,E,A*00
$IIVHW,,,307,M,04.2,N,,*66
$IIVLW,04289,N,372.9,N*5B
$IIVWR,151,R,08.1,N,,,,*6D
$IIGLL,1035.249,S,15622.633,W,094141,A,A*5A
$IIHDG,306,,,10,E*16
$IIMTW,+28.5,C*37
$IIMWV,151,R,07.9,N,A*18
$IIMWV,161,T,11.9,N,A*1A
$IIRMC,094141,A,1035.249,S,15622.633,W,04.5,323,060211,10,E,A*00
$IIVHW,,,306,M,04.2,N,,*67
$IIVLW,04289,N,372.9,N*5B
$IIVWR,151,R,07.9,N,,,,*6A
$IIGLL,1035.248,S,15622.633,W,094142,A,A*58
$IIHDG,305,,,10,E*15
$IIMTW,+28.5,C*37
$IIMWV,151,R,07.8,N,A*19
$IIMWV,162,T,11.7,N,A*17
$IIRMB,A,3.00,L,,TNGRVA  ,,,,,138.70,313,04.4,V,A*7E
$IIRMC,094142,A,1035.248,S,15622.633,W,04.5,322,060211,10,E,A*03
$IIVHW,,,305,M,04.2,N,,*64
$IIVLW,04289,N,372.9,N*5B
$IIVWR,151,R,08.1,N,,,,*6D
$IIGLL,1035.248,S,15622.634,W,094143,A,A*5E
$IIHDG,304,,,10,E*14
$IIMTW,+28.5,C*37
$IIMWV,151,R,08.1,N,A*1F
$IIMWV,161,T,11.5,N,A*16
$IIRMC,094143,A,1035.248,S,15622.634,W,04.5,322,060211,10,E,A*05
$IIVHW,,,304,M,04.1,N,,*66
$IIVLW,04289,N,372.9,N*5B
$IIVWR,151,R,08.2,N,,,,*6E
$IIGLL,1035.247,S,15622.635,W,094144,A,A*57
$IIHDG,304,,,10,E*14
$IIMTW,+28.5,C*37
$IIMWV,151,R,08.2,N,A*1C
$IIMWV,161,T,11.7,N,A*14
$IIRMB,A,3.00,L,,TNGRVA  ,,,,,138.70,313,04.2,V,A*78
$IIRMC,094145,A,1035.246,S,15622.635,W,04.2,321,060211,10,E,A*08
$IIVHW,,,305,M,04.1,N,,*67
$IIVLW,04289,N,372.9,N*5B
$IIVWR,151,R,07.9,N,,,,*6A
$IIGLL,1035.246,S,15622.635,W,094145,A,A*57
$IIHDG,305,,,10,E*15
$IIMTW,+28.5,C*37
$IIMWV,151,R,07.9,N,A*18
$IIMWV,161,T,11.8,N,A*1B
$IIRMB,A,3.00,L,,TNGRVA  ,,,,,138.70,313,04.6,V,A*7C
$IIRMC,094146,A,1035.245,S,15622.637,W,04.6,316,060211,10,E,A*0A
$IIVHW,,,305,M,04.0,N,,*66
$IIVLW,04289,N,372.9,N*5B
$IIVWR,151,R,07.8,N,,,,*6B
$IIGLL,1035.245,S,15622.637,W,094146,A,A*55
$IIHDG,305,,,10,E*15
$IIMTW,+28.5,C*37
$IIMWV,151,R,07.9,N,A*18
$IIMWV,161,T,11.4,N,A*17
$IIRMC,094147,A,1035.244,S,15622.637,W,04.6,316,060211,10,E,A*0A
$IIVHW,,,304,M,04.0,N,,*67
$IIVLW,04289,N,372.9,N*5B
$IIVWR,151,R,07.9,N,,,,*6A
$IIGLL,1035.244,S,15622.637,W,094147,A,A*55
$IIHDG,304,,,10,E*14
$IIMTW,+28.5,C*37
$IIMWV,151,R,07.9,N,A*18
$IIMWV,161,T,11.5,N,A*16
$IIRMB,A,3.00,L,,TNGRVA  ,,,,,138.70,313,04.6,V,A*7C
$IIRMC,094148,A,1035.243,S,15622.639,W,04.6,316,060211,10,E,A*0C
$IIVHW,,,303,M,03.9,N,,*6E
$IIVLW,04289,N,372.9,N*5B
$IIVWR,151,R,07.9,N,,,,*6A
$IIGLL,1035.242,S,15622.639,W,094149,A,A*53
$IIHDG,303,,,10,E*13
$IIMTW,+28.5,C*37
$IIMWV,151,R,07.3,N,A*12
$IIMWV,161,T,11.4,N,A*17
$IIRMC,094149,A,1035.242,S,15622.639,W,04.6,316,060211,10,E,A*0C
$IIVHW,,,303,M,03.8,N,,*6F
$IIVLW,04289,N,372.9,N*5B
$IIVWR,151,R,07.3,N,,,,*60
$IIGLL,1035.241,S,15622.640,W,094150,A,A*56
$IIHDG,304,,,10,E*14
$IIMTW,+28.5,C*37
$IIMWV,151,R,07.3,N,A*12
$IIMWV,161,T,10.7,N,A*15
$IIRMB,A,3.00,L,,TNGRVA  ,,,,,138.70,313,04.4,V,A*7E
$IIRMC,094150,A,1035.241,S,15622.640,W,04.5,318,060211,10,E,A*04
$IIVHW,,,304,M,03.8,N,,*68
$IIVLW,04289,N,373.0,N*53
$IIVWR,151,R,07.5,N,,,,*66
$IIGLL,1035.240,S,15622.641,W,094151,A,A*57
$IIHDG,304,,,10,E*14
$IIMTW,+28.5,C*37
$IIMWV,151,R,07.5,N,A*14
$IIMWV,161,T,10.7,N,A*15
$IIRMC,094151,A,1035.240,S,15622.641,W,04.5,318,060211,10,E,A*05
$IIVHW,,,304,M,03.9,N,,*69
$IIVLW,04289,N,373.0,N*53
$IIVWR,151,R,07.8,N,,,,*6B
$IIGLL,1035.240,S,15622.642,W,094152,A,A*57
$IIHDG,303,,,10,E*13
$IIMTW,+28.5,C*37
$IIMWV,151,R,07.8,N,A*19
$IIMWV,161,T,11.1,N,A*12
$IIRMB,A,3.00,L,,TNGRVA  ,,,,,138.70,313,04.3,V,A*79
$IIRMC,094153,A,1035.239,S,15622.642,W,04.4,317,060211,10,E,A*04
$IIVHW,,,303,M,04.0,N,,*60
$IIVLW,04289,N,373.0,N*53
$IIVWR,151,R,07.9,N,,,,*6A
$IIGLL,1035.239,S,15622.642,W,094153,A,A*58
$IIHDG,303,,,10,E*13
$IIMTW,+28.5,C*37
$IIMWV,151,R,07.9,N,A*18
$IIMWV,161,T,11.3,N,A*10
$IIRMB,A,3.00,L,,TNGRVA  ,,,,,138.70,313,04.3,V,A*79
$IIRMC,094154,A,1035.238,S,15622.643,W,04.3,317,060211,10,E,A*04
$IIVHW,,,302,M,04.0,N,,*61
$IIVLW,04289,N,373.0,N*53
$IIVWR,151,R,07.7,N,,,,*64
$IIGLL,1035.238,S,15622.643,W,094154,A,A*5F
$IIHDG,302,,,10,E*12
$IIMTW,+28.5,C*37
$IIMWV,151,R,07.1,N,A*10
$IIMWV,161,T,11.2,N,A*11
$IIRMC,094155,A,1035.237,S,15622.643,W,04.3,317,060211,10,E,A*0A
$IIVHW,,,302,M,04.0,N,,*61
$IIVLW,04289,N,373.0,N*53
$IIVWR,151,R,07.1,N,,,,*62
$IIGLL,1035.237,S,15622.643,W,094155,A,A*51
$IIHDG,302,,,10,E*12
$IIMTW,+28.5,C*37
$IIMWV,151,R,06.7,N,A*17
$IIMWV,162,T,10.7,N,A*16
$IIRMB,A,3.00,L,,TNGRVA  ,,,,,138.70,313,04.3,V,A*79
$IIRMC,094156,A,1035.236,S,15622.645,W,04.3,317,060211,10,E,A*0E
$IIVHW,,,303,M,04.0,N,,*60
$IIVLW,04289,N,373.0,N*53
$IIVWR,151,R,06.7,N,,,,*65
$IIGLL,1035.235,S,15622.645,W,094157,A,A*57
$IIHDG,304,,,10,E*14
$IIMTW,+28.5,C*37
$IIMWV,151,R,07.1,N,A*10
$IIMWV,162,T,10.4,N,A*15
$IIRMC,094157,A,1035.235,S,15622.645,W,04.3,317,060211,10,E,A*0C
$IIVHW,,,304,M,04.1,N,,*66
$IIVLW,04289,N,373.0,N*53
$IIVWR,151,R,07.1,N,,,,*62
$IIGLL,1035.234,S,15622.646,W,094159,A,A*5B
$IIHDG,305,,,10,E*15
$IIMTW,+28.5,C*37
$IIMWV,151,R,07.3,N,A*12
$IIMWV,162,T,10.8,N,A*19
$IIRMB,A,3.00,L,,TNGRVA  ,,,,,138.70,313,04.3,V,A*79
$IIRMC,094159,A,1035.234,S,15622.646,W,04.3,317,060211,10,E,A*00
$IIVHW,,,305,M,04.1,N,,*67
$IIVLW,04289,N,373.0,N*53
$IIVWR,151,R,07.3,N,,,,*60
$IIGLL,1035.233,S,15622.646,W,094159,A,A*5C
$IIHDG,305,,,10,E*15
$IIMTW,+28.5,C*37
$IIMWV,151,R,07.3,N,A*12
$IIMWV,162,T,11.0,N,A*10
$IIRMC,094159,A,1035.233,S,15622.646,W,04.3,317,060211,10,E,A*07
$IIVHW,,,305,M,04.1,N,,*67
$IIVLW,04289,N,373.0,N*53
$IIVWR,151,R,07.0,N,,,,*63
$IIGLL,1035.232,S,15622.647,W,094201,A,A*52
$IIHDG,304,,,10,E*14
$IIMTW,+28.5,C*37
$IIMWV,151,R,07.0,N,A*11
$IIMWV,162,T,11.0,N,A*10
$IIRMB,A,3.00,L,,TNGRVA  ,,,,,138.70,313,04.3,V,A*79
$IIRMC,094201,A,1035.231,S,15622.648,W,04.3,319,060211,10,E,A*0B
$IIVHW,,,304,M,04.0,N,,*67
$IIVLW,04289,N,373.0,N*53
$IIVWR,151,R,06.6,N,,,,*64
$IIGLL,1035.231,S,15622.648,W,094201,A,A*5E
$IIHDG,304,,,10,E*14
$IIMTW,+28.5,C*37
$IIMWV,151,R,06.6,N,A*16
$IIMWV,162,T,10.6,N,A*17
$IIRMB,A,3.00,L,,TNGRVA  ,,,,,138.70,313,04.1,V,A*7B
$IIRMC,094202,A,1035.230,S,15622.650,W,04.1,318,060211,10,E,A*03
$IIVHW,,,305,M,04.0,N,,*66
$IIVLW,04289,N,373.0,N*53
$IIVWR,151,R,07.0,N,,,,*63
$IIGLL,1035.230,S,15622.650,W,094202,A,A*55
$IIHDG,305,,,10,E*15
$IIMTW,+28.5,C*37
$IIMWV,151,R,07.9,N,A*18
$IIMWV,162,T,10.5,N,A*14
$IIRMC,094203,A,1035.230,S,15622.650,W,04.1,318,060211,10,E,A*02
$IIVHW,,,305,M,04.0,N,,*66
$IIVLW,04289,N,373.0,N*53
$IIVWR,151,R,07.9,N,,,,*6A
$IIGLL,1035.230,S,15622.650,W,094203,A,A*54
$IIHDG,305,,,10,E*15
$IIMTW,+28.5,C*37
$IIMWV,151,R,07.9,N,A*18
$IIMWV,161,T,11.4,N,A*17
$IIRMB,A,3.00,L,,TNGRVA  ,,,,,138.70,313,04.2,V,A*78
$IIRMC,094205,A,1035.229,S,15622.651,W,04.2,320,060211,10,E,A*05
$IIVHW,,,305,M,04.0,N,,*66
$IIVLW,04289,N,373.0,N*53
$IIVWR,151,R,07.9,N,,,,*6A
$IIGLL,1035.228,S,15622.652,W,094205,A,A*59
$IIHDG,305,,,10,E*15
$IIMTW,+28.5,C*37
$IIMWV,151,R,07.4,N,A*15
$IIMWV,161,T,11.5,N,A*16
$IIRMC,094205,A,1035.228,S,15622.652,W,04.2,320,060211,10,E,A*07
$IIVHW,,,305,M,04.1,N,,*67
$IIVLW,04289,N,373.0,N*53
$IIVWR,151,R,07.4,N,,,,*67
$IIGLL,1035.227,S,15622.652,W,094207,A,A*54
$IIHDG,305,,,10,E*15
$IIMTW,+28.5,C*37
$IIMWV,151,R,07.4,N,A*15
$IIMWV,162,T,11.1,N,A*11
$IIRMB,A,3.00,L,,TNGRVA  ,,,,,138.60,313,04.3,V,A*78
$IIRMC,094207,A,1035.227,S,15622.652,W,04.3,320,060211,10,E,A*0B
$IIVHW,,,305,M,04.1,N,,*67
$IIVLW,04289,N,373.0,N*53
$IIVWR,140,R,08.3,N,,,,*6F
$IIGLL,1035.224,S,15622.653,W,094209,A,A*58
$IIHDG,304,,,10,E*14
$IIMTW,+28.5,C*37
$IIMWV,140,R,08.3,N,A*1D
$IIMWV,161,T,11.6,N,A*15
$IIRMB,A,3.00,L,,TNGRVA  ,,,,,138.60,313,04.3,V,A*78
$IIRMC,094209,A,1035.223,S,15622.654,W,04.3,319,060211,10,E,A*0D
$IIVHW,,,304,M,04.2,N,,*65
$IIVLW,04289,N,373.0,N*53
$IIVWR,151,R,08.1,N,,,,*6D
$IIGLL,1035.223,S,15622.654,W,094209,A,A*58
$IIHDG,304,,,10,E*14
$IIMTW,+28.5,C*37
$IIMWV,151,R,08.1,N,A*1F
$IIMWV,153,T,11.7,N,A*15
$IIRMB,A,3.00,L,,TNGRVA  ,,,,,138.60,313,04.3,V,A*78
$IIRMC,094211,A,1035.222,S,15622.656,W,04.3,319,060211,10,E,A*07
$IIVHW,,,304,M,04.0,N,,*67
$IIVLW,04289,N,373.0,N*53
$IIVWR,151,R,07.3,N,,,,*60
$IIGLL,1035.222,S,15622.656,W,094211,A,A*52
$IIHDG,304,,,10,E*14
$IIMTW,+28.5,C*37
$IIMWV,151,R,07.3,N,A*12
$IIMWV,161,T,10.9,N,A*1B
$IIRMC,094211,A,1035.222,S,15622.656,W,04.3,319,060211,10,E,A*07
$IIVHW,,,304,M,04.0,N,,*67
$IIVLW,04289,N,373.0,N*53
$IIVWR,151,R,07.3,N,,,,*60
$IIGLL,1035.222,S,15622.656,W,094211,A,A*52
$IIHDG,304,,,10,E*14
$IIMTW,+28.5,C*37
$IIMWV,151,R,08.3,N,A*1D
$IIMWV,161,T,10.8,N,A*1A
$IIRMB,A,3.00,L,,TNGRVA  ,,,,,138.60,313,04.3,V,A*78
$IIRMC,094213,A,1035.220,S,15622.656,W,04.3,317,060211,10,E,A*09
$IIVHW,,,303,M,03.9,N,,*6E
$IIVLW,04289,N,373.0,N*53
$IIVWR,151,R,08.3,N,,,,*6F
$IIGLL,1035.219,S,15622.657,W,094213,A,A*59
$IIHDG,303,,,10,E*13
$IIMTW,+28.5,C*37
$IIMWV,151,R,08.4,N,A*1A
$IIMWV,161,T,11.8,N,A*1B
$IIRMC,094213,A,1035.219,S,15622.657,W,04.3,317,060211,10,E,A*02
$IIVHW,,,303,M,03.9,N,,*6E
$IIVLW,04289,N,373.0,N*53
$IIVWR,151,R,08.4,N,,,,*68
$IIGLL,1035.219,S,15622.658,W,094215,A,A*50
$IIHDG,304,,,10,E*14
$IIMTW,+28.5,C*37
$IIMWV,151,R,08.1,N,A*1F
$IIMWV,160,T,11.9,N,A*1B
$IIRMB,A,3.00,L,,TNGRVA  ,,,,,138.60,313,04.4,V,A*7F
$IIRMC,094215,A,1035.219,S,15622.658,W,04.3,320,060211,10,E,A*0F
$IIVHW,,,304,M,03.9,N,,*69
$IIVLW,04289,N,373.0,N*53
$IIVWR,151,R,07.7,N,,,,*64
$IIGLL,1035.219,S,15622.659,W,094215,A,A*51
$IIHDG,304,,,10,E*14
$IIMTW,+28.5,C*37
$IIMWV,151,R,07.7,N,A*16
$IIMWV,161,T,11.6,N,A*15
$IIRMC,094215,A,1035.219,S,15622.659,W,04.3,320,060211,10,E,A*0E
$IIVHW,,,304,M,04.0,N,,*67
$IIVLW,04289,N,373.0,N*53
$IIVWR,151,R,08.3,N,,,,*6F
$IIGLL,1035.218,S,15622.661,W,094217,A,A*59
$IIHDG,304,,,10,E*14
$IIMTW,+28.5,C*37
$IIMWV,151,R,08.3,N,A*1D
$IIMWV,161,T,11.2,N,A*11
$IIRMB,A,3.00,L,,TNGRVA  ,,,,,138.60,313,04.4,V,A*7F
$IIRMC,094217,A,1035.218,S,15622.662,W,04.5,318,060211,10,E,A*08
$IIVHW,,,304,M,04.0,N,,*67
$IIVLW,04289,N,373.0,N*53
$IIVWR,151,R,08.7,N,,,,*6B
$IIGLL,1035.218,S,15622.662,W,094217,A,A*5A
$IIHDG,304,,,10,E*14
$IIMTW,+28.5,C*37
$IIMWV,151,R,08.7,N,A*19
$IIMWV,161,T,11.9,N,A*1A
$IIRMB,A,3.00,L,,TNGRVA  ,,,,,138.60,313,04.1,V,A*7A
$IIRMC,094219,A,1035.217,S,15622.664,W,04.2,317,060211,10,E,A*07
$IIVHW,,,303,M,03.9,N,,*6E
$IIVLW,04289,N,373.0,N*53
$IIVWR,151,R,08.6,N,,,,*6A
$IIGLL,1035.217,S,15622.664,W,094219,A,A*5D
$IIHDG,303,,,10,E*13
$IIMTW,+28.5,C*37
$IIMWV,151,R,07.8,N,A*19
$IIMWV,160,T,12.1,N,A*10
$IIRMC,094219,A,1035.216,S,15622.664,W,04.2,317,060211,10,E,A*06
$IIVHW,,,304,M,04.0,N,,*67
$IIVLW,04289,N,373.0,N*53
$IIVWR,151,R,07.8,N,,,,*6B
$IIGLL,1035.216,S,15622.664,W,094219,A,A*5C
$IIHDG,304,,,10,E*14
$IIMTW,+28.5,C*37
$IIMWV,151,R,07.7,N,A*16
$IIMWV,161,T,11.3,N,A*10
$IIRMB,A,3.00,L,,TNGRVA  ,,,,,138.60,313,04.2,V,A*79
$IIRMC,094221,A,1035.215,S,15622.665,W,04.2,313,060211,10,E,A*0B
$IIVHW,,,304,M,04.1,N,,*66
$IIVLW,04289,N,373.0,N*53
$IIVWR,151,R,07.7,N,,,,*64
$IIGLL,1035.215,S,15622.665,W,094221,A,A*55
$IIHDG,305,,,10,E*15
$IIMTW,+28.5,C*37
$IIMWV,151,R,08.0,N,A*1E
$IIMWV,162,T,11.3,N,A*13
$IIRMC,094221,A,1035.215,S,15622.665,W,04.2,313,060211,10,E,A*0B
$IIVHW,,,305,M,04.1,N,,*67
$IIVLW,04289,N,373.0,N*53
$IIVWR,151,R,08.0,N,,,,*6C
$IIGLL,1035.214,S,15622.667,W,094223,A,A*54
$IIHDG,305,,,10,E*15
$IIMTW,+28.5,C*37
$IIMWV,151,R,08.3,N,A*1D
$IIMWV,161,T,11.7,N,A*14
$IIRMB,A,3.00,L,,TNGRVA  ,,,,,138.60,313,04.4,V,A*7F
$IIRMC,094223,A,1035.214,S,15622.667,W,04.4,317,060211,10,E,A*08
$IIVHW,,,305,M,04.1,N,,*67
$IIVLW,04289,N,373.0,N*53
$IIVWR,151,R,08.2,N,,,,*6E
$IIGLL,1035.213,S,15622.668,W,094223,A,A*5C
$IIHDG,304,,,10,E*14
$IIMTW,+28.5,C*37
$IIMWV,151,R,08.2,N,A*1C
$IIMWV,161,T,12.0,N,A*10
$IIRMC,094223,A,1035.213,S,15622.668,W,04.4,317,060211,10,E,A*00
$IIVHW,,,304,M,04.1,N,,*66
$IIVLW,04289,N,373.0,N*53
$IIVWR,151,R,07.8,N,,,,*6B
$IIGLL,1035.211,S,15622.668,W,094225,A,A*58
$IIHDG,304,,,10,E*14
$IIMTW,+28.5,C*37
$IIMWV,151,R,07.8,N,A*19
$IIMWV,161,T,11.8,N,A*1B
$IIRMB,A,3.00,L,,TNGRVA  ,,,,,138.60,313,04.3,V,A*78
$IIRMC,094225,A,1035.211,S,15622.668,W,04.4,319,060211,10,E,A*0A
$IIVHW,,,306,M,04.1,N,,*64
$IIVLW,04289,N,373.0,N*53
$IIVWR,151,R,07.7,N,,,,*64
$IIGLL,1035.211,S,15622.668,W,094225,A,A*58
$IIHDG,306,,,10,E*16
$IIMTW,+28.5,C*37
$IIMWV,151,R,07.7,N,A*16
$IIMWV,161,T,11.4,N,A*17
$IIRMB,A,3.00,L,,TNGRVA  ,,,,,138.60,313,04.3,V,A*78
$IIRMC,094227,A,1035.209,S,15622.669,W,04.3,317,060211,10,E,A*09
$IIVHW,,,307,M,04.1,N,,*65
$IIVLW,04289,N,373.0,N*53
$IIVWR,151,R,08.3,N,,,,*6F
$IIGLL,1035.209,S,15622.669,W,094227,A,A*52
$IIHDG,307,,,10,E*17
$IIMTW,+28.5,C*37
$IIMWV,151,R,08.3,N,A*1D
$IIMWV,161,T,11.9,N,A*1A
$IIRMC,094227,A,1035.209,S,15622.670,W,04.3,317,060211,10,E,A*01
$IIVHW,,,307,M,04.1,N,,*65
$IIVLW,04289,N,373.0,N*53
$IIVWR,151,R,08.3,N,,,,*6F
$IIGLL,1035.209,S,15622.670,W,094227,A,A*5A
$IIHDG,307,,,10,E*17
$IIMTW,+28.5,C*37
$IIMWV,151,R,08.1,N,A*1F
$IIMWV,161,T,11.9,N,A*1A
$IIRMB,A,3.00,L,,TNGRVA  ,,,,,138.60,313,04.4,V,A*7F
$IIRMC,094229,A,1035.207,S,15622.672,W,04.4,318,060211,10,E,A*0B
$IIVHW,,,307,M,04.1,N,,*65
$IIVLW,04289,N,373.0,N*53
$IIVWR,151,R,08.1,N,,,,*6D
$IIGLL,1035.206,S,15622.672,W,094229,A,A*59
$IIHDG,307,,,10,E*17
$IIMTW,+28.5,C*37
$IIMWV,151,R,07.8,N,A*19
$IIMWV,161,T,11.7,N,A*14
$IIRMC,094229,A,1035.206,S,15622.672,W,04.4,318,060211,10,E,A*0A
$IIVHW,,,307,M,04.1,N,,*65
$IIVLW,04289,N,373.0,N*53
$IIVWR,151,R,07.8,N,,,,*6B
$IIGLL,1035.205,S,15622.673,W,094231,A,A*52
$IIHDG,307,,,10,E*17
$IIMTW,+28.5,C*37
$IIMWV,139,R,07.5,N,A*1A
$IIMWV,161,T,11.4,N,A*17
$IIRMB,A,3.00,L,,TNGRVA  ,,,,,138.60,313,04.5,V,A*7E
$IIRMC,094231,A,1035.205,S,15622.673,W,04.5,319,060211,10,E,A*01
$IIVHW,,,307,M,04.0,N,,*64
$IIVLW,04289,N,373.0,N*53
$IIVWR,139,R,07.7,N,,,,*6A
$IIGLL,1035.204,S,15622.673,W,094231,A,A*53
$IIHDG,308,,,10,E*18
$IIMTW,+28.5,C*37
$IIMWV,139,R,07.7,N,A*18
$IIMWV,153,T,10.8,N,A*1B
$IIRMC,094231,A,1035.204,S,15622.673,W,04.5,319,060211,10,E,A*00
$IIVHW,,,308,M,04.1,N,,*6A
$IIVLW,04289,N,373.0,N*53
$IIVWR,134,R,07.7,N,,,,*67
$IIGLL,1035.203,S,15622.674,W,094233,A,A*51
$IIHDG,308,,,10,E*18
$IIMTW,+28.5,C*37
$IIMWV,134,R,07.7,N,A*15
$IIMWV,153,T,11.0,N,A*12
$IIRMB,A,3.00,L,,TNGRVA  ,,,,,138.60,313,04.4,V,A*7F
$IIRMC,094233,A,1035.202,S,15622.674,W,04.4,320,060211,10,E,A*08
$IIVHW,,,307,M,04.0,N,,*64
$IIVLW,04289,N,373.0,N*53
$IIVWR,134,R,07.5,N,,,,*65
$IIGLL,1035.202,S,15622.674,W,094233,A,A*50
$IIHDG,307,,,10,E*17
$IIMTW,+28.5,C*37
$IIMWV,134,R,07.5,N,A*17
$IIMWV,150,T,10.8,N,A*18
$IIRMB,A,3.00,L,,TNGRVA  ,,,,,138.60,313,04.3,V,A*78
$IIRMC,094235,A,1035.201,S,15622.675,W,04.3,319,060211,10,E,A*01
$IIVHW,,,306,M,04.0,N,,*65
$IIVLW,04289,N,373.0,N*53
$IIVWR,134,R,07.5,N,,,,*65
$IIGLL,1035.201,S,15622.675,W,094235,A,A*54
$IIHDG,306,,,10,E*16
$IIMTW,+28.5,C*37
$IIMWV,134,R,07.3,N,A*11
$IIMWV,149,T,10.6,N,A*1E
$IIRMC,094235,A,1035.201,S,15622.676,W,04.3,319,060211,10,E,A*02
$IIVHW,,,306,M,04.0,N,,*65
$IIVLW,04289,N,373.0,N*53
$IIVWR,134,R,07.3,N,,,,*63
$IIGLL,1035.201,S,15622.676,W,094235,A,A*57
$IIHDG,306,,,10,E*16
$IIMTW,+28.5,C*37
$IIMWV,134,R,07.0,N,A*12
$IIMWV,150,T,10.3,N,A*13
$IIRMB,A,3.00,L,,TNGRVA  ,,,,,138.60,313,04.2,V,A*79
$IIRMC,094237,A,1035.200,S,15622.677,W,04.2,320,060211,10,E,A*0B
$IIVHW,,,306,M,04.0,N,,*65
$IIVLW,04289,N,373.0,N*53
$IIVWR,134,R,07.0,N,,,,*60
$IIGLL,1035.200,S,15622.678,W,094237,A,A*5A
$IIHDG,307,,,10,E*17
$IIMTW,+28.5,C*37
$IIMWV,134,R,07.4,N,A*16
$IIMWV,150,T,10.1,N,A*11
$IIRMC,094237,A,1035.200,S,15622.678,W,04.2,320,060211,10,E,A*04
$IIVHW,,,307,M,04.0,N,,*64
