$IIRMC,200001,A,3730.081,N,12228.856,W,00.0,301,300814,15,E,A*1B
$IIVHW,,,004,M,00.0,N,,*60
$IIVLW,08195,N,000.0,N*56
$IIVWR,092,L,08.5,N,,,,*79
$IIDPT,005.0,+0.7,*45
$IIGLL,3730.081,N,12228.856,W,200001,A,A*4F
$IIHDG,004,,,15,E*12
$IIMTW,+18.0,C*31
$IIMWV,268,R,08.5,N,A*12
$IIMWV,268,T,08.5,N,A*14
$IIRMB,A,0.23,R,,HMB-3   ,,,,,001.20,184,,V,A*1F
$IIRMC,200002,A,3730.080,N,12228.857,W,00.0,301,300814,15,E,A*18
$IIVHW,,,004,M,00.0,N,,*60
$IIVLW,08195,N,000.0,N*56
$IIVWR,091,L,08.9,N,,,,*76
$IIDPT,009.3,+0.7,*4A
$IIGLL,3730.080,N,12228.857,W,200002,A,A*4C
$IIHDG,004,,,15,E*12
$IIMTW,+18.0,C*31
$IIMWV,269,R,09.3,N,A*14
$IIMWV,269,T,08.9,N,A*19
$IIRMC,200003,A,3730.080,N,12228.857,W,00.0,301,300814,15,E,A*19
$IIVHW,,,004,M,00.0,N,,*60
$IIVLW,08195,N,000.0,N*56
$IIVWR,091,L,09.3,N,,,,*7D
$IIDPT,030.0,+0.7,*43
$IIGLL,3730.081,N,12228.857,W,200004,A,A*4B
$IIHDG,003,,,15,E*15
$IIMTW,+18.0,C*31
$IIMWV,268,R,09.4,N,A*12
$IIMWV,269,T,09.3,N,A*12
$IIRMB,A,0.23,R,,HMB-3   ,,,,,001.20,184,,V,A*1F
$IIRMC,200004,A,3730.081,N,12228.857,W,00.0,301,300814,15,E,A*1F
$IIVHW,,,003,M,00.0,N,,*67
$IIVLW,08195,N,000.0,N*56
$IIVWR,096,L,09.4,N,,,,*7D
$IIDPT,026.4,+0.7,*40
$IIGLL,3730.081,N,12228.857,W,200005,A,A*4A
$IIHDG,004,,,15,E*12
$IIMTW,+18.0,C*31
$IIMWV,264,R,09.4,N,A*1E
$IIMWV,268,T,09.4,N,A*14
$IIRMC,200005,A,3730.081,N,12228.857,W,00.0,301,300814,15,E,A*1E
$IIVHW,,,004,M,00.0,N,,*60
$IIVLW,08195,N,000.0,N*56
$IIVWR,101,L,09.5,N,,,,*73
$IIDPT,004.6,+0.7,*42
$IIGLL,3730.081,N,12228.857,W,200006,A,A*49
$IIHDG,004,,,15,E*12
$IIMTW,+18.0,C*31
$IIMWV,259,R,09.5,N,A*11
$IIMWV,264,T,09.4,N,A*18
$IIRMB,A,0.23,R,,HMB-3   ,,,,,001.20,184,,V,A*1F
$IIRMC,200007,A,3730.082,N,12228.856,W,00.0,301,300814,15,E,A*1E
$IIVHW,,,004,M,00.0,N,,*60
$IIVLW,08195,N,000.0,N*56
$IIVWR,104,L,09.5,N,,,,*76
$IIDPT,026.2,+0.7,*46
$IIGLL,3730.082,N,12228.856,W,200007,A,A*4A
$IIHDG,004,,,15,E*12
$IIMTW,+18.0,C*31
$IIMWV,256,R,09.5,N,A*1E
$IIMWV,256,T,09.5,N,A*18
$IIRMB,A,0.23,R,,HMB-3   ,,,,,001.20,184,,V,A*1F
$IIRMC,200008,A,3730.082,N,12228.856,W,00.0,301,300814,15,E,A*11
$IIVHW,,,004,M,00.0,N,,*60
$IIVLW,08195,N,000.0,N*56
$IIVWR,101,L,09.7,N,,,,*71
$IIDPT,032.0,+0.7,*41
$IIGLL,3730.082,N,12228.856,W,200008,A,A*45
$IIHDG,004,,,15,E*12
$IIMTW,+18.0,C*31
$IIMWV,263,R,09.9,N,A*14
$IIMWV,259,T,09.7,N,A*15
$IIRMC,200009,A,3730.082,N,12228.856,W,00.0,301,300814,15,E,A*10
$IIVHW,,,004,M,00.0,N,,*60
$IIVLW,08195,N,000.0,N*56
$IIVWR,097,L,09.9,N,,,,*71
$IIDPT,032.0,+0.7,*41
$IIGLL,3730.082,N,12228.857,W,200010,A,A*4D
$IIHDG,004,,,15,E*12
$IIMTW,+18.0,C*31
$IIMWV,266,R,10.1,N,A*11
$IIMWV,263,T,09.9,N,A*12
$IIRMB,A,0.23,R,,HMB-3   ,,,,,001.20,184,,V,A*1F
$IIRMC,200010,A,3730.082,N,12228.857,W,00.0,301,300814,15,E,A*19
$IIVHW,,,004,M,00.0,N,,*60
$IIVLW,08195,N,000.0,N*56
$IIVWR,094,L,10.4,N,,,,*77
$IIDPT,039.9,+0.7,*43
$IIGLL,3730.082,N,12228.857,W,200010,A,A*4D
$IIHDG,003,,,15,E*15
$IIMTW,+18.0,C*31
$IIMWV,266,R,10.4,N,A*14
$IIMWV,266,T,10.1,N,A*17
$IIRMC,200010,A,3730.082,N,12228.857,W,00.0,301,300814,15,E,A*19
$IIVHW,,,003,M,00.0,N,,*67
$IIVLW,08195,N,000.0,N*56
$IIVWR,095,L,10.4,N,,,,*76
$IIDPT,039.5,+0.7,*4F
$IIGLL,3730.081,N,12228.856,W,200012,A,A*4D
$IIHDG,003,,,15,E*15
$IIMTW,+18.0,C*31
$IIMWV,265,R,10.4,N,A*17
$IIMWV,266,T,10.4,N,A*12
$IIRMB,A,0.23,R,,HMB-3   ,,,,,001.20,184,,V,A*1F
$IIRMC,200013,A,3730.081,N,12228.856,W,00.0,301,300814,15,E,A*18
$IIVHW,,,002,M,00.0,N,,*66
$IIVLW,08195,N,000.0,N*56
$IIVWR,095,L,10.2,N,,,,*70
$IIDPT,058.0,+0.7,*4D
$IIGLL,3730.081,N,12228.856,W,200013,A,A*4C
$IIHDG,002,,,15,E*14
$IIMTW,+18.0,C*31
$IIMWV,265,R,10.2,N,A*11
$IIMWV,265,T,10.2,N,A*17
$IIRMB,A,0.23,R,,HMB-3   ,,,,,001.20,184,,V,A*1F
$IIRMC,200014,A,3730.080,N,12228.856,W,00.0,301,300814,15,E,A*1E
$IIVHW,,,002,M,00.0,N,,*66
$IIVLW,08195,N,000.0,N*56
$IIVWR,097,L,10.0,N,,,,*70
$IIDPT,039.5,+0.7,*4F
$IIGLL,3730.080,N,12228.856,W,200014,A,A*4A
$IIHDG,002,,,15,E*14
$IIMTW,+18.0,C*31
$IIMWV,258,R,09.3,N,A*16
$IIMWV,263,T,10.0,N,A*13
$IIRMC,200015,A,3730.080,N,12228.856,W,00.0,301,300814,15,E,A*1F
$IIVHW,,,002,M,00.0,N,,*66
$IIVLW,08195,N,000.0,N*56
$IIVWR,102,L,09.3,N,,,,*76
$IIDPT,044.2,+0.7,*42
$IIGLL,3730.081,N,12228.856,W,200017,A,A*48
$IIHDG,003,,,15,E*15
$IIMTW,+18.0,C*31
$IIMWV,259,R,08.8,N,A*1D
$IIMWV,258,T,09.3,N,A*10
$IIRMB,A,0.23,R,,HMB-3   ,,,,,001.20,184,,V,A*1F
$IIRMC,200017,A,3730.081,N,12228.856,W,00.0,301,300814,15,E,A*1C
$IIVHW,,,003,M,00.0,N,,*67
$IIVLW,08195,N,000.0,N*56
$IIVWR,099,L,08.6,N,,,,*71
$IIDPT,053.8,+0.7,*4E
$IIGLL,3730.081,N,12228.856,W,200017,A,A*48
$IIHDG,003,,,15,E*15
$IIMTW,+18.0,C*31
$IIMWV,261,R,08.6,N,A*18
$IIMWV,259,T,08.8,N,A*1B
$IIRMC,200017,A,3730.081,N,12228.856,W,00.0,301,300814,15,E,A*1C
$IIVHW,,,004,M,00.0,N,,*60
$IIVLW,08195,N,000.0,N*56
$IIVWR,100,L,08.1,N,,,,*77
$IIDPT,053.8,+0.7,*4E
$IIGLL,3730.082,N,12228.856,W,200019,A,A*45
$IIHDG,004,,,15,E*12
$IIMTW,+18.0,C*31
$IIMWV,260,R,08.1,N,A*1E
$IIMWV,261,T,08.6,N,A*1E
$IIRMB,A,0.23,R,,HMB-3   ,,,,,001.20,184,,V,A*1F
$IIRMC,200019,A,3730.082,N,12228.856,W,00.0,301,300814,15,E,A*11
$IIVHW,,,004,M,00.0,N,,*60
$IIVLW,08195,N,000.0,N*56
$IIVWR,099,L,07.9,N,,,,*71
$IIDPT,046.3,+0.7,*41
$IIGLL,3730.082,N,12228.856,W,200019,A,A*45
$IIHDG,004,,,15,E*12
$IIMTW,+18.0,C*31
$IIMWV,261,R,07.9,N,A*18
$IIMWV,261,T,07.9,N,A*1E
$IIRMB,A,0.23,R,,HMB-3   ,,,,,001.20,184,,V,A*1F
$IIRMC,200021,A,3730.082,N,12228.856,W,00.0,301,300814,15,E,A*1A
$IIVHW,,,004,M,00.0,N,,*60
$IIVLW,08195,N,000.0,N*56
$IIVWR,095,L,08.1,N,,,,*7A
$IIDPT,046.3,+0.7,*41
$IIGLL,3730.082,N,12228.856,W,200021,A,A*4E
$IIHDG,004,,,15,E*12
$IIMTW,+18.0,C*31
$IIMWV,263,R,08.0,N,A*1C
$IIMWV,265,T,08.1,N,A*1D
$IIRMC,200021,A,3730.082,N,12228.856,W,00.0,301,300814,15,E,A*1A
$IIVHW,,,004,M,00.0,N,,*60
$IIVLW,08195,N,000.0,N*56
$IIVWR,097,L,08.0,N,,,,*79
$IIDPT,009.2,+0.7,*4B
$IIGLL,3730.082,N,12228.857,W,200023,A,A*4D
$IIHDG,004,,,15,E*12
$IIMTW,+18.0,C*31
$IIMWV,259,R,08.1,N,A*14
$IIMWV,263,T,08.0,N,A*1A
$IIRMB,A,0.23,R,,HMB-3   ,,,,,001.20,184,,V,A*1F
$IIRMC,200023,A,3730.082,N,12228.857,W,00.0,301,300814,15,E,A*19
$IIVHW,,,004,M,00.0,N,,*60
$IIVLW,08195,N,000.0,N*56
$IIVWR,104,L,08.0,N,,,,*72
$IIDPT,025.1,+0.7,*46
$IIGLL,3730.082,N,12228.857,W,200023,A,A*4D
$IIHDG,004,,,15,E*12
$IIMTW,+18.0,C*31
$IIMWV,256,R,08.0,N,A*1A
$IIMWV,259,T,08.1,N,A*12
$IIRMC,200023,A,3730.082,N,12228.857,W,00.0,301,300814,15,E,A*19
$IIVHW,,,004,M,00.0,N,,*60
$IIVLW,08195,N,000.0,N*56
$IIVWR,105,L,08.1,N,,,,*72
$IIDPT,025.1,+0.7,*46
$IIGLL,3730.081,N,12228.857,W,200025,A,A*48
$IIHDG,004,,,15,E*12
$IIMTW,+18.0,C*31
$IIMWV,255,R,08.1,N,A*18
$IIMWV,256,T,08.0,N,A*1C
$IIRMB,A,0.23,R,,HMB-3   ,,,,,001.20,184,,V,A*1F
$IIRMC,200025,A,3730.081,N,12228.857,W,00.0,301,300814,15,E,A*1C
$IIVHW,,,003,M,00.0,N,,*67
$IIVLW,08195,N,000.0,N*56
$IIVWR,104,L,08.1,N,,,,*73
$IIDPT,052.5,+0.7,*42
$IIGLL,3730.081,N,12228.857,W,200025,A,A*48
$IIHDG,003,,,15,E*15
$IIMTW,+18.0,C*31
$IIMWV,256,R,08.1,N,A*1B
$IIMWV,256,T,08.1,N,A*1D
$IIRMB,A,0.23,R,,HMB-3   ,,,,,001.20,184,,V,A*1F
$IIRMC,200027,A,3730.081,N,12228.857,W,00.0,301,300814,15,E,A*1E
$IIVHW,,,003,M,00.0,N,,*67
$IIVLW,08195,N,000.0,N*56
$IIVWR,105,L,07.9,N,,,,*75
$IIDPT,052.5,+0.7,*42
$IIGLL,3730.081,N,12228.857,W,200027,A,A*4A
$IIHDG,003,,,15,E*15
$IIMTW,+18.0,C*31
$IIMWV,256,R,07.8,N,A*1D
$IIMWV,255,T,07.9,N,A*19
$IIRMC,200027,A,3730.081,N,12228.857,W,00.0,301,300814,15,E,A*1E
$IIVHW,,,003,M,00.0,N,,*67
$IIVLW,08195,N,000.0,N*56
$IIVWR,104,L,07.8,N,,,,*75
$IIDPT,052.5,+0.7,*42
$IIGLL,3730.081,N,12228.857,W,200029,A,A*44
$IIHDG,002,,,15,E*14
$IIMTW,+18.0,C*31
$IIMWV,257,R,07.7,N,A*13
$IIMWV,256,T,07.8,N,A*1B
$IIRMB,A,0.22,R,,HMB-3   ,,,,,001.20,184,,V,A*1E
$IIRMC,200029,A,3730.081,N,12228.857,W,00.0,301,300814,15,E,A*10
$IIVHW,,,002,M,00.0,N,,*66
$IIVLW,08195,N,000.0,N*56
$IIVWR,101,L,07.7,N,,,,*7F
$IIDPT,030.0,+0.7,*43
$IIGLL,3730.081,N,12228.858,W,200029,A,A*4B
$IIHDG,002,,,15,E*14
$IIMTW,+18.0,C*31
$IIMWV,259,R,07.7,N,A*1D
$IIMWV,257,T,07.7,N,A*15
$IIRMC,200029,A,3730.081,N,12228.858,W,00.0,301,300814,15,E,A*1F
$IIVHW,,,002,M,00.0,N,,*66
$IIVLW,08195,N,000.0,N*56
$IIVWR,097,L,07.7,N,,,,*71
$IIDPT,027.4,+0.7,*41
$IIGLL,3730.081,N,12228.857,W,200031,A,A*4D
$IIHDG,002,,,15,E*14
$IIMTW,+18.0,C*31
$IIMWV,263,R,07.7,N,A*14
$IIMWV,259,T,07.7,N,A*1B
$IIRMB,A,0.22,R,,HMB-3   ,,,,,001.20,184,,V,A*1E
$IIRMC,200031,A,3730.081,N,12228.857,W,00.0,301,300814,15,E,A*19
$IIVHW,,,002,M,00.0,N,,*66
$IIVLW,08195,N,000.0,N*56
$IIVWR,097,L,07.9,N,,,,*7F
$IIDPT,034.1,+0.7,*46
$IIGLL,3730.081,N,12228.857,W,200031,A,A*4D
$IIHDG,002,,,15,E*14
$IIMTW,+18.0,C*31
$IIMWV,263,R,07.9,N,A*1A
$IIMWV,263,T,07.9,N,A*1C
$IIRMB,A,0.23,R,,HMB-3   ,,,,,001.20,184,,V,A*1F
$IIRMC,200033,A,3730.080,N,12228.857,W,00.0,301,300814,15,E,A*1A
$IIVHW,,,002,M,00.0,N,,*66
$IIVLW,08195,N,000.0,N*56
$IIVWR,093,L,08.1,N,,,,*7C
$IIDPT,031.6,+0.7,*44
$IIGLL,3730.080,N,12228.857,W,200033,A,A*4E
$IIHDG,001,,,15,E*17
$IIMTW,+18.0,C*31
$IIMWV,267,R,07.8,N,A*1F
$IIMWV,267,T,08.1,N,A*1F
$IIRMC,200033,A,3730.081,N,12228.857,W,00.0,301,300814,15,E,A*1B
$IIVHW,,,001,M,00.0,N,,*65
$IIVLW,08195,N,000.0,N*56
$IIVWR,093,L,07.8,N,,,,*7A
$IIDPT,054.2,+0.7,*43
$IIGLL,3730.081,N,12228.857,W,200035,A,A*49
$IIHDG,002,,,15,E*14
$IIMTW,+18.0,C*31
$IIMWV,267,R,07.7,N,A*10
$IIMWV,267,T,07.8,N,A*19
$IIRMB,A,0.23,R,,HMB-3   ,,,,,001.20,184,,V,A*1F
$IIRMC,200035,A,3730.081,N,12228.857,W,00.0,301,300814,15,E,A*1D
$IIVHW,,,002,M,00.0,N,,*66
$IIVLW,08195,N,000.0,N*56
$IIVWR,095,L,07.7,N,,,,*73
$IIDPT,055.8,+0.7,*48
$IIGLL,3730.081,N,12228.857,W,200035,A,A*49
$IIHDG,002,,,15,E*14
$IIMTW,+18.0,C*31
$IIMWV,265,R,07.7,N,A*12
$IIMWV,267,T,07.7,N,A*16
$IIRMC,200035,A,3730.081,N,12228.857,W,00.0,301,300814,15,E,A*1D
$IIVHW,,,001,M,00.0,N,,*65
$IIVLW,08195,N,000.0,N*56
$IIVWR,096,L,07.7,N,,,,*70
$IIDPT,072.5,+0.7,*40
$IIGLL,3730.081,N,12228.857,W,200037,A,A*4B
$IIHDG,001,,,15,E*17
$IIMTW,+18.0,C*31
$IIMWV,264,R,07.7,N,A*13
$IIMWV,264,T,07.7,N,A*15
$IIRMB,A,0.22,R,,HMB-3   ,,,,,001.20,184,,V,A*1E
$IIRMC,200039,A,3730.080,N,12228.857,W,00.0,301,300814,15,E,A*10
$IIVHW,,,001,M,00.0,N,,*65
$IIVLW,08195,N,000.0,N*56
$IIVWR,095,L,07.4,N,,,,*70
$IIDPT,054.5,+0.7,*44
$IIGLL,3730.080,N,12228.857,W,200039,A,A*44
$IIHDG,001,,,15,E*17
$IIMTW,+18.0,C*31
$IIMWV,265,R,07.4,N,A*11
$IIMWV,265,T,07.4,N,A*17
$IIRMB,A,0.22,R,,HMB-3   ,,,,,001.20,184,,V,A*1E
$IIRMC,200039,A,3730.079,N,12228.857,W,00.0,301,300814,15,E,A*16
$IIVHW,,,001,M,00.0,N,,*65
$IIVLW,08195,N,000.0,N*56
$IIVWR,092,L,07.5,N,,,,*76
$IIDPT,053.4,+0.7,*42
$IIGLL,3730.079,N,12228.857,W,200039,A,A*42
$IIHDG,002,,,15,E*14
$IIMTW,+18.0,C*31
$IIMWV,268,R,07.5,N,A*1D
$IIMWV,268,T,07.5,N,A*1B
$IIRMB,A,0.22,R,,HMB-3   ,,,,,001.20,184,,V,A*1E
$IIRMC,200041,A,3730.079,N,12228.858,W,00.0,301,300814,15,E,A*16
$IIVHW,,,002,M,00.0,N,,*66
$IIVLW,08195,N,000.0,N*56
$IIVWR,092,L,07.5,N,,,,*76
$IIDPT,050.7,+0.7,*42
$IIGLL,3730.080,N,12228.859,W,200041,A,A*45
$IIHDG,002,,,15,E*14
$IIMTW,+18.0,C*31
$IIMWV,267,R,07.5,N,A*12
$IIMWV,268,T,07.5,N,A*1B
$IIRMC,200041,A,3730.080,N,12228.859,W,00.0,301,300814,15,E,A*11
$IIVHW,,,002,M,00.0,N,,*66
$IIVLW,08195,N,000.0,N*56
$IIVWR,096,L,07.5,N,,,,*72
$IIDPT,050.7,+0.7,*42
$IIGLL,3730.079,N,12228.859,W,200043,A,A*41
$IIHDG,002,,,15,E*14
$IIMTW,+18.0,C*31
$IIMWV,264,R,07.5,N,A*11
$IIMWV,267,T,07.5,N,A*14
$IIRMB,A,0.22,R,,HMB-3   ,,,,,001.20,184,,V,A*1E
$IIRMC,200043,A,3730.079,N,12228.859,W,00.0,301,300814,15,E,A*15
$IIVHW,,,001,M,00.0,N,,*65
$IIVLW,08195,N,000.0,N*56
$IIVWR,095,L,07.0,N,,,,*74
$IIDPT,005.0,+0.7,*45
$IIGLL,3730.079,N,12228.859,W,200043,A,A*41
$IIHDG,001,,,15,E*17
$IIMTW,+18.0,C*31
$IIMWV,265,R,07.0,N,A*15
$IIMWV,265,T,07.0,N,A*13
$IIRMB,A,0.22,R,,HMB-3   ,,,,,001.20,184,,V,A*1E
$IIRMC,200045,A,3730.079,N,12228.858,W,00.0,301,300814,15,E,A*12
$IIVHW,,,001,M,00.0,N,,*65
$IIVLW,08195,N,000.0,N*56
$IIVWR,096,L,06.9,N,,,,*7F
$IIDPT,005.0,+0.7,*45
$IIGLL,3730.079,N,12228.858,W,200045,A,A*46
$IIHDG,001,,,15,E*17
$IIMTW,+18.0,C*31
$IIMWV,268,R,06.6,N,A*1F
$IIMWV,264,T,06.9,N,A*1A
$IIRMC,200045,A,3730.079,N,12228.859,W,00.0,301,300814,15,E,A*13
$IIVHW,,,001,M,00.0,N,,*65
$IIVLW,08195,N,000.0,N*56
$IIVWR,092,L,06.6,N,,,,*74
$IIDPT,005.0,+0.7,*45
$IIGLL,3730.079,N,12228.859,W,200047,A,A*45
$IIHDG,001,,,15,E*17
$IIMTW,+18.0,C*31
$IIMWV,272,R,06.6,N,A*14
$IIMWV,268,T,06.6,N,A*19
$IIRMB,A,0.22,R,,HMB-3   ,,,,,001.20,184,,V,A*1E
$IIRMC,200047,A,3730.079,N,12228.859,W,00.0,301,300814,15,E,A*11
$IIVHW,,,001,M,00.0,N,,*65
$IIVLW,08195,N,000.0,N*56
$IIVWR,087,L,06.6,N,,,,*70
$IIDPT,036.9,+0.7,*4C
$IIGLL,3730.079,N,12228.859,W,200047,A,A*45
$IIHDG,002,,,15,E*14
$IIMTW,+18.0,C*31
$IIMWV,273,R,06.6,N,A*15
$IIMWV,272,T,06.6,N,A*12
$IIRMC,200047,A,3730.079,N,12228.859,W,00.0,301,300814,15,E,A*11
$IIVHW,,,001,M,00.0,N,,*65
$IIVLW,08195,N,000.0,N*56
$IIVWR,090,L,06.4,N,,,,*74
$IIDPT,036.9,+0.7,*4C
$IIGLL,3730.079,N,12228.858,W,200049,A,A*4A
$IIHDG,001,,,15,E*17
$IIMTW,+18.0,C*31
$IIMWV,270,R,06.4,N,A*14
$IIMWV,273,T,06.6,N,A*13
$IIRMB,A,0.22,R,,HMB-3   ,,,,,001.20,184,,V,A*1E
$IIRMC,200049,A,3730.079,N,12228.858,W,00.0,301,300814,15,E,A*1E
$IIVHW,,,001,M,00.0,N,,*65
$IIVLW,08195,N,000.0,N*56
$IIVWR,091,L,06.2,N,,,,*73
$IIDPT,036.9,+0.7,*4C
$IIGLL,3730.079,N,12228.858,W,200049,A,A*4A
$IIHDG,001,,,15,E*17
$IIMTW,+18.0,C*31
$IIMWV,269,R,06.2,N,A*1A
$IIMWV,269,T,06.2,N,A*1C
$IIRMB,A,0.23,R,,HMB-3   ,,,,,001.20,184,,V,A*1F
$IIRMC,200051,A,3730.078,N,12228.857,W,00.0,301,300814,15,E,A*19
$IIVHW,,,001,M,00.0,N,,*65
$IIVLW,08195,N,000.0,N*56
$IIVWR,093,L,06.1,N,,,,*72
$IIDPT,036.9,+0.7,*4C
$IIGLL,3730.078,N,12228.857,W,200051,A,A*4D
$IIHDG,001,,,15,E*17
$IIMTW,+18.0,C*31
$IIMWV,266,R,06.2,N,A*15
$IIMWV,267,T,06.1,N,A*11
$IIRMC,200051,A,3730.078,N,12228.856,W,00.0,301,300814,15,E,A*18
$IIVHW,,,001,M,00.0,N,,*65
$IIVLW,08195,N,000.0,N*56
$IIVWR,094,L,06.2,N,,,,*76
$IIDPT,028.6,+0.7,*4C
$IIGLL,3730.078,N,12228.855,W,200053,A,A*4D
$IIHDG,001,,,15,E*17
$IIMTW,+18.0,C*31
$IIMWV,261,R,06.7,N,A*17
$IIMWV,266,T,06.2,N,A*13
$IIRMB,A,0.23,R,,HMB-3   ,,,,,001.20,184,,V,A*1F
$IIRMC,200053,A,3730.078,N,12228.855,W,00.0,301,300814,15,E,A*19
$IIVHW,,,001,M,00.0,N,,*65
$IIVLW,08195,N,000.0,N*56
$IIVWR,102,L,07.0,N,,,,*7B
$IIDPT,028.6,+0.7,*4C
$IIGLL,3730.078,N,12228.854,W,200053,A,A*4C
$IIHDG,001,,,15,E*17
$IIMTW,+18.0,C*31
$IIMWV,258,R,07.0,N,A*1B
$IIMWV,261,T,06.7,N,A*11
$IIRMC,200053,A,3730.078,N,12228.854,W,00.0,301,300814,15,E,A*18
$IIVHW,,,001,M,00.0,N,,*65
$IIVLW,08195,N,000.0,N*56
$IIVWR,096,L,07.2,N,,,,*75
$IIDPT,030.1,+0.7,*42
$IIGLL,3730.078,N,12228.855,W,200055,A,A*4B
$IIHDG,001,,,15,E*17
$IIMTW,+18.0,C*31
$IIMWV,264,R,07.2,N,A*16
$IIMWV,258,T,07.0,N,A*1D
$IIRMB,A,0.23,R,,HMB-3   ,,,,,001.20,184,,V,A*1F
$IIRMC,200055,A,3730.078,N,12228.855,W,00.0,301,300814,15,E,A*1F
$IIVHW,,,002,M,00.0,N,,*66
$IIVLW,08195,N,000.0,N*56
$IIVWR,092,L,07.3,N,,,,*70
$IIDPT,030.1,+0.7,*42
$IIGLL,3730.078,N,12228.855,W,200055,A,A*4B
$IIHDG,002,,,15,E*14
$IIMTW,+18.0,C*31
$IIMWV,268,R,07.3,N,A*1B
$IIMWV,268,T,07.3,N,A*1D
$IIRMB,A,0.23,R,,HMB-3   ,,,,,001.20,184,,V,A*1F
$IIRMC,200057,A,3730.077,N,12228.855,W,00.0,301,300814,15,E,A*12
$IIVHW,,,002,M,00.0,N,,*66
$IIVLW,08195,N,000.0,N*56
$IIVWR,095,L,08.0,N,,,,*7B
$IIDPT,073.6,+0.7,*42
$IIGLL,3730.077,N,12228.855,W,200057,A,A*46
$IIHDG,003,,,15,E*15
$IIMTW,+18.0,C*31
$IIMWV,263,R,09.5,N,A*18
$IIMWV,263,T,08.8,N,A*12
$IIRMB,A,0.23,R,,HMB-3   ,,,,,001.20,184,,V,A*1F
$IIRMC,200059,A,3730.077,N,12228.854,W,00.0,301,300814,15,E,A*1D
$IIVHW,,,003,M,00.0,N,,*67
$IIVLW,08195,N,000.0,N*56
$IIVWR,097,L,09.5,N,,,,*7D
$IIDPT,049.6,+0.7,*4B
$IIGLL,3730.076,N,12228.854,W,200059,A,A*48
$IIHDG,003,,,15,E*15
$IIMTW,+18.0,C*31
$IIMWV,263,R,10.0,N,A*15
$IIMWV,263,T,09.5,N,A*1E
$IIRMC,200059,A,3730.076,N,12228.854,W,00.0,301,300814,15,E,A*1C
$IIVHW,,,003,M,00.0,N,,*67
$IIVLW,08195,N,000.0,N*56
$IIVWR,098,L,10.2,N,,,,*7D
$IIDPT,073.6,+0.7,*42
$IIGLL,3730.076,N,12228.855,W,200101,A,A*45
$IIHDG,003,,,15,E*15
$IIMTW,+18.0,C*31
$IIMWV,262,R,10.2,N,A*16
$IIMWV,263,T,10.0,N,A*13
$IIRMB,A,0.23,R,,HMB-3   ,,,,,001.20,184,,V,A*1F
$IIRMC,200101,A,3730.076,N,12228.854,W,00.0,301,300814,15,E,A*10
$IIVHW,,,002,M,00.0,N,,*66
$IIVLW,08195,N,000.0,N*56
$IIVWR,100,L,10.8,N,,,,*77
$IIDPT,073.0,+0.7,*44
$IIGLL,3730.076,N,12228.854,W,200101,A,A*44
$IIHDG,002,,,15,E*14
$IIMTW,+18.0,C*31
$IIMWV,260,R,10.8,N,A*1E
$IIMWV,260,T,10.8,N,A*18
$IIRMB,A,0.23,R,,HMB-3   ,,,,,001.20,185,,V,A*1E
$IIRMC,200103,A,3730.076,N,12228.854,W,00.0,301,300814,15,E,A*12
$IIVHW,,,002,M,00.0,N,,*66
$IIVLW,08195,N,000.0,N*56
$IIVWR,099,L,11.0,N,,,,*7F
$IIDPT,061.3,+0.7,*44
$IIGLL,3730.076,N,12228.854,W,200103,A,A*46
$IIHDG,002,,,15,E*14
$IIMTW,+18.0,C*31
$IIMWV,262,R,11.1,N,A*14
$IIMWV,261,T,11.0,N,A*10
$IIRMC,200103,A,3730.076,N,12228.854,W,00.0,301,300814,15,E,A*12
$IIVHW,,,002,M,00.0,N,,*66
$IIVLW,08195,N,000.0,N*56
$IIVWR,098,L,11.1,N,,,,*7F
$IIDPT,061.3,+0.7,*44
$IIGLL,3730.076,N,12228.854,W,200105,A,A*40
$IIHDG,002,,,15,E*14
$IIMTW,+18.0,C*31
$IIMWV,264,R,11.2,N,A*11
$IIMWV,262,T,11.1,N,A*12
$IIRMB,A,0.23,R,,HMB-3   ,,,,,001.20,184,,V,A*1F
$IIRMC,200105,A,3730.076,N,12228.854,W,00.0,301,300814,15,E,A*14
$IIVHW,,,002,M,00.0,N,,*66
$IIVLW,08195,N,000.0,N*56
$IIVWR,096,L,11.0,N,,,,*70
$IIDPT,005.0,+0.7,*45
$IIGLL,3730.076,N,12228.854,W,200105,A,A*40
$IIHDG,001,,,15,E*17
$IIMTW,+18.0,C*31
$IIMWV,264,R,11.0,N,A*13
$IIMWV,264,T,11.2,N,A*17
$IIRMC,200105,A,3730.076,N,12228.854,W,00.0,301,300814,15,E,A*14
$IIVHW,,,002,M,00.0,N,,*66
$IIVLW,08195,N,000.0,N*56
$IIVWR,096,L,11.1,N,,,,*71
$IIDPT,005.0,+0.7,*45
$IIGLL,3730.076,N,12228.854,W,200107,A,A*42
$IIHDG,002,,,15,E*14
$IIMTW,+18.0,C*31
$IIMWV,264,R,11.1,N,A*12
$IIMWV,264,T,11.0,N,A*15
$IIRMB,A,0.23,R,,HMB-3   ,,,,,001.20,184,,V,A*1F
$IIRMC,200107,A,3730.077,N,12228.854,W,00.0,301,300814,15,E,A*17
$IIVHW,,,002,M,00.0,N,,*66
$IIVLW,08195,N,000.0,N*56
$IIVWR,097,L,11.2,N,,,,*73
$IIDPT,030.2,+0.7,*41
$IIGLL,3730.077,N,12228.854,W,200107,A,A*43
$IIHDG,002,,,15,E*14
$IIMTW,+18.0,C*31
$IIMWV,263,R,11.2,N,A*16
$IIMWV,263,T,11.2,N,A*10
$IIRMB,A,0.23,R,,HMB-3   ,,,,,001.20,184,,V,A*1F
$IIRMC,200109,A,3730.077,N,12228.855,W,00.0,301,300814,15,E,A*18
$IIVHW,,,003,M,00.0,N,,*67
$IIVLW,08195,N,000.0,N*56
$IIVWR,096,L,11.2,N,,,,*72
$IIDPT,032.8,+0.7,*49
$IIGLL,3730.077,N,12228.855,W,200109,A,A*4C
$IIHDG,003,,,15,E*15
$IIMTW,+18.0,C*31
$IIMWV,263,R,11.0,N,A*14
$IIMWV,264,T,11.2,N,A*17
$IIRMC,200109,A,3730.078,N,12228.855,W,00.0,301,300814,15,E,A*17
$IIVHW,,,003,M,00.0,N,,*67
$IIVLW,08195,N,000.0,N*56
$IIVWR,097,L,11.0,N,,,,*71
$IIDPT,032.8,+0.7,*49
$IIGLL,3730.078,N,12228.855,W,200111,A,A*4A
$IIHDG,004,,,15,E*12
$IIMTW,+18.0,C*31
$IIMWV,261,R,11.1,N,A*17
$IIMWV,263,T,11.0,N,A*12
$IIRMB,A,0.23,R,,HMB-3   ,,,,,001.20,184,,V,A*1F
$IIRMC,200111,A,3730.078,N,12228.855,W,00.0,301,300814,15,E,A*1E
$IIVHW,,,004,M,00.0,N,,*60
$IIVLW,08195,N,000.0,N*56
$IIVWR,101,L,11.4,N,,,,*7B
$IIDPT,032.8,+0.7,*49
$IIGLL,3730.078,N,12228.855,W,200111,A,A*4A
$IIHDG,004,,,15,E*12
$IIMTW,+18.0,C*31
$IIMWV,259,R,11.4,N,A*19
$IIMWV,261,T,11.1,N,A*11
$IIRMC,200111,A,3730.078,N,12228.855,W,00.0,301,300814,15,E,A*1E
$IIVHW,,,003,M,00.0,N,,*67
$IIVLW,08195,N,000.0,N*56
$IIVWR,102,L,11.4,N,,,,*78
$IIDPT,029.5,+0.7,*4E
$IIGLL,3730.078,N,12228.854,W,200113,A,A*49
$IIHDG,003,,,15,E*15
$IIMTW,+18.0,C*31
$IIMWV,258,R,11.4,N,A*18
$IIMWV,259,T,11.4,N,A*1F
$IIRMB,A,0.23,R,,HMB-3   ,,,,,001.20,184,,V,A*1F
$IIRMC,200113,A,3730.078,N,12228.854,W,00.0,301,300814,15,E,A*1D
$IIVHW,,,003,M,00.0,N,,*67
$IIVLW,08195,N,000.0,N*56
$IIVWR,101,L,11.7,N,,,,*78
$IIDPT,046.3,+0.7,*41
$IIGLL,3730.078,N,12228.854,W,200113,A,A*49
$IIHDG,003,,,15,E*15
$IIMTW,+18.0,C*31
$IIMWV,259,R,11.7,N,A*1A
$IIMWV,259,T,11.7,N,A*1C
$IIRMB,A,0.23,R,,HMB-3   ,,,,,001.20,184,,V,A*1F
$IIRMC,200115,A,3730.078,N,12228.855,W,00.0,301,300814,15,E,A*1A
$IIVHW,,,002,M,00.0,N,,*66
$IIVLW,08195,N,000.0,N*56
$IIVWR,101,L,11.3,N,,,,*7C
$IIDPT,029.5,+0.7,*4E
$IIGLL,3730.078,N,12228.855,W,200115,A,A*4E
$IIHDG,003,,,15,E*15
$IIMTW,+18.0,C*31
$IIMWV,260,R,11.0,N,A*17
$IIMWV,259,T,11.3,N,A*18
$IIRMC,200115,A,3730.078,N,12228.855,W,00.0,301,300814,15,E,A*1A
$IIVHW,,,003,M,00.0,N,,*67
$IIVLW,08195,N,000.0,N*56
$IIVWR,100,L,11.0,N,,,,*7E
$IIDPT,035.7,+0.7,*41
$IIGLL,3730.078,N,12228.855,W,200117,A,A*4C
$IIHDG,003,,,15,E*15
$IIMTW,+18.0,C*31
$IIMWV,263,R,10.5,N,A*10
$IIMWV,260,T,11.0,N,A*11
$IIRMB,A,0.23,R,,HMB-3   ,,,,,001.20,184,,V,A*1F
$IIRMC,200117,A,3730.078,N,12228.855,W,00.0,301,300814,15,E,A*18
$IIVHW,,,003,M,00.0,N,,*67
$IIVLW,08195,N,000.0,N*56
$IIVWR,092,L,10.7,N,,,,*72
$IIDPT,035.9,+0.7,*4F
$IIGLL,3730.078,N,12228.854,W,200117,A,A*4D
$IIHDG,003,,,15,E*15
$IIMTW,+18.0,C*31
$IIMWV,268,R,10.7,N,A*19
$IIMWV,263,T,10.5,N,A*16
$IIRMC,200117,A,3730.078,N,12228.854,W,00.0,301,300814,15,E,A*19
$IIVHW,,,003,M,00.0,N,,*67
$IIVLW,08195,N,000.0,N*56
$IIVWR,091,L,10.7,N,,,,*71
$IIDPT,030.6,+0.7,*45
$IIGLL,3730.078,N,12228.854,W,200119,A,A*43
$IIHDG,003,,,15,E*15
$IIMTW,+18.0,C*31
$IIMWV,269,R,10.7,N,A*18
$IIMWV,268,T,10.7,N,A*1F
$IIRMB,A,0.23,R,,HMB-3   ,,,,,001.20,184,,V,A*1F
$IIRMC,200119,A,3730.078,N,12228.854,W,00.0,301,300814,15,E,A*17
$IIVHW,,,003,M,00.0,N,,*67
$IIVLW,08195,N,000.0,N*56
$IIVWR,091,L,10.2,N,,,,*74
$IIDPT,067.0,+0.7,*41
$IIGLL,3730.078,N,12228.854,W,200119,A,A*43
$IIHDG,003,,,15,E*15
$IIMTW,+18.0,C*31
$IIMWV,269,R,10.2,N,A*1D
$IIMWV,269,T,10.2,N,A*1B
$IIRMB,A,0.23,R,,HMB-3   ,,,,,001.20,184,,V,A*1F
$IIRMC,200121,A,3730.078,N,12228.856,W,00.0,301,300814,15,E,A*1E
$IIVHW,,,003,M,00.0,N,,*67
$IIVLW,08195,N,000.0,N*56
$IIVWR,094,L,10.0,N,,,,*73
$IIDPT,048.8,+0.7,*44
$IIGLL,3730.078,N,12228.856,W,200121,A,A*4A
$IIHDG,003,,,15,E*15
$IIMTW,+18.0,C*31
$IIMWV,262,R,09.8,N,A*14
$IIMWV,266,T,10.0,N,A*16
$IIRMC,200121,A,3730.078,N,12228.856,W,00.0,301,300814,15,E,A*1E
$IIVHW,,,003,M,00.0,N,,*67
$IIVLW,08195,N,000.0,N*56
$IIVWR,098,L,09.8,N,,,,*7F
$IIDPT,064.8,+0.7,*4A
$IIGLL,3730.078,N,12228.856,W,200123,A,A*48
$IIHDG,003,,,15,E*15
$IIMTW,+18.0,C*31
$IIMWV,259,R,10.3,N,A*1F
$IIMWV,262,T,09.8,N,A*12
$IIRMB,A,0.23,R,,HMB-3   ,,,,,001.20,184,,V,A*1F
$IIRMC,200123,A,3730.078,N,12228.856,W,00.0,301,300814,15,E,A*1C
$IIVHW,,,003,M,00.0,N,,*67
$IIVLW,08195,N,000.0,N*56
$IIVWR,102,L,10.9,N,,,,*74
$IIDPT,012.5,+0.7,*46
$IIGLL,3730.077,N,12228.857,W,200123,A,A*46
$IIHDG,002,,,15,E*14
$IIMTW,+18.0,C*31
$IIMWV,258,R,10.9,N,A*14
$IIMWV,259,T,10.3,N,A*19
$IIRMC,200123,A,3730.077,N,12228.857,W,00.0,301,300814,15,E,A*12
$IIVHW,,,002,M,00.0,N,,*66
$IIVLW,08195,N,000.0,N*56
$IIVWR,102,L,10.8,N,,,,*75
$IIDPT,012.5,+0.7,*46
$IIGLL,3730.077,N,12228.857,W,200125,A,A*40
$IIHDG,002,,,15,E*14
$IIMTW,+18.0,C*31
$IIMWV,258,R,10.8,N,A*15
$IIMWV,258,T,10.9,N,A*12
$IIRMB,A,0.23,R,,HMB-3   ,,,,,001.20,184,,V,A*1F
$IIRMC,200125,A,3730.077,N,12228.857,W,00.0,301,300814,15,E,A*14
$IIVHW,,,002,M,00.0,N,,*66
$IIVLW,08195,N,000.0,N*56
$IIVWR,104,L,10.7,N,,,,*7C
$IIDPT,028.8,+0.7,*42
$IIGLL,3730.077,N,12228.857,W,200125,A,A*40
$IIHDG,002,,,15,E*14
$IIMTW,+18.0,C*31
$IIMWV,256,R,10.7,N,A*14
$IIMWV,256,T,10.7,N,A*12
$IIRMB,A,0.22,R,,HMB-3   ,,,,,001.20,184,,V,A*1E
$IIRMC,200127,A,3730.077,N,12228.857,W,00.0,301,300814,15,E,A*16
$IIVHW,,,002,M,00.0,N,,*66
$IIVLW,08195,N,000.0,N*56
$IIVWR,100,L,10.3,N,,,,*7C
$IIDPT,028.8,+0.7,*42
$IIGLL,3730.077,N,12228.857,W,200127,A,A*42
$IIHDG,002,,,15,E*14
$IIMTW,+18.0,C*31
$IIMWV,262,R,10.6,N,A*12
$IIMWV,260,T,10.3,N,A*13
$IIRMC,200127,A,3730.077,N,12228.857,W,00.0,301,300814,15,E,A*16
$IIVHW,,,002,M,00.0,N,,*66
$IIVLW,08195,N,000.0,N*56
$IIVWR,098,L,10.6,N,,,,*79
$IIDPT,066.1,+0.7,*41
$IIGLL,3730.078,N,12228.857,W,200129,A,A*43
$IIHDG,002,,,15,E*14
$IIMTW,+18.0,C*31
$IIMWV,265,R,10.5,N,A*16
$IIMWV,262,T,10.6,N,A*14
$IIRMB,A,0.23,R,,HMB-3   ,,,,,001.20,184,,V,A*1F
$IIRMC,200129,A,3730.078,N,12228.857,W,00.0,301,300814,15,E,A*17
$IIVHW,,,002,M,00.0,N,,*66
$IIVLW,08195,N,000.0,N*56
$IIVWR,092,L,10.1,N,,,,*74
$IIDPT,075.9,+0.7,*4B
$IIGLL,3730.078,N,12228.857,W,200129,A,A*43
$IIHDG,001,,,15,E*17
$IIMTW,+18.0,C*31
$IIMWV,268,R,10.1,N,A*1F
$IIMWV,265,T,10.5,N,A*10
$IIRMC,200129,A,3730.078,N,12228.857,W,00.0,301,300814,15,E,A*17
$IIVHW,,,001,M,00.0,N,,*65
$IIVLW,08195,N,000.0,N*56
$IIVWR,090,L,09.9,N,,,,*76
$IIDPT,064.0,+0.7,*42
$IIGLL,3730.079,N,12228.858,W,200131,A,A*44
$IIHDG,001,,,15,E*17
$IIMTW,+18.0,C*31
$IIMWV,270,R,09.9,N,A*16
$IIMWV,268,T,10.1,N,A*19
$IIRMB,A,0.22,R,,HMB-3   ,,,,,001.20,184,,V,A*1E
$IIRMC,200131,A,3730.078,N,12228.858,W,00.0,301,300814,15,E,A*11
$IIVHW,,,001,M,00.0,N,,*65
$IIVLW,08195,N,000.0,N*56
$IIVWR,086,L,10.1,N,,,,*71
$IIDPT,064.0,+0.7,*42
$IIGLL,3730.078,N,12228.858,W,200131,A,A*45
$IIHDG,001,,,15,E*17
$IIMTW,+18.0,C*31
$IIMWV,274,R,10.1,N,A*12
$IIMWV,274,T,10.1,N,A*14
$IIRMB,A,0.22,R,,HMB-3   ,,,,,001.20,184,,V,A*1E
$IIRMC,200133,A,3730.078,N,12228.859,W,00.0,301,300814,15,E,A*12
$IIVHW,,,001,M,00.0,N,,*65
$IIVLW,08195,N,000.0,N*56
$IIVWR,084,L,09.9,N,,,,*73
$IIDPT,064.0,+0.7,*42
$IIGLL,3730.078,N,12228.859,W,200133,A,A*46
$IIHDG,001,,,15,E*17
$IIMTW,+18.0,C*31
$IIMWV,274,R,09.7,N,A*1C
$IIMWV,276,T,09.9,N,A*16
$IIRMC,200133,A,3730.078,N,12228.859,W,00.0,301,300814,15,E,A*12
$IIVHW,,,001,M,00.0,N,,*65
$IIVLW,08195,N,000.0,N*56
$IIVWR,086,L,09.7,N,,,,*7F
$IIDPT,064.0,+0.7,*42
$IIGLL,3730.079,N,12228.859,W,200135,A,A*41
$IIHDG,001,,,15,E*17
$IIMTW,+18.0,C*31
$IIMWV,269,R,09.3,N,A*14
$IIMWV,274,T,09.7,N,A*1A
$IIRMB,A,0.22,R,,HMB-3   ,,,,,001.20,184,,V,A*1E
$IIRMC,200135,A,3730.079,N,12228.859,W,00.0,301,300814,15,E,A*15
$IIVHW,,,001,M,00.0,N,,*65
$IIVLW,08195,N,000.0,N*56
$IIVWR,094,L,08.7,N,,,,*7D
$IIDPT,064.0,+0.7,*42
$IIGLL,3730.079,N,12228.859,W,200135,A,A*41
$IIHDG,002,,,15,E*14
$IIMTW,+18.0,C*31
$IIMWV,266,R,08.7,N,A*1E
$IIMWV,269,T,09.3,N,A*12
$IIRMC,200135,A,3730.079,N,12228.859,W,00.0,301,300814,15,E,A*15
$IIVHW,,,002,M,00.0,N,,*66
$IIVLW,08195,N,000.0,N*56
$IIVWR,088,L,08.0,N,,,,*77
$IIDPT,007.0,+0.7,*47
$IIGLL,3730.079,N,12228.859,W,200137,A,A*43
$IIHDG,002,,,15,E*14
$IIMTW,+18.0,C*31
$IIMWV,272,R,08.0,N,A*1C
$IIMWV,266,T,08.7,N,A*18
$IIRMB,A,0.22,R,,HMB-3   ,,,,,001.20,184,,V,A*1E
$IIRMC,200137,A,3730.079,N,12228.859,W,00.0,301,300814,15,E,A*17
$IIVHW,,,001,M,00.0,N,,*65
$IIVLW,08195,N,000.0,N*56
$IIVWR,083,L,07.9,N,,,,*7A
$IIDPT,029.9,+0.7,*42
$IIGLL,3730.079,N,12228.859,W,200137,A,A*43
$IIHDG,001,,,15,E*17
$IIMTW,+18.0,C*31
$IIMWV,277,R,07.9,N,A*1F
$IIMWV,277,T,07.9,N,A*19
$IIRMB,A,0.22,R,,HMB-3   ,,,,,001.20,184,,V,A*1E
$IIRMC,200139,A,3730.080,N,12228.859,W,00.0,301,300814,15,E,A*1F
$IIVHW,,,002,M,00.0,N,,*66
$IIVLW,08195,N,000.0,N*56
$IIVWR,086,L,07.5,N,,,,*73
$IIDPT,033.3,+0.7,*43
$IIGLL,3730.080,N,12228.859,W,200139,A,A*4B
$IIHDG,001,,,15,E*17
$IIMTW,+18.0,C*31
$IIMWV,273,R,07.5,N,A*17
$IIMWV,274,T,07.5,N,A*16
$IIRMC,200139,A,3730.080,N,12228.859,W,00.0,301,300814,15,E,A*1F
$IIVHW,,,001,M,00.0,N,,*65
$IIVLW,08195,N,000.0,N*56
$IIVWR,087,L,07.5,N,,,,*72
$IIDPT,033.3,+0.7,*43
$IIGLL,3730.080,N,12228.859,W,200141,A,A*44
$IIHDG,002,,,15,E*14
$IIMTW,+18.0,C*31
$IIMWV,273,R,08.1,N,A*1C
$IIMWV,273,T,07.5,N,A*11
$IIRMB,A,0.22,R,,HMB-3   ,,,,,001.20,184,,V,A*1E
$IIRMC,200141,A,3730.080,N,12228.859,W,00.0,301,300814,15,E,A*10
$IIVHW,,,002,M,00.0,N,,*66
$IIVLW,08195,N,000.0,N*56
$IIVWR,087,L,08.6,N,,,,*7E
$IIDPT,012.9,+0.7,*4A
$IIGLL,3730.080,N,12228.859,W,200141,A,A*44
$IIHDG,002,,,15,E*14
$IIMTW,+18.0,C*31
$IIMWV,273,R,08.6,N,A*1B
$IIMWV,273,T,08.1,N,A*1A
$IIRMC,200141,A,3730.080,N,12228.859,W,00.0,301,300814,15,E,A*10
$IIVHW,,,002,M,00.0,N,,*66
$IIVLW,08195,N,000.0,N*56
$IIVWR,088,L,08.8,N,,,,*7F
$IIDPT,012.9,+0.7,*4A
$IIGLL,3730.080,N,12228.858,W,200143,A,A*47
$IIHDG,002,,,15,E*14
$IIMTW,+18.0,C*31
$IIMWV,272,R,08.8,N,A*14
$IIMWV,273,T,08.6,N,A*1D
$IIRMB,A,0.22,R,,HMB-3   ,,,,,001.20,184,,V,A*1E
$IIRMC,200143,A,3730.080,N,12228.858,W,00.0,301,300814,15,E,A*13
$IIVHW,,,002,M,00.0,N,,*66
$IIVLW,08195,N,000.0,N*56
$IIVWR,088,L,09.0,N,,,,*76
$IIDPT,033.9,+0.7,*49
$IIGLL,3730.080,N,12228.858,W,200143,A,A*47
$IIHDG,002,,,15,E*14
$IIMTW,+18.0,C*31
$IIMWV,272,R,09.0,N,A*1D
$IIMWV,272,T,09.0,N,A*1B
$IIRMB,A,0.22,R,,HMB-3   ,,,,,001.20,184,,V,A*1E
$IIRMC,200145,A,3730.079,N,12228.858,W,00.0,301,300814,15,E,A*13
$IIVHW,,,002,M,00.0,N,,*66
$IIVLW,08195,N,000.0,N*56
$IIVWR,088,L,08.8,N,,,,*7F
$IIDPT,013.1,+0.7,*43
$IIGLL,3730.079,N,12228.858,W,200145,A,A*47
$IIHDG,003,,,15,E*15
$IIMTW,+18.0,C*31
$IIMWV,267,R,08.5,N,A*1D
$IIMWV,272,T,08.8,N,A*12
$IIRMC,200145,A,3730.079,N,12228.857,W,00.0,301,300814,15,E,A*1C
$IIVHW,,,003,M,00.0,N,,*67
$IIVLW,08195,N,000.0,N*56
$IIVWR,093,L,08.5,N,,,,*78
$IIDPT,013.1,+0.7,*43
$IIGLL,3730.079,N,12228.857,W,200147,A,A*4A
$IIHDG,003,,,15,E*15
$IIMTW,+18.0,C*31
$IIMWV,261,R,07.8,N,A*19
$IIMWV,267,T,08.5,N,A*1B
$IIRMB,A,0.22,R,,HMB-3   ,,,,,001.20,184,,V,A*1E
$IIRMC,200147,A,3730.079,N,12228.857,W,00.0,301,300814,15,E,A*1E
$IIVHW,,,003,M,00.0,N,,*67
$IIVLW,08195,N,000.0,N*56
$IIVWR,097,L,08.0,N,,,,*79
$IIDPT,004.6,+0.7,*42
$IIGLL,3730.080,N,12228.858,W,200147,A,A*43
$IIHDG,002,,,15,E*14
$IIMTW,+18.0,C*31
$IIMWV,263,R,08.0,N,A*1C
$IIMWV,261,T,07.8,N,A*1F
$IIRMC,200147,A,3730.080,N,12228.858,W,00.0,301,300814,15,E,A*17
$IIVHW,,,002,M,00.0,N,,*66
$IIVLW,08195,N,000.0,N*56
$IIVWR,096,L,07.6,N,,,,*71
$IIDPT,004.6,+0.7,*42
$IIGLL,3730.080,N,12228.858,W,200149,A,A*4D
$IIHDG,002,,,15,E*14
$IIMTW,+18.0,C*31
$IIMWV,264,R,07.6,N,A*12
$IIMWV,263,T,08.0,N,A*1A
$IIRMB,A,0.22,R,,HMB-3   ,,,,,001.20,184,,V,A*1E
$IIRMC,200149,A,3730.080,N,12228.859,W,00.0,301,300814,15,E,A*18
$IIVHW,,,002,M,00.0,N,,*66
$IIVLW,08195,N,000.0,N*56
$IIVWR,093,L,07.6,N,,,,*74
$IIDPT,047.9,+0.7,*4A
$IIGLL,3730.080,N,12228.859,W,200149,A,A*4C
$IIHDG,002,,,15,E*14
$IIMTW,+18.0,C*31
$IIMWV,267,R,07.6,N,A*11
$IIMWV,267,T,07.6,N,A*17
$IIRMB,A,0.22,R,,HMB-3   ,,,,,001.20,184,,V,A*1E
$IIRMC,200151,A,3730.080,N,12228.859,W,00.0,301,300814,15,E,A*11
$IIVHW,,,002,M,00.0,N,,*66
$IIVLW,08195,N,000.0,N*56
$IIVWR,097,L,07.0,N,,,,*76
$IIDPT,067.1,+0.7,*40
$IIGLL,3730.080,N,12228.859,W,200151,A,A*45
$IIHDG,001,,,15,E*17
$IIMTW,+18.0,C*31
$IIMWV,259,R,06.5,N,A*1E
$IIMWV,263,T,07.0,N,A*15
$IIRMC,200151,A,3730.080,N,12228.859,W,00.0,301,300814,15,E,A*11
$IIVHW,,,001,M,00.0,N,,*65
$IIVLW,08195,N,000.0,N*56
$IIVWR,101,L,06.5,N,,,,*7C
$IIDPT,067.1,+0.7,*40
$IIGLL,3730.081,N,12228.858,W,200153,A,A*47
$IIHDG,000,,,15,E*16
$IIMTW,+18.0,C*31
$IIMWV,259,R,06.3,N,A*18
$IIMWV,259,T,06.5,N,A*18
$IIRMB,A,0.22,R,,HMB-3   ,,,,,001.20,184,,V,A*1E
$IIRMC,200153,A,3730.081,N,12228.858,W,00.0,301,300814,15,E,A*13
$IIVHW,,,000,M,00.0,N,,*64
$IIVLW,08195,N,000.0,N*56
$IIVWR,101,L,06.4,N,,,,*7D
$IIDPT,066.4,+0.7,*44
$IIGLL,3730.080,N,12228.858,W,200153,A,A*46
$IIHDG,000,,,15,E*16
$IIMTW,+18.0,C*31
$IIMWV,259,R,06.4,N,A*1F
$IIMWV,259,T,06.3,N,A*1E
$IIRMC,200153,A,3730.080,N,12228.858,W,00.0,301,300814,15,E,A*12
$IIVHW,,,000,M,00.0,N,,*64
$IIVLW,08195,N,000.0,N*56
$IIVWR,100,L,07.1,N,,,,*78
$IIDPT,053.3,+0.7,*45
$IIGLL,3730.080,N,12228.857,W,200155,A,A*4F
$IIHDG,000,,,15,E*16
$IIMTW,+18.0,C*31
$IIMWV,260,R,07.1,N,A*11
$IIMWV,259,T,06.4,N,A*19
$IIRMB,A,0.23,R,,HMB-3   ,,,,,001.20,184,,V,A*1F
$IIRMC,200155,A,3730.080,N,12228.857,W,00.0,301,300814,15,E,A*1B
$IIVHW,,,000,M,00.0,N,,*64
$IIVLW,08195,N,000.0,N*56
$IIVWR,097,L,07.7,N,,,,*71
$IIDPT,066.2,+0.7,*42
$IIGLL,3730.080,N,12228.857,W,200155,A,A*4F
$XXBAT,10.50,V,716,69*14
$IIHDG,000,,,15,E*16
$IIMTW,+18.0,C*31
$IIMWV,263,R,07.7,N,A*14
$XXBAT,11.11,V,758,74*16
$IIMWV,263,T,07.7,N,A*12
$IIRMB,A,0.22,R,,HMB-3   ,,,,,001.20,184,,V,A*1E
$IIRMC,200157,A,3730.080,N,12228.858,W,00.0,301,300814,15,E,A*16
$XXBAT,11.52,V,786,76*10
$IIVHW,,,000,M,00.0,N,,*64
$IIVLW,08195,N,000.0,N*56
$IIVWR,098,L,08.0,N,,,,*76
$IIDPT,053.3,+0.7,*45
$XXBAT,11.99,V,818,79*10
$IIGLL,3730.080,N,12228.858,W,200157,A,A*42
$XXBAT,12.32,V,840,82*1B
$XXBAT,14.22,V,970,94*19
$XXBAT,14.46,V,986,96*10
$XXBAT,14.74,V,1005,98*2C
$XXBAT,14.50,V,989,96*18
$XXBAT,14.72,V,1004,98*2B
$XXBAT,14.52,V,990,96*12
$IIHDG,000,,,15,E*16
$IIMTW,+18.0,C*31
$IIMWV,261,R,08.8,N,A*16
$IIMWV,262,T,08.0,N,A*1B
$IIRMC,200157,A,3730.080,N,12228.859,W,00.0,301,300814,15,E,A*17
$IIVHW,,,000,M,00.0,N,,*64
$IIVLW,08195,N,000.0,N*56
$IIVWR,099,L,08.8,N,,,,*7F
$IIDPT,053.3,+0.7,*45
$IIGLL,3730.080,N,12228.860,W,200201,A,A*49
$IIHDG,002,,,15,E*14
$IIMTW,+18.0,C*31
$IIMWV,268,R,09.5,N,A*13
$IIMWV,264,T,09.5,N,A*19
$IIRMB,A,0.22,R,,HMB-3   ,,,,,001.20,184,,V,A*1E
$IIRMC,200201,A,3730.080,N,12228.860,W,00.0,301,300814,15,E,A*1D
$IIVHW,,,002,M,00.0,N,,*66
$IIVLW,08195,N,000.0,N*56
$IIVWR,090,L,09.5,N,,,,*7A
$IIDPT,017.2,+0.7,*44
$IIGLL,3730.080,N,12228.860,W,200203,A,A*4B
$IIHDG,003,,,15,E*15
$IIMTW,+18.0,C*31
$IIMWV,270,R,09.5,N,A*1A
$IIMWV,268,T,09.5,N,A*15
$IIRMB,A,0.22,R,,HMB-3   ,,,,,001.20,184,,V,A*1E
$IIRMC,200203,A,3730.081,N,12228.860,W,00.0,301,300814,15,E,A*1E
$IIVHW,,,003,M,00.0,N,,*67
$IIVLW,08195,N,000.0,N*56
$IIVWR,087,L,09.5,N,,,,*7C
$IIDPT,017.4,+0.7,*42
$IIGLL,3730.081,N,12228.860,W,200203,A,A*4A
$IIHDG,003,,,15,E*15
$IIMTW,+18.0,C*31
$IIMWV,273,R,09.5,N,A*19
$IIMWV,273,T,09.5,N,A*1F
$IIRMB,A,0.22,R,,HMB-3   ,,,,,001.20,184,,V,A*1E
$IIRMC,200205,A,3730.080,N,12228.860,W,00.0,301,300814,15,E,A*19
$IIVHW,,,003,M,00.0,N,,*67
$IIVLW,08195,N,000.0,N*56
$IIVWR,086,L,09.5,N,,,,*7D
$IIDPT,017.8,+0.7,*4E
$IIGLL,3730.080,N,12228.860,W,200205,A,A*4D
$IIHDG,002,,,15,E*14
$IIMTW,+18.0,C*31
$IIMWV,281,R,09.2,N,A*13
$IIMWV,274,T,09.5,N,A*18
$IIRMC,200205,A,3730.080,N,12228.859,W,00.0,301,300814,15,E,A*13
$IIVHW,,,002,M,00.0,N,,*66
$IIVLW,08195,N,000.0,N*56
$IIVWR,079,L,09.2,N,,,,*7A
$IIDPT,017.6,+0.7,*40
$IIGLL,3730.080,N,12228.859,W,200207,A,A*45
$IIHDG,002,,,15,E*14
$IIMTW,+18.0,C*31
$IIMWV,282,R,09.1,N,A*13
$IIMWV,281,T,09.2,N,A*15
$XXBAT,14.72,V,1004,98*2B
$IIRMB,A,0.22,R,,HMB-3   ,,,,,001.20,184,,V,A*1E
$IIRMC,200207,A,3730.080,N,12228.859,W,00.0,301,300814,15,E,A*11
$IIVHW,,,002,M,00.0,N,,*66
$IIVLW,08195,N,000.0,N*56
$IIVWR,080,L,08.6,N,,,,*79
$IIDPT,043.4,+0.7,*43
$IIGLL,3730.080,N,12228.859,W,200207,A,A*45
$IIHDG,003,,,15,E*15
$IIMTW,+18.0,C*31
$IIMWV,280,R,08.6,N,A*17
$IIMWV,282,T,09.1,N,A*15
$IIRMC,200207,A,3730.080,N,12228.859,W,00.0,301,300814,15,E,A*11
$IIVHW,,,003,M,00.0,N,,*67
$IIVLW,08195,N,000.0,N*56
$IIVWR,083,L,07.9,N,,,,*7A
$XXBAT,14.49,V,988,96*11
$IIDPT,075.6,+0.7,*44
$IIGLL,3730.080,N,12228.859,W,200209,A,A*4B
$IIHDG,003,,,15,E*15
$IIMTW,+18.0,C*31
$IIMWV,277,R,07.9,N,A*1F
$IIMWV,280,T,08.6,N,A*11
$IIRMB,A,0.22,R,,HMB-3   ,,,,,001.20,184,,V,A*1E
$IIRMC,200209,A,3730.080,N,12228.859,W,00.0,301,300814,15,E,A*1F
$IIVHW,,,003,M,00.0,N,,*67
$IIVLW,08195,N,000.0,N*56
$IIVWR,084,L,07.8,N,,,,*7C
$IIDPT,075.6,+0.7,*44
$IIGLL,3730.080,N,12228.859,W,200209,A,A*4B
$IIHDG,003,,,15,E*15
$IIMTW,+18.0,C*31
$IIMWV,276,R,07.8,N,A*1F
$IIMWV,276,T,07.8,N,A*19
$IIRMB,A,0.22,R,,HMB-3   ,,,,,001.20,184,,V,A*1E
$IIRMC,200211,A,3730.080,N,12228.859,W,00.0,301,300814,15,E,A*16
$IIVHW,,,003,M,00.0,N,,*67
$IIVLW,08195,N,000.0,N*56
$IIVWR,082,L,08.3,N,,,,*7E
$IIDPT,075.6,+0.7,*44
$IIGLL,3730.080,N,12228.859,W,200211,A,A*42
$IIHDG,003,,,15,E*15
$IIMTW,+18.0,C*31
$IIMWV,280,R,08.8,N,A*19
$IIMWV,278,T,08.3,N,A*13
$IIRMC,200211,A,3730.080,N,12228.858,W,00.0,301,300814,15,E,A*17
$IIVHW,,,003,M,00.0,N,,*67
$IIVLW,08195,N,000.0,N*56
$IIVWR,080,L,08.8,N,,,,*77
$IIDPT,040.5,+0.7,*41
$IIGLL,3730.080,N,12228.858,W,200213,A,A*41
$IIHDG,003,,,15,E*15
$IIMTW,+18.0,C*31
$IIMWV,278,R,09.3,N,A*14
$IIMWV,280,T,08.8,N,A*1F
$IIRMB,A,0.22,R,,HMB-3   ,,,,,001.20,184,,V,A*1E
$IIRMC,200213,A,3730.080,N,12228.858,W,00.0,301,300814,15,E,A*15
$IIVHW,,,003,M,00.0,N,,*67
$IIVLW,08195,N,000.0,N*56
$IIVWR,081,L,09.1,N,,,,*7E
$IIDPT,066.8,+0.7,*48
$IIGLL,3730.080,N,12228.858,W,200213,A,A*41
$IIHDG,004,,,15,E*12
$IIMTW,+18.0,C*31
$IIMWV,279,R,09.1,N,A*17
$IIMWV,278,T,09.3,N,A*12
$IIRMC,200213,A,3730.080,N,12228.858,W,00.0,301,300814,15,E,A*15
$IIVHW,,,004,M,00.0,N,,*60
$IIVLW,08195,N,000.0,N*56
$IIVWR,087,L,08.6,N,,,,*7E
$IIDPT,037.3,+0.7,*47
$IIGLL,3730.080,N,12228.857,W,200215,A,A*48
$IIHDG,004,,,15,E*12
$IIMTW,+18.0,C*31
$IIMWV,273,R,08.6,N,A*1B
$IIMWV,279,T,09.1,N,A*11
$IIRMB,A,0.22,R,,HMB-3   ,,,,,001.20,184,,V,A*1E
$IIRMC,200215,A,3730.080,N,12228.857,W,00.0,301,300814,15,E,A*1C
$IIVHW,,,004,M,00.0,N,,*60
$IIVLW,08195,N,000.0,N*56
$IIVWR,094,L,08.7,N,,,,*7D
$IIDPT,037.3,+0.7,*47
$IIGLL,3730.080,N,12228.857,W,200215,A,A*48
$IIHDG,004,,,15,E*12
$IIMTW,+18.0,C*31
$IIMWV,266,R,08.7,N,A*1E
$IIMWV,266,T,08.7,N,A*18
$IIRMB,A,0.23,R,,HMB-3   ,,,,,001.20,184,,V,A*1F
$IIRMC,200217,A,3730.079,N,12228.856,W,00.0,301,300814,15,E,A*19
$IIVHW,,,004,M,00.0,N,,*60
$IIVLW,08195,N,000.0,N*56
$IIVWR,100,L,09.0,N,,,,*77
$IIDPT,029.5,+0.7,*4E
$IIGLL,3730.079,N,12228.856,W,200217,A,A*4D
$IIHDG,003,,,15,E*15
$IIMTW,+18.0,C*31
$IIMWV,253,R,09.4,N,A*1A
$IIMWV,260,T,09.0,N,A*18
$IIRMC,200217,A,3730.079,N,12228.856,W,00.0,301,300814,15,E,A*19
$IIVHW,,,003,M,00.0,N,,*67
$IIVLW,08195,N,000.0,N*56
$IIVWR,107,L,09.4,N,,,,*74
$IIDPT,029.5,+0.7,*4E
$IIGLL,3730.079,N,12228.855,W,200219,A,A*40
$IIHDG,003,,,15,E*15
$IIMTW,+18.0,C*31
$XXBAT,14.49,V,988,96*11
$IIMWV,254,R,09.7,N,A*1E
$IIMWV,253,T,09.4,N,A*1C
$IIRMB,A,0.23,R,,HMB-3   ,,,,,001.20,184,,V,A*1F
$IIRMC,200219,A,3730.079,N,12228.855,W,00.0,301,300814,15,E,A*14
$IIVHW,,,003,M,00.0,N,,*67
$IIVLW,08195,N,000.0,N*56
$IIVWR,104,L,09.9,N,,,,*7A
$IIDPT,029.5,+0.7,*4E
$IIGLL,3730.080,N,12228.855,W,200219,A,A*46
$IIHDG,002,,,15,E*14
$IIMTW,+18.0,C*31
$IIMWV,256,R,09.9,N,A*12
$IIMWV,254,T,09.7,N,A*18
$IIRMC,200219,A,3730.080,N,12228.855,W,00.0,301,300814,15,E,A*12
$IIVHW,,,001,M,00.0,N,,*65
$IIVLW,08195,N,000.0,N*56
$IIVWR,097,L,10.4,N,,,,*74
$IIDPT,029.5,+0.7,*4E
$IIGLL,3730.080,N,12228.856,W,200221,A,A*4E
$IIHDG,001,,,15,E*17
$IIMTW,+18.0,C*31
$IIMWV,263,R,10.4,N,A*11
$IIMWV,256,T,09.9,N,A*14
$IIRMB,A,0.23,R,,HMB-3   ,,,,,001.20,184,,V,A*1F
$IIRMC,200221,A,3730.080,N,12228.855,W,00.0,301,300814,15,E,A*19
$IIVHW,,,001,M,00.0,N,,*65
$IIVLW,08195,N,000.0,N*56
$IIVWR,092,L,10.8,N,,,,*7D
$IIDPT,033.2,+0.7,*42
$IIGLL,3730.080,N,12228.855,W,200221,A,A*4D
$IIHDG,001,,,15,E*17
$IIMTW,+18.0,C*31
$IIMWV,268,R,10.8,N,A*16
$IIMWV,268,T,10.8,N,A*10
$IIRMB,A,0.23,R,,HMB-3   ,,,,,001.20,184,,V,A*1F
$IIRMC,200223,A,3730.081,N,12228.857,W,00.0,301,300814,15,E,A*18
$IIVHW,,,001,M,00.0,N,,*65
$IIVLW,08195,N,000.0,N*56
$IIVWR,089,L,11.3,N,,,,*7D
$IIDPT,003.3,+0.7,*40
$IIGLL,3730.081,N,12228.857,W,200223,A,A*4C
$IIHDG,001,,,15,E*17
$IIMTW,+18.0,C*31
$IIMWV,275,R,11.4,N,A*17
$IIMWV,271,T,11.3,N,A*12
$IIRMC,200223,A,3730.080,N,12228.856,W,00.0,301,300814,15,E,A*18
$IIVHW,,,001,M,00.0,N,,*65
$IIVLW,08195,N,000.0,N*56
$IIVWR,085,L,11.4,N,,,,*76
$IIDPT,003.3,+0.7,*40
$IIGLL,3730.081,N,12228.856,W,200225,A,A*4B
$IIHDG,002,,,15,E*14
$IIMTW,+18.0,C*31
$IIMWV,278,R,11.0,N,A*1E
$IIMWV,275,T,11.4,N,A*11
$IIRMB,A,0.23,R,,HMB-3   ,,,,,001.20,184,,V,A*1F
$IIRMC,200225,A,3730.081,N,12228.856,W,00.0,301,300814,15,E,A*1F
$IIVHW,,,002,M,00.0,N,,*66
$IIVLW,08195,N,000.0,N*56
$IIVWR,080,L,10.5,N,,,,*73
$IIDPT,034.2,+0.7,*45
$IIGLL,3730.081,N,12228.856,W,200225,A,A*4B
$IIHDG,002,,,15,E*14
$IIMTW,+18.0,C*31
$IIMWV,280,R,10.5,N,A*1D
$IIMWV,278,T,11.0,N,A*18
$IIRMC,200225,A,3730.081,N,12228.856,W,00.0,301,300814,15,E,A*1F
$IIVHW,,,002,M,00.0,N,,*66
$IIVLW,08195,N,000.0,N*56
$IIVWR,081,L,09.2,N,,,,*7D
$IIDPT,034.2,+0.7,*45
$IIGLL,3730.080,N,12228.856,W,200227,A,A*48
$IIHDG,002,,,15,E*14
$IIMTW,+18.0,C*31
$IIMWV,279,R,09.2,N,A*14
$IIMWV,280,T,10.5,N,A*1B
$IIRMB,A,0.23,R,,HMB-3   ,,,,,001.20,184,,V,A*1F
$IIRMC,200227,A,3730.080,N,12228.856,W,00.0,301,300814,15,E,A*1C
$IIVHW,,,003,M,00.0,N,,*67
$IIVLW,08195,N,000.0,N*56
$IIVWR,083,L,08.3,N,,,,*7F
$IIDPT,034.2,+0.7,*45
$IIGLL,3730.080,N,12228.856,W,200227,A,A*48
$IIHDG,003,,,15,E*15
$IIMTW,+18.0,C*31
$IIMWV,277,R,08.3,N,A*1A
$IIMWV,277,T,08.3,N,A*1C
$IIRMB,A,0.23,R,,HMB-3   ,,,,,001.20,184,,V,A*1F
$IIRMC,200229,A,3730.080,N,12228.855,W,00.0,301,300814,15,E,A*11
$IIVHW,,,003,M,00.0,N,,*67
$IIVLW,08195,N,000.0,N*56
$XXBAT,14.68,V,1001,97*2A
$IIVWR,090,L,08.3,N,,,,*7D
$IIDPT,023.5,+0.7,*44
$IIGLL,3730.080,N,12228.855,W,200229,A,A*45
$IIHDG,003,,,15,E*15
$IIMTW,+18.0,C*31
$IIMWV,269,R,08.2,N,A*14
$IIMWV,270,T,08.3,N,A*1B
$IIRMC,200229,A,3730.079,N,12228.855,W,00.0,301,300814,15,E,A*17
$IIVHW,,,003,M,00.0,N,,*67
$IIVLW,08195,N,000.0,N*56
$IIVWR,091,L,08.2,N,,,,*7D
$IIDPT,028.3,+0.7,*49
$IIGLL,3730.079,N,12228.856,W,200231,A,A*49
$IIHDG,003,,,15,E*15
$IIMTW,+18.0,C*31
$IIMWV,268,R,08.2,N,A*15
$IIMWV,269,T,08.2,N,A*12
$IIRMB,A,0.23,R,,HMB-3   ,,,,,001.20,184,,V,A*1F
$IIRMC,200231,A,3730.079,N,12228.856,W,00.0,301,300814,15,E,A*1D
$IIVHW,,,003,M,00.0,N,,*67
$IIVLW,08195,N,000.0,N*56
$IIVWR,097,L,08.2,N,,,,*7B
$IIDPT,025.1,+0.7,*46
$IIGLL,3730.078,N,12228.857,W,200233,A,A*4B
$IIHDG,002,,,15,E*14
$IIMTW,+18.0,C*31
$IIMWV,263,R,08.2,N,A*1E
$IIMWV,267,T,08.1,N,A*1F
$IIRMB,A,0.23,R,,HMB-3   ,,,,,001.20,184,,V,A*1F
$IIRMC,200233,A,3730.077,N,12228.857,W,00.0,301,300814,15,E,A*10
$IIVHW,,,002,M,00.0,N,,*66
$IIVLW,08195,N,000.0,N*56
$IIVWR,098,L,08.3,N,,,,*75
$IIDPT,024.3,+0.7,*45
$IIGLL,3730.077,N,12228.857,W,200233,A,A*44
$IIHDG,002,,,15,E*14
$IIMTW,+18.0,C*31
$IIMWV,262,R,08.3,N,A*1E
$IIMWV,262,T,08.3,N,A*18
$IIRMB,A,0.23,R,,HMB-3   ,,,,,001.20,184,,V,A*1F
$IIRMC,200235,A,3730.077,N,12228.857,W,00.0,301,300814,15,E,A*16
$IIVHW,,,002,M,00.0,N,,*66
$IIVLW,08195,N,000.0,N*56
$IIVWR,094,L,08.3,N,,,,*79
$IIDPT,030.0,+0.7,*43
$IIGLL,3730.077,N,12228.857,W,200235,A,A*42
$IIHDG,003,,,15,E*15
$IIMTW,+18.0,C*31
$IIMWV,275,R,08.4,N,A*1F
$IIMWV,266,T,08.3,N,A*1C
$IIRMC,200235,A,3730.077,N,12228.857,W,00.0,301,300814,15,E,A*16
$IIVHW,,,003,M,00.0,N,,*67
$IIVLW,08195,N,000.0,N*56
$IIVWR,085,L,08.4,N,,,,*7E
$IIDPT,027.7,+0.7,*42
$IIGLL,3730.078,N,12228.856,W,200237,A,A*4E
$IIHDG,002,,,15,E*14
$IIMTW,+18.0,C*31
$IIMWV,276,R,08.2,N,A*1A
$IIMWV,275,T,08.4,N,A*19
$IIRMB,A,0.23,R,,HMB-3   ,,,,,001.20,184,,V,A*1F
$IIRMC,200237,A,3730.078,N,12228.856,W,00.0,301,300814,15,E,A*1A
$IIVHW,,,002,M,00.0,N,,*66
$IIVLW,08195,N,000.0,N*56
$IIVWR,089,L,07.7,N,,,,*7E
$IIDPT,030.0,+0.7,*43
$IIGLL,3730.078,N,12228.855,W,200237,A,A*4D
$IIHDG,002,,,15,E*14
$IIMTW,+18.0,C*31
$IIMWV,271,R,07.7,N,A*17
$IIMWV,276,T,08.2,N,A*1C
$IIRMC,200237,A,3730.078,N,12228.855,W,00.0,301,300814,15,E,A*19
$IIVHW,,,002,M,00.0,N,,*66
$IIVLW,08195,N,000.0,N*56
$IIVWR,097,L,07.0,N,,,,*76
$IIDPT,039.0,+0.7,*4A
$IIGLL,3730.078,N,12228.855,W,200239,A,A*43
$IIHDG,002,,,15,E*14
$IIMTW,+18.0,C*31
$IIMWV,263,R,07.0,N,A*13
$IIMWV,271,T,07.7,N,A*11
$IIRMB,A,0.23,R,,HMB-3   ,,,,,001.20,184,,V,A*1F
$IIRMC,200239,A,3730.078,N,12228.855,W,00.0,301,300814,15,E,A*17
$IIVHW,,,003,M,00.0,N,,*67
$IIVLW,08195,N,000.0,N*56
$IIVWR,099,L,06.9,N,,,,*70
$IIDPT,039.0,+0.7,*4A
$IIGLL,3730.078,N,12228.855,W,200239,A,A*43
$IIHDG,003,,,15,E*15
$IIMTW,+18.0,C*31
$IIMWV,261,R,06.9,N,A*19
$XXBAT,14.50,V,989,96*18
$IIMWV,261,T,06.9,N,A*1F
$IIRMB,A,0.23,R,,HMB-3   ,,,,,001.20,184,,V,A*1F
$IIRMC,200241,A,3730.078,N,12228.855,W,00.0,301,300814,15,E,A*18
$IIVHW,,,003,M,00.0,N,,*67
$IIVLW,08195,N,000.0,N*56
$IIVWR,107,L,07.2,N,,,,*7C
$IIDPT,039.0,+0.7,*4A
$IIGLL,3730.078,N,12228.855,W,200241,A,A*4C
$IIHDG,003,,,15,E*15
$IIMTW,+18.0,C*31
$IIMWV,259,R,07.3,N,A*19
$IIMWV,253,T,07.2,N,A*14
$IIRMC,200241,A,3730.079,N,12228.856,W,00.0,301,300814,15,E,A*1A
$IIVHW,,,003,M,00.0,N,,*67
$IIVLW,08195,N,000.0,N*56
$IIVWR,101,L,07.3,N,,,,*7B
$IIDPT,034.7,+0.7,*40
$IIGLL,3730.079,N,12228.856,W,200243,A,A*4C
$IIHDG,004,,,15,E*12
$IIMTW,+18.0,C*31
$XXBAT,14.08,V,960,93*17
$IIMWV,263,R,07.3,N,A*10
$IIMWV,259,T,07.3,N,A*1F
$IIRMB,A,0.23,R,,HMB-3   ,,,,,001.20,184,,V,A*1F
$IIRMC,200243,A,3730.079,N,12228.856,W,00.0,301,300814,15,E,A*18
$IIVHW,,,004,M,00.0,N,,*60
$IIVLW,08195,N,000.0,N*56
$IIVWR,094,L,07.5,N,,,,*70
$IIDPT,043.3,+0.7,*44
$IIGLL,3730.079,N,12228.856,W,200243,A,A*4C
$IIHDG,004,,,15,E*12
$IIMTW,+18.0,C*31
$IIMWV,266,R,07.5,N,A*13
$IIMWV,263,T,07.3,N,A*16
$IIRMC,200243,A,3730.079,N,12228.856,W,00.0,301,300814,15,E,A*18
$IIVHW,,,005,M,00.0,N,,*61
$IIVLW,08195,N,000.0,N*56
$IIVWR,100,L,08.2,N,,,,*74
$IIDPT,047.2,+0.7,*41
$XXBAT,14.60,V,996,97*14
$IIGLL,3730.080,N,12228.856,W,200245,A,A*4C
$IIHDG,005,,,15,E*13
$XXBAT,14.11,V,962,94*1A
$IIMTW,+18.0,C*31
$IIMWV,260,R,08.2,N,A*1D
$IIMWV,266,T,07.5,N,A*15
$IIRMB,A,0.23,R,,HMB-3   ,,,,,001.20,184,,V,A*1F
$XXBAT,14.63,V,998,97*19
$XXBAT,14.06,V,959,93*13
$IIRMC,200245,A,3730.080,N,12228.856,W,00.0,301,300814,15,E,A*18
$IIVHW,,,005,M,00.0,N,,*61
$XXBAT,14.56,V,993,97*14
$IIVLW,08195,N,000.0,N*56
$IIVWR,102,L,09.0,N,,,,*75
$XXBAT,14.03,V,957,93*18
$IIDPT,043.3,+0.7,*44
$IIGLL,3730.080,N,12228.856,W,200245,A,A*4C
$IIHDG,005,,,15,E*13
$IIMTW,+18.0,C*31
$IIMWV,258,R,09.0,N,A*15
$XXBAT,14.62,V,997,97*17
$XXBAT,14.34,V,978,95*17
$IIMWV,258,T,09.0,N,A*13
$IIRMB,A,0.23,R,,HMB-3   ,,,,,001.20,184,,V,A*1F
$XXBAT,14.68,V,1001,97*2A
$IIRMC,200247,A,3730.080,N,12228.856,W,00.0,301,300814,15,E,A*1A
$IIVHW,,,005,M,00.0,N,,*61
$XXBAT,14.18,V,967,94*16
$IIVLW,08195,N,000.0,N*56
$IIVWR,099,L,09.2,N,,,,*74
$IIDPT,063.9,+0.7,*4C
$XXBAT,14.68,V,1001,97*2A
$IIGLL,3730.080,N,12228.856,W,200247,A,A*4E
$XXBAT,13.99,V,954,93*1F
$XXBAT,14.28,V,974,95*16
$IIHDG,004,,,15,E*12
$IIMTW,+18.0,C*31
$IIMWV,264,R,09.3,N,A*19
$IIMWV,261,T,09.2,N,A*1B
$XXBAT,13.94,V,951,92*16
$IIRMC,200247,A,3730.080,N,12228.856,W,00.0,301,300814,15,E,A*1A
$XXBAT,14.16,V,966,94*19
$IIVHW,,,004,M,00.0,N,,*60
$IIVLW,08195,N,000.0,N*56
$XXBAT,14.55,V,992,96*17
$IIVWR,096,L,09.3,N,,,,*7A
$IIDPT,043.3,+0.7,*44
$XXBAT,14.06,V,959,93*13
$XXBAT,14.33,V,977,95*1F
$XXBAT,14.57,V,994,97*12
$XXBAT,14.11,V,962,94*1A
$IIGLL,3730.080,N,12228.856,W,200249,A,A*40
$IIHDG,004,,,15,E*12
$IIMTW,+18.0,C*31
$IIMWV,265,R,09.4,N,A*1F
$IIMWV,264,T,09.3,N,A*1F
$IIRMB,A,0.23,R,,HMB-3   ,,,,,001.20,184,,V,A*1F
$XXBAT,14.55,V,992,96*17
$IIRMC,200249,A,3730.080,N,12228.856,W,00.0,301,300814,15,E,A*14
$IIVHW,,,004,M,00.0,N,,*60
$XXBAT,13.99,V,954,93*1F
$XXBAT,14.27,V,973,95*1E
$XXBAT,14.69,V,1002,97*28
$XXBAT,14.03,V,957,93*18
$IIVLW,08195,N,000.0,N*56
$IIVWR,094,L,09.7,N,,,,*7C
$IIDPT,043.1,+0.7,*46
$XXBAT,14.28,V,974,95*16
$IIGLL,3730.081,N,12228.856,W,200249,A,A*41
$XXBAT,14.68,V,1001,97*2A
$IIHDG,004,,,15,E*12
$IIMTW,+18.0,C*31
$IIMWV,266,R,09.7,N,A*1F
$XXBAT,14.16,V,966,94*19
$IIMWV,265,T,09.4,N,A*19
$IIRMC,200249,A,3730.081,N,12228.856,W,00.0,301,300814,15,E,A*15
$XXBAT,14.60,V,996,97*14
$XXBAT,14.03,V,957,93*18
$IIVHW,,,004,M,00.0,N,,*60
$IIVLW,08195,N,000.0,N*56
$IIVWR,095,L,10.2,N,,,,*70
$IIDPT,048.0,+0.7,*4C
$XXBAT,14.59,V,995,97*1D
$IIGLL,3730.080,N,12228.856,W,200251,A,A*49
$IIHDG,004,,,15,E*12
$IIMTW,+18.0,C*31
$XXBAT,14.03,V,957,93*18
$IIMWV,265,R,10.2,N,A*11
$IIMWV,266,T,09.7,N,A*19
$XXBAT,14.28,V,974,95*16
$IIRMB,A,0.23,R,,HMB-3   ,,,,,001.20,184,,V,A*1F
$XXBAT,14.63,V,998,97*19
$XXBAT,14.03,V,957,93*18
$XXBAT,14.31,V,976,95*1C
$XXBAT,14.68,V,1001,97*2A
$IIRMC,200251,A,3730.080,N,12228.856,W,00.0,301,300814,15,E,A*1D
$IIVHW,,,004,M,00.0,N,,*60
$IIVLW,08195,N,000.0,N*56
$IIVWR,092,L,10.0,N,,,,*75
$IIDPT,047.8,+0.7,*4B
$IIGLL,3730.080,N,12228.856,W,200251,A,A*49
$IIHDG,004,,,15,E*12
$IIMTW,+18.0,C*31
$IIMWV,268,R,10.0,N,A*1E
$IIMWV,268,T,09.5,N,A*15
$IIRMB,A,0.23,R,,HMB-3   ,,,,,001.20,184,,V,A*1F
$IIRMC,200253,A,3730.080,N,12228.855,W,00.0,301,300814,15,E,A*1C
$IIVHW,,,004,M,00.0,N,,*60
$IIVLW,08195,N,000.0,N*56
$IIVWR,093,L,09.5,N,,,,*79
$IIDPT,001.7,+0.7,*46
$IIGLL,3730.080,N,12228.855,W,200253,A,A*48
$IIHDG,004,,,15,E*12
$IIMTW,+18.0,C*31
$IIMWV,264,R,09.0,N,A*1A
$IIMWV,267,T,09.5,N,A*1A
$IIRMB,A,0.23,R,,HMB-3   ,,,,,001.20,184,,V,A*1F
$IIRMC,200255,A,3730.080,N,12228.856,W,00.0,301,300814,15,E,A*19
$IIVHW,,,004,M,00.0,N,,*60
$IIVLW,08195,N,000.0,N*56
$IIVWR,096,L,09.0,N,,,,*79
$IIDPT,035.7,+0.7,*41
$IIGLL,3730.080,N,12228.856,W,200255,A,A*4D
$IIHDG,004,,,15,E*12
$IIMTW,+18.0,C*31
$IIMWV,260,R,08.5,N,A*1A
$IIMWV,264,T,09.0,N,A*1C
$IIRMC,200255,A,3730.080,N,12228.856,W,00.0,301,300814,15,E,A*19
$IIVHW,,,004,M,00.0,N,,*60
$IIVLW,08195,N,000.0,N*56
$IIVWR,102,L,08.0,N,,,,*74
$IIDPT,037.5,+0.7,*41
$IIGLL,3730.080,N,12228.856,W,200257,A,A*4F
$IIHDG,003,,,15,E*15
$IIMTW,+18.0,C*31
$IIMWV,258,R,08.0,N,A*14
$IIMWV,260,T,08.5,N,A*1C
$IIRMB,A,0.23,R,,HMB-3   ,,,,,001.20,184,,V,A*1F
$IIRMC,200257,A,3730.080,N,12228.856,W,00.0,301,300814,15,E,A*1B
$IIVHW,,,003,M,00.0,N,,*67
$IIVLW,08195,N,000.0,N*56
$IIVWR,103,L,08.1,N,,,,*74
$IIDPT,038.3,+0.7,*48
$IIGLL,3730.080,N,12228.856,W,200257,A,A*4F
$IIHDG,003,,,15,E*15
$IIMTW,+18.0,C*31
$IIMWV,257,R,08.1,N,A*1A
$IIMWV,257,T,08.1,N,A*1C
$IIRMB,A,0.23,R,,HMB-3   ,,,,,001.20,184,,V,A*1F
$IIRMC,200259,A,3730.080,N,12228.855,W,00.0,301,300814,15,E,A*16
$IIVHW,,,003,M,00.0,N,,*67
$IIVLW,08195,N,000.0,N*56
$IIVWR,105,L,08.6,N,,,,*75
$IIDPT,039.9,+0.7,*43
$IIGLL,3730.080,N,12228.855,W,200259,A,A*42
$IIHDG,003,,,15,E*15
$IIMTW,+18.0,C*31
$IIMWV,255,R,08.9,N,A*10
$IIMWV,255,T,08.6,N,A*19
$IIRMC,200259,A,3730.079,N,12228.856,W,00.0,301,300814,15,E,A*13
$IIVHW,,,003,M,00.0,N,,*67
$IIVLW,08195,N,000.0,N*56
$IIVWR,105,L,08.9,N,,,,*7A
$IIDPT,038.4,+0.7,*4F
$IIGLL,3730.079,N,12228.856,W,200301,A,A*4B
$IIHDG,002,,,15,E*14
$IIMTW,+18.0,C*31
$IIMWV,255,R,09.3,N,A*1B
$IIMWV,255,T,08.9,N,A*16
$IIRMB,A,0.23,R,,HMB-3   ,,,,,001.20,184,,V,A*1F
$IIRMC,200301,A,3730.079,N,12228.856,W,00.0,301,300814,15,E,A*1F
$IIVHW,,,002,M,00.0,N,,*66
$IIVLW,08195,N,000.0,N*56
$IIVWR,104,L,09.9,N,,,,*7A
$IIDPT,038.4,+0.7,*4F
$XXBAT,14.68,V,1001,97*2A
$IIGLL,3730.079,N,12228.856,W,200301,A,A*4B
$IIHDG,003,,,15,E*15
$IIMTW,+18.0,C*31
$IIMWV,256,R,09.9,N,A*12
$IIMWV,255,T,09.3,N,A*1D
$IIRMC,200301,A,3730.079,N,12228.856,W,00.0,301,300814,15,E,A*1F
$IIVHW,,,003,M,00.0,N,,*67
$IIVLW,08195,N,000.0,N*56
$IIVWR,105,L,09.8,N,,,,*7A
$IIDPT,021.4,+0.7,*47
$IIGLL,3730.079,N,12228.857,W,200303,A,A*48
$IIHDG,003,,,15,E*15
$IIMTW,+18.0,C*31
$IIMWV,255,R,09.8,N,A*10
$IIMWV,256,T,09.9,N,A*14
$IIRMB,A,0.23,R,,HMB-3   ,,,,,001.20,184,,V,A*1F
$IIRMC,200303,A,3730.079,N,12228.857,W,00.0,301,300814,15,E,A*1C
$IIVHW,,,003,M,00.0,N,,*67
$IIVLW,08195,N,000.0,N*56
$IIVWR,104,L,09.6,N,,,,*75
$IIDPT,035.5,+0.7,*43
$IIGLL,3730.079,N,12228.857,W,200303,A,A*48
$IIHDG,003,,,15,E*15
$IIMTW,+18.0,C*31
$IIMWV,256,R,09.6,N,A*1D
$IIMWV,256,T,09.6,N,A*1B
$IIRMC,200305,A,3730.079,N,12228.857,W,00.0,301,300814,15,E,A*1A
$IIVHW,,,003,M,00.0,N,,*67
$IIVLW,08195,N,000.0,N*56
$IIVWR,098,L,09.0,N,,,,*77
$IIDPT,021.4,+0.7,*47
$IIGLL,3730.079,N,12228.857,W,200305,A,A*4E
$IIHDG,003,,,15,E*15
$IIMTW,+18.0,C*31
$IIMWV,262,R,08.6,N,A*1B
$IIMWV,262,T,09.0,N,A*1A
$IIRMB,A,0.23,R,,HMB-3   ,,,,,001.20,184,,V,A*1F
$IIRMC,200305,A,3730.078,N,12228.857,W,00.0,301,300814,15,E,A*1B
$IIVHW,,,003,M,00.0,N,,*67
$IIVLW,08195,N,000.0,N*56
$IIVWR,098,L,08.6,N,,,,*70
$IIDPT,038.7,+0.7,*4C
$IIGLL,3730.078,N,12228.856,W,200307,A,A*4C
$IIHDG,003,,,15,E*15
$IIMTW,+18.0,C*31
$IIMWV,260,R,09.1,N,A*1F
$IIMWV,262,T,08.6,N,A*1D
$IIRMC,200307,A,3730.078,N,12228.856,W,00.0,301,300814,15,E,A*18
$IIVHW,,,003,M,00.0,N,,*67
$IIVLW,08195,N,000.0,N*56
$IIVWR,100,L,09.1,N,,,,*76
$IIDPT,021.4,+0.7,*47
$IIGLL,3730.078,N,12228.856,W,200307,A,A*4C
$IIHDG,003,,,15,E*15
$IIMTW,+18.0,C*31
$IIMWV,259,R,09.8,N,A*1C
$IIMWV,260,T,09.1,N,A*19
$IIRMB,A,0.23,R,,HMB-3   ,,,,,001.20,184,,V,A*1F
$IIRMC,200307,A,3730.078,N,12228.856,W,00.0,301,300814,15,E,A*18
$IIVHW,,,003,M,00.0,N,,*67
$IIVLW,08195,N,000.0,N*56
$IIVWR,102,L,10.0,N,,,,*7D
$IIDPT,026.7,+0.7,*43
$IIGLL,3730.079,N,12228.856,W,200309,A,A*43
$IIHDG,003,,,15,E*15
$IIMTW,+18.0,C*31
$IIMWV,258,R,10.0,N,A*1D
$IIMWV,259,T,09.8,N,A*1A
$IIRMC,200309,A,3730.079,N,12228.856,W,00.0,301,300814,15,E,A*17
$IIVHW,,,003,M,00.0,N,,*67
$IIVLW,08195,N,000.0,N*56
$IIVWR,101,L,10.4,N,,,,*7A
$IIDPT,024.2,+0.7,*44
$IIGLL,3730.079,N,12228.856,W,200309,A,A*43
$IIHDG,003,,,15,E*15
$IIMTW,+18.0,C*31
$IIMWV,259,R,10.4,N,A*18
$IIMWV,259,T,10.4,N,A*1E
$IIRMB,A,0.23,R,,HMB-3   ,,,,,001.20,184,,V,A*1F
$IIRMC,200311,A,3730.079,N,12228.856,W,00.0,301,300814,15,E,A*1E
$IIVHW,,,002,M,00.0,N,,*66
$IIVLW,08195,N,000.0,N*56
$IIVWR,098,L,10.4,N,,,,*7B
$IIDPT,026.7,+0.7,*43
$IIGLL,3730.079,N,12228.856,W,200311,A,A*4A
$IIHDG,002,,,15,E*14
$IIMTW,+18.0,C*31
$IIMWV,263,R,10.4,N,A*11
$IIMWV,262,T,10.4,N,A*16
$IIRMB,A,0.23,R,,HMB-3   ,,,,,001.20,184,,V,A*1F
$IIRMC,200311,A,3730.079,N,12228.856,W,00.0,301,300814,15,E,A*1E
$XXBAT,14.57,V,994,97*12
$IIVHW,,,002,M,00.0,N,,*66
$IIVLW,08195,N,000.0,N*56
$IIVWR,097,L,10.4,N,,,,*74
$IIDPT,024.2,+0.7,*44
$IIGLL,3730.078,N,12228.856,W,200313,A,A*49
$IIHDG,002,,,15,E*14
$IIMTW,+18.0,C*31
$IIMWV,263,R,10.1,N,A*14
$IIMWV,263,T,10.4,N,A*17
$IIRMC,200313,A,3730.078,N,12228.856,W,00.0,301,300814,15,E,A*1D
$IIVHW,,,002,M,00.0,N,,*66
$IIVLW,08195,N,000.0,N*56
$IIVWR,096,L,09.6,N,,,,*7F
$IIDPT,015.8,+0.7,*4C
$IIGLL,3730.079,N,12228.856,W,200315,A,A*4E
$IIHDG,002,,,15,E*14
$IIMTW,+18.0,C*31
$IIMWV,264,R,09.6,N,A*1C
$IIMWV,264,T,09.9,N,A*15
$IIRMB,A,0.23,R,,HMB-3   ,,,,,001.20,184,,V,A*1F
$IIRMC,200315,A,3730.079,N,12228.856,W,00.0,301,300814,15,E,A*1A
$IIVHW,,,002,M,00.0,N,,*66
$IIVLW,08195,N,000.0,N*56
$IIVWR,099,L,09.5,N,,,,*73
$IIDPT,017.0,+0.7,*46
$IIGLL,3730.079,N,12228.856,W,200315,A,A*4E
$IIHDG,002,,,15,E*14
$IIMTW,+18.0,C*31
$IIMWV,261,R,09.5,N,A*1A
$IIMWV,261,T,09.5,N,A*1C
$IIRMB,A,0.23,R,,HMB-3   ,,,,,001.20,184,,V,A*1F
$IIRMC,200317,A,3730.079,N,12228.856,W,00.0,301,300814,15,E,A*18
$IIVHW,,,002,M,00.0,N,,*66
$IIVLW,08195,N,000.0,N*56
$IIVWR,100,L,09.3,N,,,,*74
$IIDPT,017.0,+0.7,*46
$IIGLL,3730.079,N,12228.856,W,200317,A,A*4C
$IIHDG,003,,,15,E*15
$IIMTW,+18.0,C*31
$IIMWV,260,R,09.3,N,A*1D
$IIMWV,260,T,09.3,N,A*1B
$IIRMB,A,0.23,R,,HMB-3   ,,,,,001.20,184,,V,A*1F
$IIRMC,200317,A,3730.079,N,12228.856,W,00.0,301,300814,15,E,A*18
$IIVHW,,,003,M,00.0,N,,*67
$IIVLW,08195,N,000.0,N*56
$IIVWR,100,L,09.3,N,,,,*74
$IIDPT,054.5,+0.7,*44
$IIGLL,3730.079,N,12228.856,W,200319,A,A*42
$IIHDG,003,,,15,E*15
$IIMTW,+18.0,C*31
$IIMWV,257,R,09.3,N,A*19
$IIMWV,260,T,09.3,N,A*1B
$IIRMC,200319,A,3730.079,N,12228.856,W,00.0,301,300814,15,E,A*16
$IIVHW,,,003,M,00.0,N,,*67
$IIVLW,08195,N,000.0,N*56
$IIVWR,104,L,10.0,N,,,,*7B
$IIDPT,054.5,+0.7,*44
$IIGLL,3730.079,N,12228.855,W,200319,A,A*41
$IIHDG,003,,,15,E*15
$IIMTW,+18.0,C*31
$IIMWV,256,R,10.0,N,A*13
$IIMWV,257,T,09.3,N,A*1F
$IIRMC,200319,A,3730.079,N,12228.855,W,00.0,301,300814,15,E,A*15
$IIVHW,,,003,M,00.0,N,,*67
$IIVLW,08195,N,000.0,N*56
$IIVWR,103,L,10.4,N,,,,*78
$IIDPT,034.5,+0.7,*42
$IIGLL,3730.080,N,12228.855,W,200321,A,A*4C
$IIHDG,004,,,15,E*12
$IIMTW,+18.0,C*31
$IIMWV,257,R,10.4,N,A*16
$IIMWV,256,T,10.0,N,A*15
$IIRMC,200321,A,3730.080,N,12228.855,W,00.0,301,300814,15,E,A*18
$IIVHW,,,004,M,00.0,N,,*60
$IIVLW,08195,N,000.0,N*56
$IIVWR,100,L,10.4,N,,,,*7B
$IIDPT,035.2,+0.7,*44
$IIGLL,3730.080,N,12228.856,W,200321,A,A*4F
$IIHDG,004,,,15,E*12
$IIMTW,+18.0,C*31
$IIMWV,260,R,10.4,N,A*12
$IIMWV,257,T,10.4,N,A*10
$IIRMB,A,0.23,R,,HMB-3   ,,,,,001.20,184,,V,A*1F
$XXBAT,14.57,V,994,97*12
$IIRMC,200323,A,3730.079,N,12228.856,W,00.0,301,300814,15,E,A*1F
$IIVHW,,,004,M,00.0,N,,*60
$IIVLW,08195,N,000.0,N*56
$IIVWR,098,L,10.4,N,,,,*7B
$IIDPT,054.7,+0.7,*46
$IIGLL,3730.079,N,12228.856,W,200323,A,A*4B
$IIHDG,004,,,15,E*12
$IIMTW,+18.0,C*31
$IIMWV,262,R,10.4,N,A*10
$IIMWV,262,T,10.4,N,A*16
$IIRMB,A,0.23,R,,HMB-3   ,,,,,001.20,184,,V,A*1F
$IIRMC,200323,A,3730.079,N,12228.856,W,00.0,301,300814,15,E,A*1F
$IIVHW,,,003,M,00.0,N,,*67
$IIVLW,08195,N,000.0,N*56
$IIVWR,099,L,10.4,N,,,,*7A
$IIDPT,066.1,+0.7,*41
$IIGLL,3730.079,N,12228.856,W,200323,A,A*4B
$IIHDG,003,,,15,E*15
$IIMTW,+18.0,C*31
$IIMWV,262,R,11.4,N,A*11
$IIMWV,260,T,11.0,N,A*11
$IIRMB,A,0.23,R,,HMB-3   ,,,,,001.20,184,,V,A*1F
$IIRMC,200325,A,3730.078,N,12228.855,W,00.0,301,300814,15,E,A*1B
$IIVHW,,,003,M,00.0,N,,*67
$IIVLW,08195,N,000.0,N*56
$IIVWR,098,L,11.4,N,,,,*7A
$IIDPT,060.7,+0.7,*41
$IIGLL,3730.078,N,12228.855,W,200327,A,A*4D
$IIHDG,003,,,15,E*15
$IIMTW,+18.0,C*31
$IIMWV,264,R,11.7,N,A*14
$IIMWV,262,T,11.4,N,A*17
$IIRMC,200327,A,3730.078,N,12228.855,W,00.0,301,300814,15,E,A*19
$IIVHW,,,003,M,00.0,N,,*67
$IIVLW,08195,N,000.0,N*56
$IIVWR,093,L,11.7,N,,,,*72
$IIDPT,072.6,+0.7,*43
$IIGLL,3730.078,N,12228.854,W,200327,A,A*4C
$IIHDG,003,,,15,E*15
$IIMTW,+18.0,C*31
$IIMWV,267,R,11.7,N,A*17
$IIMWV,264,T,11.7,N,A*12
$IIRMB,A,0.23,R,,HMB-3   ,,,,,001.20,184,,V,A*1F
$IIRMC,200329,A,3730.078,N,12228.854,W,00.0,301,300814,15,E,A*16
$IIVHW,,,003,M,00.0,N,,*67
$IIVLW,08195,N,000.0,N*56
$IIVWR,092,L,11.6,N,,,,*72
$IIDPT,066.7,+0.7,*47
$IIGLL,3730.078,N,12228.854,W,200329,A,A*42
$IIHDG,003,,,15,E*15
$IIMTW,+18.0,C*31
$IIMWV,268,R,11.6,N,A*19
$IIMWV,268,T,11.6,N,A*1F
$IIRMB,A,0.23,R,,HMB-3   ,,,,,001.20,184,,V,A*1F
$IIRMC,200329,A,3730.077,N,12228.854,W,00.0,301,300814,15,E,A*19
$IIVHW,,,003,M,00.0,N,,*67
$IIVLW,08195,N,000.0,N*56
$IIVWR,091,L,11.2,N,,,,*75
$IIDPT,040.6,+0.7,*42
$IIGLL,3730.077,N,12228.854,W,200329,A,A*4D
$IIHDG,003,,,15,E*15
$IIMTW,+18.0,C*31
$IIMWV,272,R,10.9,N,A*1C
$IIMWV,269,T,11.2,N,A*1A
$IIRMC,200331,A,3730.078,N,12228.855,W,00.0,301,300814,15,E,A*1E
$IIVHW,,,003,M,00.0,N,,*67
$IIVLW,08195,N,000.0,N*56
$IIVWR,088,L,10.9,N,,,,*77
$IIDPT,046.9,+0.7,*4B
$IIGLL,3730.078,N,12228.855,W,200331,A,A*4A
$IIHDG,003,,,15,E*15
$IIMTW,+18.0,C*31
$IIMWV,266,R,10.5,N,A*15
$IIMWV,272,T,10.9,N,A*1A
$IIRMB,A,0.23,R,,HMB-3   ,,,,,001.20,184,,V,A*1F
$IIRMC,200331,A,3730.078,N,12228.855,W,00.0,301,300814,15,E,A*1E
$IIVHW,,,003,M,00.0,N,,*67
$IIVLW,08195,N,000.0,N*56
$IIVWR,099,L,10.5,N,,,,*7B
$IIDPT,047.0,+0.7,*43
$IIGLL,3730.078,N,12228.856,W,200333,A,A*4B
$IIHDG,003,,,15,E*15
$IIMTW,+18.0,C*31
$IIMWV,261,R,10.5,N,A*12
$IIMWV,266,T,10.5,N,A*13
$IIRMC,200333,A,3730.078,N,12228.856,W,00.0,301,300814,15,E,A*1F
$IIVHW,,,003,M,00.0,N,,*67
$IIVLW,08195,N,000.0,N*56
$IIVWR,099,L,10.7,N,,,,*79
$IIDPT,047.0,+0.7,*43
$IIGLL,3730.078,N,12228.856,W,200333,A,A*4B
$IIHDG,003,,,15,E*15
$IIMTW,+18.0,C*31
$IIMWV,261,R,10.7,N,A*10
$IIMWV,261,T,10.5,N,A*14
$IIRMC,200335,A,3730.078,N,12228.857,W,00.0,301,300814,15,E,A*18
$IIVHW,,,003,M,00.0,N,,*67
$IIVLW,08195,N,000.0,N*56
$IIVWR,096,L,10.6,N,,,,*77
$IIDPT,008.6,+0.7,*4E
$IIGLL,3730.078,N,12228.857,W,200335,A,A*4C
$IIHDG,003,,,15,E*15
$IIMTW,+18.0,C*31
$IIMWV,264,R,10.6,N,A*14
$IIMWV,264,T,10.6,N,A*12
$IIRMB,A,0.23,R,,HMB-3   ,,,,,001.20,184,,V,A*1F
$IIRMC,200335,A,3730.079,N,12228.857,W,00.0,301,300814,15,E,A*19
$IIVHW,,,002,M,00.0,N,,*66
$IIVLW,08195,N,000.0,N*56
$IIVWR,097,L,10.6,N,,,,*76
$IIDPT,008.6,+0.7,*4E
$IIGLL,3730.079,N,12228.857,W,200335,A,A*4D
$XXBAT,14.88,V,1015,99*2F
$IIHDG,002,,,15,E*14
$IIMTW,+18.0,C*31
$IIMWV,261,R,09.9,N,A*16
$IIMWV,263,T,10.6,N,A*15
$IIRMC,200337,A,3730.079,N,12228.856,W,00.0,301,300814,15,E,A*1A
$IIVHW,,,002,M,00.0,N,,*66
$IIVLW,08195,N,000.0,N*56
$IIVWR,099,L,09.9,N,,,,*7F
$IIDPT,008.6,+0.7,*4E
$IIGLL,3730.079,N,12228.856,W,200337,A,A*4E
$IIHDG,002,,,15,E*14
$IIMTW,+18.0,C*31
$IIMWV,262,R,09.5,N,A*19
$IIMWV,261,T,09.9,N,A*10
$IIRMB,A,0.23,R,,HMB-3   ,,,,,001.20,184,,V,A*1F
$IIRMC,200337,A,3730.079,N,12228.856,W,00.0,301,300814,15,E,A*1A
$IIVHW,,,002,M,00.0,N,,*66
$IIVLW,08195,N,000.0,N*56
$IIVWR,098,L,09.3,N,,,,*74
$IIDPT,066.2,+0.7,*42
$IIGLL,3730.080,N,12228.856,W,200339,A,A*46
$IIHDG,003,,,15,E*15
$IIMTW,+18.0,C*31
$IIMWV,262,R,09.3,N,A*1F
$IIMWV,262,T,09.5,N,A*1F
$IIRMC,200339,A,3730.080,N,12228.856,W,00.0,301,300814,15,E,A*12
$IIVHW,,,003,M,00.0,N,,*67
$IIVLW,08195,N,000.0,N*56
$IIVWR,098,L,09.3,N,,,,*74
$IIDPT,066.2,+0.7,*42
$IIGLL,3730.080,N,12228.856,W,200340,A,A*48
$IIHDG,003,,,15,E*15
$IIMTW,+18.0,C*31
$IIMWV,262,R,09.3,N,A*1F
$IIMWV,262,T,09.3,N,A*19
$IIRMB,A,0.23,R,,HMB-3   ,,,,,001.20,184,,V,A*1F
$IIRMC,200341,A,3730.079,N,12228.856,W,00.0,301,300814,15,E,A*1B
$IIVHW,,,004,M,00.0,N,,*60
$IIVLW,08195,N,000.0,N*56
$IIVWR,098,L,09.8,N,,,,*7F
$IIDPT,055.5,+0.7,*45
$IIGLL,3730.079,N,12228.856,W,200341,A,A*4F
$IIHDG,004,,,15,E*12
$IIMTW,+18.0,C*31
$IIMWV,262,R,09.8,N,A*14
$IIMWV,262,T,09.8,N,A*12
$IIRMB,A,0.23,R,,HMB-3   ,,,,,001.20,184,,V,A*1F
$IIRMC,200341,A,3730.079,N,12228.855,W,00.0,301,300814,15,E,A*18
$IIVHW,,,004,M,00.0,N,,*60
$IIVLW,08195,N,000.0,N*56
$IIVWR,099,L,10.5,N,,,,*7B
$IIDPT,044.5,+0.7,*45
$IIGLL,3730.079,N,12228.855,W,200341,A,A*4C
$IIHDG,004,,,15,E*12
$IIMTW,+18.0,C*31
$IIMWV,261,R,11.0,N,A*16
$IIMWV,261,T,10.5,N,A*14
$IIRMC,200343,A,3730.079,N,12228.854,W,00.0,301,300814,15,E,A*1B
$IIVHW,,,004,M,00.0,N,,*60
$IIVLW,08195,N,000.0,N*56
$IIVWR,099,L,11.0,N,,,,*7F
$IIDPT,063.1,+0.7,*44
$IIGLL,3730.079,N,12228.855,W,200343,A,A*4E
$IIHDG,003,,,15,E*15
$IIMTW,+18.0,C*31
$IIMWV,261,R,10.8,N,A*1F
$IIMWV,261,T,11.0,N,A*10
$IIRMB,A,0.23,R,,HMB-3   ,,,,,001.20,184,,V,A*1F
$IIRMC,200343,A,3730.079,N,12228.855,W,00.0,301,300814,15,E,A*1A
$IIVHW,,,003,M,00.0,N,,*67
$IIVLW,08195,N,000.0,N*56
$IIVWR,098,L,10.5,N,,,,*7A
