$GPGSA,A,2,12,02,24,,,,,,,,,,20.0,20.0,20.0*06
$GPRMC,223325.585,A,3744.9335,N,12230.4266,W,000.0,000.0,100617,,,A*7E
$GPGGA,223326.585,3744.9336,N,12230.4266,W,1,03,20.0,-16.8,M,,,,0000*3D
$GPGSA,A,2,12,02,24,,,,,,,,,,20.0,20.0,20.0*06
$GPGSV,3,1,09,12,66,333,41,02,72,173,31,24,46,229,34,06,51,054,*7E
$GPGSV,3,2,09,19,28,058,,25,25,311,,17,11,067,,29,09,261,*7D
$GPGSV,3,3,09,05,07,160,*45
$GPRMC,223326.585,A,3744.9336,N,12230.4266,W,000.0,000.0,100617,,,A*7E
$GPGGA,223327.585,3744.9336,N,12230.4265,W,1,03,20.0,-16.8,M,,,,0000*3F
$GPGSA,A,2,12,02,24,,,,,,,,,,20.0,20.0,20.0*06
$GPRMC,223327.585,A,3744.9336,N,12230.4265,W,000.0,000.0,100617,,,A*7C
$GPGGA,223328.585,3744.9336,N,12230.4264,W,1,03,20.0,-16.7,M,,,,0000*3E
$GPGSA,A,2,12,02,24,,,,,,,,,,20.0,20.0,20.0*06
$GPRMC,223328.585,A,3744.9336,N,12230.4264,W,000.0,000.0,100617,,,A*72
$GPGGA,223329.585,3744.9337,N,12230.4264,W,1,03,20.0,-16.6,M,,,,0000*3F
$GPGSA,A,2,12,02,24,,,,,,,,,,20.0,20.0,20.0*06
$GPGSV,3,1,09,12,66,333,41,02,72,173,35,24,46,229,34,06,51,054,*7A
$GPGSV,3,2,09,19,28,058,,25,25,311,,17,11,067,,29,09,261,*7D
$GPGSV,3,3,09,05,07,160,*45
$GPRMC,223329.585,A,3744.9337,N,12230.4264,W,000.0,000.0,100617,,,A*72
$GPGGA,223330.585,3744.9336,N,12230.4263,W,1,03,20.0,-16.7,M,,,,0000*30
$GPGSA,A,2,12,02,24,,,,,,,,,,20.0,20.0,20.0*06
$GPRMC,223330.585,A,3744.9336,N,12230.4263,W,000.0,000.0,100617,,,A*7C
$GPGGA,223331.585,3744.9337,N,12230.4262,W,1,03,20.0,-16.8,M,,,,0000*3E
$GPGSA,A,2,12,02,24,,,,,,,,,,20.0,20.0,20.0*06
$GPRMC,223331.585,A,3744.9337,N,12230.4262,W,000.0,000.0,100617,,,A*7D
$GPGGA,223332.585,3744.9337,N,12230.4262,W,1,03,20.0,-16.8,M,,,,0000*3D
$GPGSA,A,2,12,02,24,,,,,,,,,,20.0,20.0,20.0*06
$GPGSV,3,1,09,12,66,333,40,02,72,173,35,24,46,228,34,06,51,054,*7A
$GPGSV,3,2,09,19,28,058,,25,25,311,,17,11,067,,29,09,261,*7D
$GPGSV,3,3,09,05,07,160,*45
$GPRMC,223332.585,A,3744.9337,N,12230.4262,W,000.0,000.0,100617,,,A*7E
$GPGGA,223333.585,3744.9337,N,12230.4261,W,1,03,20.0,-16.7,M,,,,0000*30
$GPGSA,A,2,12,02,24,,,,,,,,,,20.0,20.0,20.0*06
$GPRMC,223333.585,A,3744.9337,N,12230.4261,W,000.0,000.0,100617,,,A*7C
$GPGGA,223334.585,3744.9337,N,12230.4261,W,1,03,20.0,-16.7,M,,,,0000*37
$GPGSA,A,2,12,02,24,,,,,,,,,,20.0,20.0,20.0*06
$GPRMC,223334.585,A,3744.9337,N,12230.4261,W,000.0,000.0,100617,,,A*7B
$GPGGA,223335.585,3744.9338,N,12230.4260,W,1,03,20.0,-16.7,M,,,,0000*38
$GPGSA,A,2,12,02,24,,,,,,,,,,20.0,20.0,20.0*06
$GPGSV,3,1,09,12,66,333,41,02,72,173,35,24,46,228,34,06,51,054,*7B
$GPGSV,3,2,09,19,28,058,,25,25,312,,17,11,067,,29,09,261,*7E
$GPGSV,3,3,09,05,07,160,*45
$GPRMC,223335.585,A,3744.9338,N,12230.4260,W,000.0,000.0,100617,,,A*74
$GPGGA,223336.585,3744.9338,N,12230.4260,W,1,03,20.0,-16.7,M,,,,0000*3B
$GPGSA,A,2,12,02,24,,,,,,,,,,20.0,20.0,20.0*06
$GPRMC,223336.585,A,3744.9338,N,12230.4260,W,000.0,000.0,100617,,,A*77
$GPGGA,223337.585,3744.9338,N,12230.4261,W,1,03,20.0,-16.8,M,,,,0000*34
$GPGSA,A,2,12,02,24,,,,,,,,,,20.0,20.0,20.0*06
$GPRMC,223337.585,A,3744.9338,N,12230.4261,W,000.0,000.0,100617,,,A*77
$GPGGA,223338.585,3744.9338,N,12230.4261,W,1,03,20.0,-16.8,M,,,,0000*3B
$GPGSA,A,2,12,02,24,,,,,,,,,,20.0,20.0,20.0*06
$GPGSV,3,1,09,12,66,333,41,02,72,173,33,24,46,228,25,06,51,054,*7D
$GPGSV,3,2,09,19,28,058,,25,25,312,,17,11,067,,29,09,261,*7E
$GPGSV,3,3,09,05,07,160,*45
$GPRMC,223338.585,A,3744.9338,N,12230.4261,W,000.0,000.0,100617,,,A*78
$GPGGA,223339.585,3744.9338,N,12230.4261,W,1,03,20.0,-16.9,M,,,,0000*3B
$GPGSA,A,2,12,02,24,,,,,,,,,,20.0,20.0,20.0*06
$GPRMC,223339.585,A,3744.9338,N,12230.4261,W,000.0,000.0,100617,,,A*79
$GPGGA,223340.585,3744.9338,N,12230.4261,W,1,00,20.0,-16.9,M,,,,0000*36
$GPGSA,A,2,,,,,,,,,,,,,20.0,20.0,20.0*01
$GPRMC,223340.585,A,3744.9338,N,12230.4261,W,000.0,000.0,100617,,,A*77
$GPGGA,223341.585,3744.9338,N,12230.4261,W,1,00,20.0,-16.9,M,,,,0000*37
$GPGSA,A,2,,,,,,,,,,,,,20.0,20.0,20.0*01
$GPGSV,3,1,09,12,66,333,38,02,72,173,24,24,46,228,22,06,51,054,*72
$GPGSV,3,2,09,19,28,058,,25,25,312,,17,11,067,,29,09,261,*7E
$GPGSV,3,3,09,05,07,160,*45
$GPRMC,223341.585,A,3744.9338,N,12230.4261,W,000.0,000.0,100617,,,A*76
$GPGGA,223342.585,3744.9338,N,12230.4261,W,1,00,20.0,-16.9,M,,,,0000*34
$GPGSA,A,2,,,,,,,,,,,,,20.0,20.0,20.0*01
$GPRMC,223342.585,A,3744.9338,N,12230.4261,W,000.0,000.0,100617,,,A*75
$GPGGA,223343.585,3744.9338,N,12230.4261,W,1,03,20.0,-16.6,M,,,,0000*39
$GPGSA,A,2,12,02,24,,,,,,,,,,20.0,20.0,20.0*06
$GPRMC,223343.585,A,3744.9338,N,12230.4261,W,000.0,000.0,100617,,,A*74
$GPGGA,223344.585,3744.9338,N,12230.4261,W,1,03,20.0,-16.4,M,,,,0000*3C
$GPGSA,A,2,12,02,24,,,,,,,,,,20.0,20.0,20.0*06
$GPGSV,3,1,09,12,66,333,41,02,73,173,28,24,46,228,21,06,51,054,*72
$GPGSV,3,2,09,19,28,058,,25,25,312,,17,11,067,,29,09,261,*7E
$GPGSV,3,3,09,05,07,160,*45
$GPRMC,223344.585,A,3744.9338,N,12230.4261,W,000.0,000.0,100617,,,A*73
$GPGGA,223345.585,3744.9338,N,12230.4261,W,1,03,20.0,-16.6,M,,,,0000*3F
$GPGSA,A,2,12,02,24,,,,,,,,,,20.0,20.0,20.0*06
$GPRMC,223345.585,A,3744.9338,N,12230.4261,W,000.0,000.0,100617,,,A*72
$GPGGA,223346.585,3744.9338,N,12230.4261,W,1,00,20.0,-16.6,M,,,,0000*3F
$GPGSA,A,2,,,,,,,,,,,,,20.0,20.0,20.0*01
$GPRMC,223346.585,A,3744.9338,N,12230.4261,W,000.0,000.0,100617,,,A*71
$GPGGA,223347.585,3744.9338,N,12230.4261,W,1,00,20.0,-16.6,M,,,,0000*3E
$GPGSA,A,2,,,,,,,,,,,,,20.0,20.0,20.0*01
$GPGSV,3,1,09,12,66,333,40,02,73,173,29,24,46,228,17,06,51,054,*77
$GPGSV,3,2,09,19,28,058,,25,25,312,,17,11,067,,29,09,261,*7E
$GPGSV,3,3,09,05,07,160,*45
$GPRMC,223347.585,A,3744.9338,N,12230.4261,W,000.0,000.0,100617,,,A*70
$GPGGA,223348.585,3744.9338,N,12230.4261,W,1,00,20.0,-16.6,M,,,,0000*31
$GPGSA,A,2,,,,,,,,,,,,,20.0,20.0,20.0*01
$GPRMC,223348.585,A,3744.9338,N,12230.4261,W,000.0,000.0,100617,,,A*7F
$GPGGA,223349.585,3744.9338,N,12230.4261,W,1,03,20.0,-16.5,M,,,,0000*30
$GPGSA,A,2,12,02,24,,,,,,,,,,20.0,20.0,20.0*06
$GPRMC,223349.585,A,3744.9338,N,12230.4261,W,000.0,000.0,100617,,,A*7E
$GPGGA,223350.585,3744.9339,N,12230.4261,W,1,03,20.0,-16.6,M,,,,0000*3A
$GPGSA,A,2,12,02,24,,,,,,,,,,20.0,20.0,20.0*06
$GPGSV,3,1,09,12,66,333,32,02,73,173,25,24,46,228,22,06,51,054,*78
$GPGSV,3,2,09,19,28,058,,25,25,312,,17,11,067,,29,09,261,*7E
$GPGSV,3,3,09,05,07,160,*45
$GPRMC,223350.585,A,3744.9339,N,12230.4261,W,000.0,000.0,100617,,,A*77
$GPGGA,223351.585,3744.9339,N,12230.4261,W,1,03,20.0,-16.6,M,,,,0000*3B
$GPGSA,A,2,12,02,24,,,,,,,,,,20.0,20.0,20.0*06
$GPRMC,223351.585,A,3744.9339,N,12230.4261,W,000.0,000.0,100617,,,A*76
$GPGGA,223352.585,3744.9339,N,12230.4261,W,1,03,20.0,-16.5,M,,,,0000*3B
$GPGSA,A,2,12,02,24,,,,,,,,,,20.0,20.0,20.0*06
$GPRMC,223352.585,A,3744.9339,N,12230.4261,W,000.0,000.0,100617,,,A*75
$GPGGA,223353.585,3744.9339,N,12230.4261,W,1,03,20.0,-16.6,M,,,,0000*39
$GPGSA,A,2,12,02,24,,,,,,,,,,20.0,20.0,20.0*06
$GPGSV,3,1,09,12,66,334,31,02,73,173,25,24,46,228,22,06,51,054,*7C
$GPGSV,3,2,09,19,28,058,,25,25,312,,17,11,067,,29,09,261,*7E
$GPGSV,3,3,09,05,07,160,*45
$GPRMC,223353.585,A,3744.9339,N,12230.4261,W,000.0,000.0,100617,,,A*74
$GPGGA,223354.585,3744.9339,N,12230.4261,W,1,03,20.0,-16.7,M,,,,0000*3F
$GPGSA,A,2,12,02,24,,,,,,,,,,20.0,20.0,20.0*06
$GPRMC,223354.585,A,3744.9339,N,12230.4261,W,000.0,000.0,100617,,,A*73
$GPGGA,223355.585,3744.9339,N,12230.4261,W,1,03,20.0,-16.7,M,,,,0000*3E
$GPGSA,A,2,12,02,24,,,,,,,,,,20.0,20.0,20.0*06
$GPRMC,223355.585,A,3744.9339,N,12230.4261,W,000.0,000.0,100617,,,A*72
$GPGGA,223356.585,3744.9339,N,12230.4261,W,1,03,20.0,-16.9,M,,,,0000*33
$GPGSA,A,2,12,02,24,,,,,,,,,,20.0,20.0,20.0*06
$GPGSV,3,1,09,12,66,334,37,02,73,173,25,24,46,228,26,06,51,054,*7E
$GPGSV,3,2,09,19,28,058,,25,25,312,,17,11,067,,29,09,261,*7E
$GPGSV,3,3,09,05,07,160,*45
$GPRMC,223356.585,A,3744.9339,N,12230.4261,W,000.0,000.0,100617,,,A*71
$GPGGA,223357.585,3744.9339,N,12230.4261,W,1,03,20.0,-16.9,M,,,,0000*32
$GPGSA,A,2,12,02,24,,,,,,,,,,20.0,20.0,20.0*06
$GPRMC,223357.585,A,3744.9339,N,12230.4261,W,000.0,000.0,100617,,,A*70
$GPGGA,223358.585,3744.9339,N,12230.4261,W,1,03,20.0,-16.8,M,,,,0000*3C
$GPGSA,A,2,12,02,24,,,,,,,,,,20.0,20.0,20.0*06
$GPRMC,223358.585,A,3744.9339,N,12230.4261,W,000.0,000.0,100617,,,A*7F
$GPGGA,223359.585,3744.9340,N,12230.4261,W,1,03,20.0,-16.8,M,,,,0000*33
$GPGSA,A,2,12,02,24,,,,,,,,,,20.0,20.0,20.0*06
$GPGSV,3,1,09,12,66,334,40,02,73,173,35,24,46,228,26,06,51,054,*7F
$GPGSV,3,2,09,19,28,058,,25,25,312,,17,11,067,,29,09,261,*7E
$GPGSV,3,3,09,05,07,160,*45
$GPRMC,223359.585,A,3744.9340,N,12230.4261,W,000.0,000.0,100617,,,A*70
$GPGGA,223400.585,3744.9340,N,12230.4261,W,1,00,20.0,-16.8,M,,,,0000*3B
$GPGSA,A,2,,,,,,,,,,,,,20.0,20.0,20.0*01
$GPRMC,223400.585,A,3744.9340,N,12230.4261,W,000.0,000.0,100617,,,A*7B
$GPGGA,223401.585,3744.9340,N,12230.4261,W,1,00,20.0,-16.8,M,,,,0000*3A
$GPGSA,A,2,,,,,,,,,,,,,20.0,20.0,20.0*01
$GPRMC,223401.585,A,3744.9340,N,12230.4261,W,000.0,000.0,100617,,,A*7A
$GPGGA,223402.585,3744.9340,N,12230.4261,W,1,00,20.0,-16.8,M,,,,0000*39
$GPGSA,A,2,,,,,,,,,,,,,20.0,20.0,20.0*01
$GPGSV,3,1,09,12,66,334,23,02,73,173,23,24,46,228,23,06,51,054,*78
$GPGSV,3,2,09,19,28,058,,25,25,312,,17,11,067,,29,09,261,*7E
$GPGSV,3,3,09,05,07,160,*45
$GPRMC,223402.585,A,3744.9340,N,12230.4261,W,000.0,000.0,100617,,,A*79
$GPGGA,223403.585,3744.9340,N,12230.4261,W,0,00,20.0,-16.8,M,,,,0000*39
$GPGSA,A,1,,,,,,,,,,,,,20.0,20.0,20.0*02
$GPRMC,223403.585,V,3744.9340,N,12230.4261,W,000.0,000.0,100617,,,N*60
$GPGGA,223404.585,3744.9338,N,12230.4259,W,1,03,20.0,-16.6,M,,,,0000*36
$GPGSA,A,2,12,02,24,,,,,,,,,,20.0,20.0,20.0*06
$GPRMC,223404.585,A,3744.9338,N,12230.4259,W,000.0,000.0,100617,,,A*7B
$GPGGA,223405.585,3744.9336,N,12230.4261,W,1,03,20.0,-16.4,M,,,,0000*30
$GPGSA,A,2,12,02,24,,,,,,,,,,20.0,20.0,20.0*06
$GPGSV,3,1,09,12,66,334,27,02,73,173,22,24,46,228,21,06,51,054,*7F
$GPGSV,3,2,09,19,28,058,,25,26,312,,17,11,067,,29,09,261,*7D
$GPGSV,3,3,09,05,07,160,*45
$GPRMC,223405.585,A,3744.9336,N,12230.4261,W,000.0,000.0,100617,,,A*7F
$GPGGA,223406.585,3744.9336,N,12230.4261,W,1,00,20.0,-16.4,M,,,,0000*30
$GPGSA,A,2,,,,,,,,,,,,,20.0,20.0,20.0*01
$GPRMC,223406.585,A,3744.9336,N,12230.4261,W,000.0,000.0,100617,,,A*7C
$GPGGA,223407.585,3744.9336,N,12230.4261,W,1,00,20.0,-16.4,M,,,,0000*31
$GPGSA,A,2,,,,,,,,,,,,,20.0,20.0,20.0*01
$GPRMC,223407.585,A,3744.9336,N,12230.4261,W,000.0,000.0,100617,,,A*7D
$GPGGA,223408.585,3744.9339,N,12230.4260,W,1,03,20.0,-16.4,M,,,,0000*33
$GPGSA,A,2,12,02,24,,,,,,,,,,20.0,20.0,20.0*06
$GPGSV,3,1,09,12,66,334,26,02,73,173,21,24,46,228,25,06,51,054,*79
$GPGSV,3,2,09,19,28,058,,25,26,312,,17,11,067,,29,09,261,*7D
$GPGSV,3,3,09,05,07,160,*45
$GPRMC,223408.585,A,3744.9339,N,12230.4260,W,000.0,000.0,100617,,,A*7C
$GPGGA,223409.585,3744.9338,N,12230.4260,W,1,03,20.0,-16.6,M,,,,0000*31
$GPGSA,A,2,12,02,24,,,,,,,,,,20.0,20.0,20.0*06
$GPRMC,223409.585,A,3744.9338,N,12230.4260,W,000.0,000.0,100617,,,A*7C
$GPGGA,223410.585,3744.9338,N,12230.4260,W,1,00,20.0,-16.6,M,,,,0000*3A
$GPGSA,A,2,,,,,,,,,,,,,20.0,20.0,20.0*01
$GPRMC,223410.585,A,3744.9338,N,12230.4260,W,000.0,000.0,100617,,,A*74
$GPGGA,223411.585,3744.9338,N,12230.4260,W,1,00,20.0,-16.6,M,,,,0000*3B
$GPGSA,A,2,,,,,,,,,,,,,20.0,20.0,20.0*01
$GPGSV,3,1,09,12,66,334,21,02,73,173,22,24,46,228,23,06,51,054,*7B
$GPGSV,3,2,09,19,28,058,,25,26,312,,17,11,067,,29,09,261,*7D
$GPGSV,3,3,09,05,07,160,*45
$GPRMC,223411.585,A,3744.9338,N,12230.4260,W,000.0,000.0,100617,,,A*75
$GPGGA,223412.585,3744.9338,N,12230.4260,W,1,00,20.0,-16.6,M,,,,0000*38
$GPGSA,A,2,,,,,,,,,,,,,20.0,20.0,20.0*01
$GPRMC,223412.585,A,3744.9338,N,12230.4260,W,000.0,000.0,100617,,,A*76
$GPGGA,223413.585,3744.9338,N,12230.4258,W,1,03,20.0,-16.4,M,,,,0000*33
$GPGSA,A,2,12,02,24,,,,,,,,,,20.0,20.0,20.0*06
$GPRMC,223413.585,A,3744.9338,N,12230.4258,W,000.0,000.0,100617,,,A*7C
$GPGGA,223414.585,3744.9338,N,12230.4258,W,1,00,20.0,-16.4,M,,,,0000*37
$GPGSA,A,2,,,,,,,,,,,,,20.0,20.0,20.0*01
$GPGSV,3,1,09,12,66,334,22,02,73,173,22,24,46,228,21,06,51,054,*7A
$GPGSV,3,2,09,19,28,058,,25,26,312,,17,11,067,,29,09,261,*7D
$GPGSV,3,3,09,05,07,160,*45
$GPRMC,223414.585,A,3744.9338,N,12230.4258,W,000.0,000.0,100617,,,A*7B
$GPGGA,223415.585,3744.9338,N,12230.4258,W,1,00,20.0,-16.4,M,,,,0000*36
$GPGSA,A,2,,,,,,,,,,,,,20.0,20.0,20.0*01
$GPRMC,223415.585,A,3744.9338,N,12230.4258,W,000.0,000.0,100617,,,A*7A
$GPGGA,223416.585,3744.9338,N,12230.4258,W,1,00,20.0,-16.4,M,,,,0000*35
$GPGSA,A,2,,,,,,,,,,,,,20.0,20.0,20.0*01
$GPRMC,223416.585,A,3744.9338,N,12230.4258,W,000.0,000.0,100617,,,A*79
$GPGGA,223417.585,3744.9338,N,12230.4258,W,0,00,20.0,-16.4,M,,,,0000*35
$GPGSA,A,1,,,,,,,,,,,,,20.0,20.0,20.0*02
$GPGSV,3,1,09,12,66,334,20,02,73,173,26,24,46,228,23,06,51,054,*7E
$GPGSV,3,2,09,19,28,058,,25,26,312,,17,11,067,,29,09,261,*7D
$GPGSV,3,3,09,05,07,159,*4F
$GPRMC,223417.585,V,3744.9338,N,12230.4258,W,000.0,000.0,100617,,,N*60
$GPGGA,223418.585,3744.9338,N,12230.4258,W,0,00,20.0,-16.4,M,,,,0000*3A
$GPGSA,A,1,,,,,,,,,,,,,20.0,20.0,20.0*02
$GPRMC,223418.585,V,3744.9338,N,12230.4258,W,000.0,000.0,100617,,,N*6F
$GPGGA,223419.585,3744.9341,N,12230.4267,W,1,03,20.0,-16.2,M,,,,0000*3D
$GPGSA,A,2,12,02,24,,,,,,,,,,20.0,20.0,20.0*06
$GPRMC,223419.585,A,3744.9341,N,12230.4267,W,000.0,000.0,100617,,,A*74
$GPGGA,223420.585,3744.9343,N,12230.4255,W,1,03,20.0,-15.7,M,,,,0000*32
$GPGSA,A,2,12,02,24,,,,,,,,,,20.0,20.0,20.0*06
$GPGSV,3,1,09,12,66,334,24,02,73,173,25,24,46,228,22,06,50,054,*79
$GPGSV,3,2,09,19,28,058,,25,26,312,,17,11,067,,29,09,261,*7D
$GPGSV,3,3,09,05,07,159,*4F
$GPRMC,223420.585,A,3744.9343,N,12230.4255,W,000.0,000.0,100617,,,A*7D
$GPGGA,223421.585,3744.9347,N,12230.4256,W,1,03,20.0,-15.4,M,,,,0000*37
$GPGSA,A,2,12,02,24,,,,,,,,,,20.0,20.0,20.0*06
$GPRMC,223421.585,A,3744.9347,N,12230.4256,W,000.0,000.0,100617,,,A*7B
$GPGGA,223422.585,3744.9347,N,12230.4254,W,1,03,20.0,-15.6,M,,,,0000*34
$GPGSA,A,2,12,02,24,,,,,,,,,,20.0,20.0,20.0*06
$GPRMC,223422.585,A,3744.9347,N,12230.4254,W,000.0,000.0,100617,,,A*7A
$GPGGA,223423.585,3744.9347,N,12230.4254,W,1,00,20.0,-15.6,M,,,,0000*36
$GPGSA,A,2,,,,,,,,,,,,,20.0,20.0,20.0*01
$GPGSV,3,1,09,12,66,334,25,02,73,173,23,24,46,228,20,06,50,054,*7C
$GPGSV,3,2,09,19,28,058,,25,26,312,,17,11,067,,29,09,261,*7D
$GPGSV,3,3,09,05,07,159,*4F
$GPRMC,223423.585,A,3744.9347,N,12230.4254,W,000.0,000.0,100617,,,A*7B
$GPGGA,223424.585,3744.9348,N,12230.4246,W,1,03,20.0,-15.4,M,,,,0000*3C
$GPGSA,A,2,12,02,24,,,,,,,,,,20.0,20.0,20.0*06
$GPRMC,223424.585,A,3744.9348,N,12230.4246,W,001.1,058.5,100617,,,A*78
$GPGGA,223425.585,3744.9349,N,12230.4252,W,1,03,20.0,-15.5,M,,,,0000*38
$GPGSA,A,2,12,02,24,,,,,,,,,,20.0,20.0,20.0*06
$GPRMC,223425.585,A,3744.9349,N,12230.4252,W,000.0,058.5,100617,,,A*7D
$GPGGA,223426.585,3744.9351,N,12230.4253,W,1,03,20.0,-15.7,M,,,,0000*31
$GPGSA,A,2,12,02,24,,,,,,,,,,20.0,20.0,20.0*06
$GPGSV,3,1,09,12,67,334,26,02,73,173,26,24,46,228,21,06,50,054,*7A
$GPGSV,3,2,09,19,28,058,,25,26,312,,17,11,067,,29,09,261,*7D
$GPGSV,3,3,09,05,07,159,*4F
$GPRMC,223426.585,A,3744.9351,N,12230.4253,W,000.0,058.5,100617,,,A*76
$GPGGA,223427.585,3744.9352,N,12230.4250,W,1,03,20.0,-15.5,M,,,,0000*32
$GPGSA,A,2,12,02,24,,,,,,,,,,20.0,20.0,20.0*06
$GPRMC,223427.585,A,3744.9352,N,12230.4250,W,001.0,047.7,100617,,,A*7A
$GPGGA,223428.585,3744.9351,N,12230.4253,W,1,03,20.0,-15.5,M,,,,0000*3D
$GPGSA,A,2,12,02,24,,,,,,,,,,20.0,20.0,20.0*06
$GPRMC,223428.585,A,3744.9351,N,12230.4253,W,000.9,043.4,100617,,,A*7A
$GPGGA,223429.585,3744.9350,N,12230.4251,W,1,03,20.0,-15.2,M,,,,0000*38
$GPGSA,A,2,12,02,24,,,,,,,,,,20.0,20.0,20.0*06
$GPGSV,3,1,09,12,67,334,25,02,73,173,32,24,46,228,21,06,50,054,*7C
$GPGSV,3,2,09,19,28,058,,25,26,312,,17,10,067,,29,09,261,*7C
$GPGSV,3,3,09,05,07,159,*4F
$GPRMC,223429.585,A,3744.9350,N,12230.4251,W,000.0,043.4,100617,,,A*71
$GPGGA,223430.585,3744.9349,N,12230.4254,W,1,03,20.0,-15.7,M,,,,0000*38
$GPGSA,A,2,12,02,24,,,,,,,,,,20.0,20.0,20.0*06
$GPRMC,223430.585,A,3744.9349,N,12230.4254,W,000.0,043.4,100617,,,A*74
$GPGGA,223431.585,3744.9349,N,12230.4254,W,1,00,20.0,-15.7,M,,,,0000*3A
$GPGSA,A,2,,,,,,,,,,,,,20.0,20.0,20.0*01
$GPRMC,223431.585,A,3744.9349,N,12230.4254,W,000.0,043.4,100617,,,A*75
$GPGGA,223432.585,3744.9350,N,12230.4258,W,1,03,20.0,-15.4,M,,,,0000*3D
$GPGSA,A,2,12,02,24,,,,,,,,,,20.0,20.0,20.0*06
$GPGSV,3,1,09,12,67,334,25,02,73,173,28,24,46,228,20,06,50,054,*76
$GPGSV,3,2,09,19,28,059,,25,26,312,,17,10,067,,29,09,261,*7D
$GPGSV,3,3,09,05,07,159,*4F
$GPRMC,223432.585,A,3744.9350,N,12230.4258,W,000.0,043.4,100617,,,A*72
$GPGGA,223433.585,3744.9349,N,12230.4258,W,1,03,20.0,-15.0,M,,,,0000*30
$GPGSA,A,2,12,02,24,,,,,,,,,,20.0,20.0,20.0*06
$GPRMC,223433.585,A,3744.9349,N,12230.4258,W,000.0,043.4,100617,,,A*7B
$GPGGA,223434.585,3744.9348,N,12230.4257,W,1,03,20.0,-15.0,M,,,,0000*39
$GPGSA,A,2,12,02,24,,,,,,,,,,20.0,20.0,20.0*06
$GPRMC,223434.585,A,3744.9348,N,12230.4257,W,000.0,043.4,100617,,,A*72
$GPGGA,223435.585,3744.9344,N,12230.4256,W,1,03,20.0,-15.7,M,,,,0000*32
$GPGSA,A,2,12,02,24,,,,,,,,,,20.0,20.0,20.0*06
$GPGSV,3,1,09,12,67,334,34,02,73,173,25,24,46,228,25,06,50,054,*7E
$GPGSV,3,2,09,19,28,059,,25,26,312,,17,10,067,,29,09,261,*7D
$GPGSV,3,3,09,05,07,159,*4F
$GPRMC,223435.585,A,3744.9344,N,12230.4256,W,000.0,043.4,100617,,,A*7E
$GPGGA,223436.585,3744.9342,N,12230.4254,W,1,03,20.0,-16.1,M,,,,0000*30
$GPGSA,A,2,12,02,24,,,,,,,,,,20.0,20.0,20.0*06
$GPRMC,223436.585,A,3744.9342,N,12230.4254,W,000.0,043.4,100617,,,A*79
$GPGGA,223437.585,3744.9338,N,12230.4254,W,1,03,20.0,-16.5,M,,,,0000*38
$GPGSA,A,2,12,02,24,,,,,,,,,,20.0,20.0,20.0*06
$GPRMC,223437.585,A,3744.9338,N,12230.4254,W,000.0,043.4,100617,,,A*75
$GPGGA,223438.585,3744.9338,N,12230.4254,W,1,03,20.0,-16.6,M,,,,0000*34
$GPGSA,A,2,12,02,24,,,,,,,,,,20.0,20.0,20.0*06
$GPGSV,3,1,09,12,67,334,34,02,73,173,25,24,46,228,24,06,50,054,*7F
$GPGSV,3,2,09,19,28,059,,25,26,312,,17,10,067,,29,09,261,*7D
$GPGSV,3,3,09,05,07,159,*4F
$GPRMC,223438.585,A,3744.9338,N,12230.4254,W,000.0,043.4,100617,,,A*7A
$GPGGA,223439.585,3744.9339,N,12230.4254,W,1,03,20.0,-16.3,M,,,,0000*31
$GPGSA,A,2,12,02,24,,,,,,,,,,20.0,20.0,20.0*06
$GPRMC,223439.585,A,3744.9339,N,12230.4254,W,000.0,043.4,100617,,,A*7A
$GPGGA,223440.585,3744.9338,N,12230.4253,W,1,03,20.0,-16.1,M,,,,0000*3B
$GPGSA,A,2,12,02,24,,,,,,,,,,20.0,20.0,20.0*06
$GPRMC,223440.585,A,3744.9338,N,12230.4253,W,000.0,043.4,100617,,,A*72
$GPGGA,223441.585,3744.9338,N,12230.4254,W,1,03,20.0,-16.2,M,,,,0000*3E
$GPGSA,A,2,12,02,24,,,,,,,,,,20.0,20.0,20.0*06
$GPGSV,3,1,09,12,67,334,32,02,73,173,24,24,46,228,24,06,50,054,*78
$GPGSV,3,2,09,19,28,059,,25,26,312,,17,10,067,,29,09,261,*7D
$GPGSV,3,3,09,05,07,159,*4F
$GPRMC,223441.585,A,3744.9338,N,12230.4254,W,000.0,043.4,100617,,,A*74
$GPGGA,223442.585,3744.9339,N,12230.4254,W,1,03,20.0,-16.2,M,,,,0000*3C
$GPGSA,A,2,12,02,24,,,,,,,,,,20.0,20.0,20.0*06
$GPRMC,223442.585,A,3744.9339,N,12230.4254,W,000.0,043.4,100617,,,A*76
$GPGGA,223443.585,3744.9338,N,12230.4254,W,1,03,20.0,-16.3,M,,,,0000*3D
$GPGSA,A,2,12,02,24,,,,,,,,,,20.0,20.0,20.0*06
$GPRMC,223443.585,A,3744.9338,N,12230.4254,W,000.0,043.4,100617,,,A*76
$GPGGA,223444.585,3744.9336,N,12230.4255,W,1,03,20.0,-16.4,M,,,,0000*32
$GPGSA,A,2,12,02,24,,,,,,,,,,20.0,20.0,20.0*06
$GPGSV,3,1,09,12,67,334,33,02,73,173,24,24,46,228,23,06,50,054,*7E
$GPGSV,3,2,09,19,28,059,,25,26,312,,17,10,067,,29,09,261,*7D
$GPGSV,3,3,09,05,07,159,*4F
$GPRMC,223444.585,A,3744.9336,N,12230.4255,W,000.0,043.4,100617,,,A*7E
$GPGGA,223445.585,3744.9333,N,12230.4253,W,1,03,20.0,-16.4,M,,,,0000*30
$GPGSA,A,2,12,02,24,,,,,,,,,,20.0,20.0,20.0*06
$GPRMC,223445.585,A,3744.9333,N,12230.4253,W,000.0,043.4,100617,,,A*7C
$GPGGA,223446.585,3744.9334,N,12230.4252,W,1,03,20.0,-16.4,M,,,,0000*35
$GPGSA,A,2,12,02,24,,,,,,,,,,20.0,20.0,20.0*06
$GPRMC,223446.585,A,3744.9334,N,12230.4252,W,000.0,043.4,100617,,,A*79
$GPGGA,223447.585,3744.9334,N,12230.4250,W,1,03,20.0,-16.3,M,,,,0000*31
$GPGSA,A,2,12,02,24,,,,,,,,,,20.0,20.0,20.0*06
$GPGSV,3,1,09,12,67,334,34,02,73,173,23,24,46,228,22,06,50,054,*7F
$GPGSV,3,2,09,19,28,059,,25,26,312,,17,10,067,,29,09,261,*7D
$GPGSV,3,3,09,05,07,159,*4F
$GPRMC,223447.585,A,3744.9334,N,12230.4250,W,000.0,043.4,100617,,,A*7A
$GPGGA,223448.585,3744.9333,N,12230.4251,W,1,03,20.0,-16.4,M,,,,0000*3F
$GPGSA,A,2,12,02,24,,,,,,,,,,20.0,20.0,20.0*06
$GPRMC,223448.585,A,3744.9333,N,12230.4251,W,000.0,043.4,100617,,,A*73
$GPGGA,223449.585,3744.9332,N,12230.4251,W,1,03,20.0,-16.4,M,,,,0000*3F
$GPGSA,A,2,12,02,24,,,,,,,,,,20.0,20.0,20.0*06
$GPRMC,223449.585,A,3744.9332,N,12230.4251,W,000.0,043.4,100617,,,A*73
$GPGGA,223450.585,3744.9332,N,12230.4251,W,1,00,20.0,-16.4,M,,,,0000*34
$GPGSA,A,2,,,,,,,,,,,,,20.0,20.0,20.0*01
$GPGSV,3,1,09,12,67,334,25,02,73,173,24,24,46,228,24,06,50,054,*7E
$GPGSV,3,2,09,19,28,059,,25,26,312,,17,10,067,,29,09,261,*7D
$GPGSV,3,3,09,05,08,159,*40
$GPRMC,223450.585,A,3744.9332,N,12230.4251,W,000.0,043.4,100617,,,A*7B
$GPGGA,223451.585,3744.9331,N,12230.4252,W,1,03,20.0,-16.4,M,,,,0000*36
$GPGSA,A,2,12,02,24,,,,,,,,,,20.0,20.0,20.0*06
$GPRMC,223451.585,A,3744.9331,N,12230.4252,W,000.0,043.4,100617,,,A*7A
$GPGGA,223452.585,3744.9331,N,12230.4251,W,1,03,20.0,-16.4,M,,,,0000*36
$GPGSA,A,2,12,02,24,,,,,,,,,,20.0,20.0,20.0*06
$GPRMC,223452.585,A,3744.9331,N,12230.4251,W,000.0,043.4,100617,,,A*7A
$GPGGA,223453.585,3744.9332,N,12230.4252,W,1,03,20.0,-16.5,M,,,,0000*36
$GPGSA,A,2,12,02,24,,,,,,,,,,20.0,20.0,20.0*06
$GPGSV,3,1,09,12,67,334,28,02,73,173,28,24,46,228,22,06,50,054,*79
$GPGSV,3,2,09,19,28,059,,25,26,312,,17,10,067,,29,09,261,*7D
$GPGSV,3,3,09,05,08,159,*40
$GPRMC,223453.585,A,3744.9332,N,12230.4252,W,000.0,043.4,100617,,,A*7B
$GPGGA,223454.585,3744.9331,N,12230.4252,W,1,03,20.0,-16.5,M,,,,0000*32
$GPGSA,A,2,12,02,24,,,,,,,,,,20.0,20.0,20.0*06
$GPRMC,223454.585,A,3744.9331,N,12230.4252,W,000.0,043.4,100617,,,A*7F
$GPGGA,223455.585,3744.9332,N,12230.4252,W,1,03,20.0,-16.5,M,,,,0000*30
$GPGSA,A,2,12,02,24,,,,,,,,,,20.0,20.0,20.0*06
$GPRMC,223455.585,A,3744.9332,N,12230.4252,W,000.0,043.4,100617,,,A*7D
$GPGGA,223456.585,3744.9332,N,12230.4252,W,1,00,20.0,-16.5,M,,,,0000*30
$GPGSA,A,2,,,,,,,,,,,,,20.0,20.0,20.0*01
$GPGSV,3,1,09,12,67,334,24,02,73,173,25,24,46,228,21,06,50,054,*7B
$GPGSV,3,2,09,19,28,059,,25,26,312,,17,10,067,,29,09,261,*7D
$GPGSV,3,3,09,05,08,159,*40
$GPRMC,223456.585,A,3744.9332,N,12230.4252,W,000.0,043.4,100617,,,A*7E
$GPGGA,223457.585,3744.9332,N,12230.4252,W,1,00,20.0,-16.5,M,,,,0000*31
$GPGSA,A,2,,,,,,,,,,,,,20.0,20.0,20.0*01
$GPRMC,223457.585,A,3744.9332,N,12230.4252,W,000.0,043.4,100617,,,A*7F
$GPGGA,223458.585,3744.9332,N,12230.4252,W,1,03,20.0,-16.5,M,,,,0000*3D
$GPGSA,A,2,12,02,24,,,,,,,,,,20.0,20.0,20.0*06
$GPRMC,223458.585,A,3744.9332,N,12230.4252,W,000.0,043.4,100617,,,A*70
$GPGGA,223459.585,3744.9332,N,12230.4252,W,1,00,20.0,-16.5,M,,,,0000*3F
$GPGSA,A,2,,,,,,,,,,,,,20.0,20.0,20.0*01
$GPGSV,3,1,09,12,67,334,31,02,73,173,24,24,46,228,19,06,50,054,*75
$GPGSV,3,2,09,19,28,059,,25,26,312,,17,10,067,,29,09,261,*7D
$GPGSV,3,3,09,05,08,159,*40
$GPRMC,223459.585,A,3744.9332,N,12230.4252,W,000.0,043.4,100617,,,A*71
$GPGGA,223500.585,3744.9332,N,12230.4252,W,1,00,20.0,-16.5,M,,,,0000*32
$GPGSA,A,2,,,,,,,,,,,,,20.0,20.0,20.0*01
$GPRMC,223500.585,A,3744.9332,N,12230.4252,W,000.0,043.4,100617,,,A*7C
$GPGGA,223501.585,3744.9332,N,12230.4252,W,1,00,20.0,-16.5,M,,,,0000*33
$GPGSA,A,2,,,,,,,,,,,,,20.0,20.0,20.0*01
$GPRMC,223501.585,A,3744.9332,N,12230.4252,W,000.0,043.4,100617,,,A*7D
$GPGGA,223502.585,3744.9332,N,12230.4252,W,1,03,20.0,-16.5,M,,,,0000*33
$GPGSA,A,2,12,02,24,,,,,,,,,,20.0,20.0,20.0*06
$GPGSV,3,1,09,12,67,334,28,02,73,173,22,24,46,228,17,06,50,054,*75
$GPGSV,3,2,09,19,28,059,,25,26,312,,17,10,067,,29,09,261,*7D
$GPGSV,3,3,09,05,08,159,*40
$GPRMC,223502.585,A,3744.9332,N,12230.4252,W,000.0,043.4,100617,,,A*7E
$GPGGA,223503.585,3744.9332,N,12230.4251,W,1,03,20.0,-16.4,M,,,,0000*30
$GPGSA,A,2,12,02,24,,,,,,,,,,20.0,20.0,20.0*06
$GPRMC,223503.585,A,3744.9332,N,12230.4251,W,000.0,043.4,100617,,,A*7C
$GPGGA,223504.585,3744.9333,N,12230.4252,W,1,03,20.0,-16.5,M,,,,0000*34
$GPGSA,A,2,12,02,24,,,,,,,,,,20.0,20.0,20.0*06
$GPRMC,223504.585,A,3744.9333,N,12230.4252,W,000.9,278.0,100617,,,A*7E
$GPGGA,223505.585,3744.9346,N,12230.4267,W,1,03,20.0,-16.6,M,,,,0000*32
$GPGSA,A,2,12,02,24,,,,,,,,,,20.0,20.0,20.0*06
$GPGSV,3,1,09,12,67,334,46,02,73,173,39,24,46,228,24,06,50,054,*77
$GPGSV,3,2,09,19,28,059,,25,26,312,,17,10,067,,29,09,261,*7D
$GPGSV,3,3,09,05,08,159,*40
$GPRMC,223505.585,A,3744.9346,N,12230.4267,W,001.2,283.9,100617,,,A*7C
$GPGGA,223506.585,3744.9340,N,12230.4260,W,1,03,20.0,-16.3,M,,,,0000*35
$GPGSA,A,2,12,02,24,,,,,,,,,,20.0,20.0,20.0*06
$GPRMC,223506.585,A,3744.9340,N,12230.4260,W,000.9,267.6,100617,,,A*71
$GPGGA,223507.585,3744.9335,N,12230.4253,W,1,03,20.0,-16.1,M,,,,0000*34
$GPGSA,A,2,12,02,24,,,,,,,,,,20.0,20.0,20.0*06
$GPRMC,223507.585,A,3744.9335,N,12230.4253,W,000.0,267.6,100617,,,A*7B
$GPGGA,223508.585,3744.9338,N,12230.4254,W,1,03,20.0,-16.1,M,,,,0000*31
$GPGSA,A,2,12,02,24,,,,,,,,,,20.0,20.0,20.0*06
$GPGSV,3,1,09,12,67,334,46,02,73,173,39,24,46,228,25,06,50,054,*76
$GPGSV,3,2,09,19,28,059,,25,26,312,,17,10,067,,29,09,261,*7D
$GPGSV,3,3,09,05,08,159,*40
$GPRMC,223508.585,A,3744.9338,N,12230.4254,W,000.0,267.6,100617,,,A*7E
$GPGGA,223509.585,3744.9340,N,12230.4254,W,1,03,20.0,-16.3,M,,,,0000*3D
$GPGSA,A,2,12,02,24,,,,,,,,,,20.0,20.0,20.0*06
$GPRMC,223509.585,A,3744.9340,N,12230.4254,W,000.0,267.6,100617,,,A*70
$GPGGA,223510.585,3744.9341,N,12230.4256,W,1,03,20.0,-16.3,M,,,,0000*36
$GPGSA,A,2,12,02,24,,,,,,,,,,20.0,20.0,20.0*06
$GPRMC,223510.585,A,3744.9341,N,12230.4256,W,000.0,267.6,100617,,,A*7B
$GPGGA,223511.585,3744.9341,N,12230.4255,W,1,03,20.0,-16.4,M,,,,0000*33
$GPGSA,A,2,12,02,24,,,,,,,,,,20.0,20.0,20.0*06
$GPGSV,3,1,09,12,67,334,45,02,73,173,38,24,46,228,32,06,50,054,*72
$GPGSV,3,2,09,19,28,059,,25,26,312,,17,10,067,,29,09,261,*7D
$GPGSV,3,3,09,05,08,159,*40
$GPRMC,223511.585,A,3744.9341,N,12230.4255,W,000.0,267.6,100617,,,A*79
$GPGGA,223512.586,3744.9341,N,12230.4256,W,1,03,20.0,-16.5,M,,,,0000*31
$GPGSA,A,2,12,02,24,,,,,,,,,,20.0,20.0,20.0*06
$GPRMC,223512.586,A,3744.9341,N,12230.4256,W,000.0,267.6,100617,,,A*7A
$GPGGA,223513.586,3744.9342,N,12230.4255,W,1,03,20.0,-16.4,M,,,,0000*31
$GPGSA,A,2,12,02,24,,,,,,,,,,20.0,20.0,20.0*06
$GPRMC,223513.586,A,3744.9342,N,12230.4255,W,000.0,267.6,100617,,,A*7B
$GPGGA,223514.586,3744.9341,N,12230.4256,W,1,03,20.0,-16.4,M,,,,0000*36
$GPGSA,A,2,12,02,24,,,,,,,,,,20.0,20.0,20.0*06
$GPGSV,3,1,09,12,67,334,31,02,73,173,25,24,46,228,31,06,50,054,*7E
$GPGSV,3,2,09,19,28,059,,25,26,312,,17,10,067,,29,09,262,*7E
$GPGSV,3,3,09,05,08,159,*40
$GPRMC,223514.586,A,3744.9341,N,12230.4256,W,000.0,267.6,100617,,,A*7C
$GPGGA,223515.586,3744.9341,N,12230.4256,W,1,00,20.0,-16.4,M,,,,0000*34
$GPGSA,A,2,,,,,,,,,,,,,20.0,20.0,20.0*01
$GPRMC,223515.586,A,3744.9341,N,12230.4256,W,000.0,267.6,100617,,,A*7D
$GPGGA,223516.586,3744.9341,N,12230.4256,W,1,00,20.0,-16.4,M,,,,0000*37
$GPGSA,A,2,,,,,,,,,,,,,20.0,20.0,20.0*01
$GPRMC,223516.586,A,3744.9341,N,12230.4256,W,000.0,267.6,100617,,,A*7E
$GPGGA,223517.586,3744.9341,N,12230.4256,W,1,00,20.0,-16.4,M,,,,0000*36
$GPGSA,A,2,,,,,,,,,,,,,20.0,20.0,20.0*01
$GPGSV,3,1,09,12,67,334,30,02,73,173,23,24,46,228,21,06,50,054,*78
$GPGSV,3,2,09,19,28,059,,25,26,312,,17,10,067,,29,09,262,*7E
$GPGSV,3,3,09,05,08,159,*40
$GPRMC,223517.586,A,3744.9341,N,12230.4256,W,000.0,267.6,100617,,,A*7F
$GPGGA,223518.586,3744.9341,N,12230.4256,W,0,00,20.0,-16.4,M,,,,0000*38
$GPGSA,A,1,,,,,,,,,,,,,20.0,20.0,20.0*02
$GPRMC,223518.586,V,3744.9341,N,12230.4256,W,000.0,267.6,100617,,,N*68
$GPGGA,223519.586,3744.9341,N,12230.4256,W,0,00,20.0,-16.4,M,,,,0000*39
$GPGSA,A,1,,,,,,,,,,,,,20.0,20.0,20.0*02
$GPRMC,223519.586,V,3744.9341,N,12230.4256,W,000.0,267.6,100617,,,N*69
$GPGGA,223520.586,3744.9340,N,12230.4253,W,1,03,20.0,-15.5,M,,,,0000*37
$GPGSA,A,2,12,02,24,,,,,,,,,,20.0,20.0,20.0*06
$GPGSV,3,1,09,12,67,334,24,02,73,172,22,24,46,228,18,06,50,054,*77
$GPGSV,3,2,09,19,28,059,,25,26,312,,17,10,067,,29,09,262,*7E
$GPGSV,3,3,09,05,08,159,*40
$GPRMC,223520.586,A,3744.9340,N,12230.4253,W,000.0,267.6,100617,,,A*7F
$GPGGA,223521.586,3744.9340,N,12230.4253,W,1,00,20.0,-15.5,M,,,,0000*35
$GPGSA,A,2,,,,,,,,,,,,,20.0,20.0,20.0*01
$GPRMC,223521.586,A,3744.9340,N,12230.4253,W,000.0,267.6,100617,,,A*7E
$GPGGA,223522.586,3744.9340,N,12230.4253,W,1,00,20.0,-15.5,M,,,,0000*36
$GPGSA,A,2,,,,,,,,,,,,,20.0,20.0,20.0*01
$GPRMC,223522.586,A,3744.9340,N,12230.4253,W,000.0,267.6,100617,,,A*7D
$GPGGA,223523.586,3744.9347,N,12230.4255,W,1,03,20.0,-15.0,M,,,,0000*30
$GPGSA,A,2,12,02,24,,,,,,,,,,20.0,20.0,20.0*06
$GPGSV,3,1,09,12,67,334,35,02,73,172,26,24,46,228,17,06,50,053,*7B
$GPGSV,3,2,09,19,28,059,,25,26,312,,17,10,067,,29,09,262,*7E
$GPGSV,3,3,09,05,08,159,*40
$GPRMC,223523.586,A,3744.9347,N,12230.4255,W,000.0,267.6,100617,,,A*7D
$GPGGA,223524.586,3744.9348,N,12230.4253,W,1,03,20.0,-15.4,M,,,,0000*3A
$GPGSA,A,2,12,02,24,,,,,,,,,,20.0,20.0,20.0*06
$GPRMC,223524.586,A,3744.9348,N,12230.4253,W,001.0,004.0,100617,,,A*73
$GPGGA,223525.586,3744.9344,N,12230.4260,W,1,03,20.0,-15.9,M,,,,0000*3A
$GPGSA,A,2,12,02,24,,,,,,,,,,20.0,20.0,20.0*06
$GPRMC,223525.586,A,3744.9344,N,12230.4260,W,000.0,004.0,100617,,,A*7F
$GPGGA,223526.586,3744.9347,N,12230.4269,W,1,03,20.0,-16.3,M,,,,0000*3A
$GPGSA,A,2,12,02,24,,,,,,,,,,20.0,20.0,20.0*06
$GPGSV,3,1,09,12,67,334,43,02,73,172,38,24,46,228,27,06,50,053,*76
$GPGSV,3,2,09,19,28,059,,25,26,312,,17,10,067,,29,09,262,*7E
$GPGSV,3,3,09,05,08,159,*40
$GPRMC,223526.586,A,3744.9347,N,12230.4269,W,001.1,290.1,100617,,,A*78
$GPGGA,223527.586,3744.9347,N,12230.4269,W,1,03,20.0,-16.3,M,,,,0000*3B
$GPGSA,A,2,12,02,24,,,,,,,,,,20.0,20.0,20.0*06
$GPRMC,223527.586,A,3744.9347,N,12230.4269,W,001.1,283.0,100617,,,A*7A
$GPGGA,223528.586,3744.9347,N,12230.4270,W,1,03,20.0,-15.5,M,,,,0000*39
$GPGSA,A,2,12,02,24,,,,,,,,,,20.0,20.0,20.0*06
$GPRMC,223528.586,A,3744.9347,N,12230.4270,W,000.9,278.5,100617,,,A*75
$GPGGA,223529.586,3744.9344,N,12230.4269,W,1,03,20.0,-15.3,M,,,,0000*35
$GPGSA,A,2,12,02,24,,,,,,,,,,20.0,20.0,20.0*06
$GPGSV,3,1,09,12,67,334,47,02,73,172,36,24,46,228,25,06,50,053,*7E
$GPGSV,3,2,09,19,28,059,,25,26,312,,17,10,067,,29,09,262,*7E
$GPGSV,3,3,09,05,08,159,*40
$GPRMC,223529.586,A,3744.9344,N,12230.4269,W,000.0,278.5,100617,,,A*76
$GPGGA,223530.586,3744.9344,N,12230.4269,W,1,00,20.0,-15.3,M,,,,0000*3E
$GPGSA,A,2,,,,,,,,,,,,,20.0,20.0,20.0*01
$GPRMC,223530.586,A,3744.9344,N,12230.4269,W,000.0,278.5,100617,,,A*7E
$GPGGA,223531.586,3744.9344,N,12230.4269,W,1,00,20.0,-15.3,M,,,,0000*3F
$GPGSA,A,2,,,,,,,,,,,,,20.0,20.0,20.0*01
$GPRMC,223531.586,A,3744.9344,N,12230.4269,W,000.0,278.5,100617,,,A*7F
$GPGGA,223532.586,3744.9344,N,12230.4270,W,1,03,20.0,-15.6,M,,,,0000*32
$GPGSA,A,2,12,02,24,,,,,,,,,,20.0,20.0,20.0*06
$GPGSV,3,1,09,12,67,334,48,02,73,172,37,24,46,228,29,06,50,053,*7C
$GPGSV,3,2,09,19,28,059,,25,26,312,,17,10,067,,29,09,262,*7E
$GPGSV,3,3,09,05,08,159,*40
$GPRMC,223532.586,A,3744.9344,N,12230.4270,W,000.0,278.5,100617,,,A*74
$GPGGA,223533.586,3744.9340,N,12230.4267,W,1,03,20.0,-15.6,M,,,,0000*31
$GPGSA,A,2,12,02,24,,,,,,,,,,20.0,20.0,20.0*06
$GPRMC,223533.586,A,3744.9340,N,12230.4267,W,000.0,278.5,100617,,,A*77
$GPGGA,223534.586,3744.9338,N,12230.4261,W,1,03,20.0,-15.5,M,,,,0000*3C
$GPGSA,A,2,12,02,24,,,,,,,,,,20.0,20.0,20.0*06
$GPRMC,223534.586,A,3744.9338,N,12230.4261,W,000.0,278.5,100617,,,A*79
$GPGGA,223535.586,3744.9336,N,12230.4260,W,1,03,20.0,-15.4,M,,,,0000*33
$GPGSA,A,2,12,02,24,,,,,,,,,,20.0,20.0,20.0*06
$GPGSV,3,1,09,12,67,334,47,02,73,172,38,24,46,228,32,06,50,053,*76
$GPGSV,3,2,09,19,28,059,,25,26,312,,17,10,067,,29,09,262,*7E
$GPGSV,3,3,09,05,08,159,*40
$GPRMC,223535.586,A,3744.9336,N,12230.4260,W,000.0,278.5,100617,,,A*77
$GPGGA,223536.586,3744.9337,N,12230.4257,W,1,03,20.0,-15.6,M,,,,0000*37
$GPGSA,A,2,12,02,24,,,,,,,,,,20.0,20.0,20.0*06
$GPRMC,223536.586,A,3744.9337,N,12230.4257,W,000.0,278.5,100617,,,A*71
$GPGGA,223537.586,3744.9338,N,12230.4259,W,1,03,20.0,-15.7,M,,,,0000*36
$GPGSA,A,2,12,02,24,,,,,,,,,,20.0,20.0,20.0*06
$GPRMC,223537.586,A,3744.9338,N,12230.4259,W,000.0,278.5,100617,,,A*71
$GPGGA,223538.586,3744.9339,N,12230.4262,W,1,03,20.0,-15.9,M,,,,0000*3E
$GPGSA,A,2,12,02,24,,,,,,,,,,20.0,20.0,20.0*06
$GPGSV,3,1,09,12,67,334,44,02,73,172,38,24,46,228,25,25,26,312,39*7F
$GPGSV,3,2,09,06,50,053,,19,28,059,,17,10,067,,29,09,262,*78
$GPGSV,3,3,09,05,08,159,*40
$GPRMC,223538.586,A,3744.9339,N,12230.4262,W,000.0,278.5,100617,,,A*77
$GPGGA,223539.586,3744.9339,N,12230.4262,W,1,03,20.0,-16.0,M,,,,0000*35
$GPGSA,A,2,12,02,24,,,,,,,,,,20.0,20.0,20.0*06
$GPRMC,223539.586,A,3744.9339,N,12230.4262,W,000.0,278.5,100617,,,A*76
$GPGGA,223540.586,3744.9338,N,12230.4265,W,1,03,20.0,-16.1,M,,,,0000*3C
$GPGSA,A,2,12,02,24,,,,,,,,,,20.0,20.0,20.0*06
$GPRMC,223540.586,A,3744.9338,N,12230.4265,W,000.0,278.5,100617,,,A*7E
$GPGGA,223541.586,3744.9338,N,12230.4263,W,1,03,20.0,-16.1,M,,,,0000*3B
$GPGSA,A,2,12,02,24,,,,,,,,,,20.0,20.0,20.0*06
$GPGSV,3,1,09,12,67,334,46,02,73,172,32,24,46,227,26,25,26,312,40*75
$GPGSV,3,2,09,06,50,053,,19,28,059,,17,10,067,,29,09,262,*78
$GPGSV,3,3,09,05,08,159,*40
$GPRMC,223541.586,A,3744.9338,N,12230.4263,W,000.0,278.5,100617,,,A*79
$GPGGA,223542.586,3744.9338,N,12230.4263,W,1,00,20.0,-16.1,M,,,,0000*3B
$GPGSA,A,2,,,,,,,,,,,,,20.0,20.0,20.0*01
$GPRMC,223542.586,A,3744.9338,N,12230.4263,W,000.0,278.5,100617,,,A*7A
$GPGGA,223543.586,3744.9340,N,12230.4267,W,1,03,20.0,-16.2,M,,,,0000*31
$GPGSA,A,2,12,02,24,,,,,,,,,,20.0,20.0,20.0*06
$GPRMC,223543.586,A,3744.9340,N,12230.4267,W,000.0,278.5,100617,,,A*70
$GPGGA,223544.586,3744.9340,N,12230.4269,W,1,03,20.0,-16.2,M,,,,0000*38
$GPGSA,A,2,12,02,24,,,,,,,,,,20.0,20.0,20.0*06
$GPGSV,3,1,09,12,67,334,37,02,73,172,42,24,46,227,29,25,26,312,33*7F
$GPGSV,3,2,09,06,50,053,,19,28,059,,17,10,067,,29,09,262,*78
$GPGSV,3,3,09,05,08,159,*40
$GPRMC,223544.586,A,3744.9340,N,12230.4269,W,000.0,278.5,100617,,,A*79
$GPGGA,223545.586,3744.9341,N,12230.4267,W,1,03,20.0,-16.2,M,,,,0000*36
$GPGSA,A,2,12,02,24,,,,,,,,,,20.0,20.0,20.0*06
$GPRMC,223545.586,A,3744.9341,N,12230.4267,W,000.0,278.5,100617,,,A*77
$GPGGA,223546.586,3744.9342,N,12230.4266,W,1,03,20.0,-16.2,M,,,,0000*37
$GPGSA,A,2,12,02,24,,,,,,,,,,20.0,20.0,20.0*06
$GPRMC,223546.586,A,3744.9342,N,12230.4266,W,001.1,014.7,100617,,,A*7C
$GPGGA,223547.586,3744.9338,N,12230.4283,W,1,03,20.0,-16.3,M,,,,0000*31
$GPGSA,A,2,12,02,24,,,,,,,,,,20.0,20.0,20.0*06
$GPGSV,3,1,09,12,67,334,40,02,73,172,45,24,46,227,40,25,26,312,27*72
$GPGSV,3,2,09,06,50,053,,19,28,059,,17,10,067,,29,10,262,*70
$GPGSV,3,3,09,05,08,159,*40
$GPRMC,223547.586,A,3744.9338,N,12230.4283,W,001.3,358.7,100617,,,A*72
$GPGGA,223548.586,3744.9344,N,12230.4283,W,1,03,20.0,-15.9,M,,,,0000*3C
$GPGSA,A,2,12,02,24,,,,,,,,,,20.0,20.0,20.0*06
$GPRMC,223548.586,A,3744.9344,N,12230.4283,W,001.6,359.1,100617,,,A*74
$GPGGA,223549.586,3744.9349,N,12230.4284,W,1,03,20.0,-15.6,M,,,,0000*38
$GPGSA,A,2,12,02,24,,,,,,,,,,20.0,20.0,20.0*06
$GPRMC,223549.586,A,3744.9349,N,12230.4284,W,001.7,355.8,100617,,,A*7B
$GPGGA,223550.586,3744.9352,N,12230.4283,W,1,03,20.0,-15.1,M,,,,0000*3A
$GPGSA,A,2,12,02,24,,,,,,,,,,20.0,20.0,20.0*06
$GPGSV,3,1,09,12,67,334,39,02,74,172,38,24,46,227,29,25,26,312,28*71
$GPGSV,3,2,09,06,50,053,,19,28,059,,17,10,067,,29,10,262,*70
$GPGSV,3,3,09,05,08,159,*40
$GPRMC,223550.586,A,3744.9352,N,12230.4283,W,001.7,356.0,100617,,,A*75
$GPGGA,223551.586,3744.9361,N,12230.4287,W,1,03,20.0,-14.8,M,,,,0000*37
$GPGSA,A,2,12,02,24,,,,,,,,,,20.0,20.0,20.0*06
$GPRMC,223551.586,A,3744.9361,N,12230.4287,W,001.9,352.2,100617,,,A*78
$GPGGA,223552.586,3744.9366,N,12230.4290,W,1,03,20.0,-14.7,M,,,,0000*3A
$GPGSA,A,2,12,02,24,,,,,,,,,,20.0,20.0,20.0*06
$GPRMC,223552.586,A,3744.9366,N,12230.4290,W,001.9,346.0,100617,,,A*7D
$GPGGA,223553.586,3744.9371,N,12230.4293,W,1,03,20.0,-14.9,M,,,,0000*30
$GPGSA,A,2,12,02,24,,,,,,,,,,20.0,20.0,20.0*06
$GPGSV,3,1,09,12,67,334,35,02,74,172,34,24,46,227,27,25,26,312,40*71
$GPGSV,3,2,09,06,50,053,,19,28,059,,17,10,067,,29,10,262,*70
$GPGSV,3,3,09,05,08,159,*40
$GPRMC,223553.586,A,3744.9371,N,12230.4293,W,001.9,344.5,100617,,,A*7E
$GPGGA,223554.586,3744.9379,N,12230.4295,W,1,03,20.0,-15.4,M,,,,0000*35
$GPGSA,A,2,12,02,24,,,,,,,,,,20.0,20.0,20.0*06
$GPRMC,223554.586,A,3744.9379,N,12230.4295,W,002.2,346.9,100617,,,A*71
$GPGGA,223555.586,3744.9386,N,12230.4296,W,1,03,20.0,-15.7,M,,,,0000*34
$GPGSA,A,2,12,02,24,,,,,,,,,,20.0,20.0,20.0*06
$GPRMC,223555.586,A,3744.9386,N,12230.4296,W,002.3,350.4,100617,,,A*78
$GPGGA,223556.586,3744.9394,N,12230.4296,W,1,03,20.0,-16.2,M,,,,0000*32
$GPGSA,A,2,12,02,24,,,,,,,,,,20.0,20.0,20.0*06
$GPGSV,3,1,09,12,67,334,34,02,74,172,38,24,46,227,38,25,26,312,33*76
$GPGSV,3,2,09,06,50,053,,19,28,059,,17,10,067,,29,10,262,*70
$GPGSV,3,3,09,05,08,159,*40
$GPRMC,223556.586,A,3744.9394,N,12230.4296,W,002.3,354.6,100617,,,A*7E
$GPGGA,223557.586,3744.9398,N,12230.4319,W,1,03,20.0,-16.4,M,,,,0000*3F
$GPGSA,A,2,12,02,24,,,,,,,,,,20.0,20.0,20.0*06
$GPRMC,223557.586,A,3744.9398,N,12230.4319,W,002.4,348.6,100617,,,A*7F
$GPGGA,223558.586,3744.9406,N,12230.4327,W,1,03,20.0,-16.3,M,,,,0000*3A
$GPGSA,A,2,12,02,24,,,,,,,,,,20.0,20.0,20.0*06
$GPRMC,223558.586,A,3744.9406,N,12230.4327,W,002.5,347.0,100617,,,A*75
$GPGGA,223559.586,3744.9409,N,12230.4326,W,1,03,20.0,-16.4,M,,,,0000*32
$GPGSA,A,2,12,02,24,,,,,,,,,,20.0,20.0,20.0*06
$GPGSV,3,1,09,12,67,334,39,02,74,172,41,24,46,227,40,25,26,312,28*70
$GPGSV,3,2,09,06,50,053,,19,28,059,,17,10,067,,29,10,262,*70
$GPGSV,3,3,09,05,08,159,*40
$GPRMC,223559.586,A,3744.9409,N,12230.4326,W,002.4,349.7,100617,,,A*72
$GPGGA,223600.586,3744.9418,N,12230.4331,W,1,03,20.0,-16.6,M,,,,0000*39
$GPGSA,A,2,12,02,24,,,,,,,,,,20.0,20.0,20.0*06
$GPRMC,223600.586,A,3744.9418,N,12230.4331,W,002.5,346.6,100617,,,A*74
$GPGGA,223601.586,3744.9429,N,12230.4336,W,1,03,20.0,-16.5,M,,,,0000*3E
$GPGSA,A,2,12,02,24,,,,,,,,,,20.0,20.0,20.0*06
$GPRMC,223601.586,A,3744.9429,N,12230.4336,W,002.6,345.7,100617,,,A*71
$GPGGA,223602.586,3744.9435,N,12230.4336,W,1,03,20.0,-16.6,M,,,,0000*33
$GPGSA,A,2,12,02,24,,,,,,,,,,20.0,20.0,20.0*06
$GPGSV,3,1,09,12,67,335,31,02,74,172,41,24,46,227,39,25,26,312,27*78
$GPGSV,3,2,09,06,50,053,,19,28,059,,17,10,067,,29,10,262,*70
$GPGSV,3,3,09,05,08,159,*40
$GPRMC,223602.586,A,3744.9435,N,12230.4336,W,002.4,345.6,100617,,,A*7C
$GPGGA,223603.586,3744.9443,N,12230.4337,W,1,03,20.0,-16.6,M,,,,0000*32
$GPGSA,A,2,12,02,24,,,,,,,,,,20.0,20.0,20.0*06
$GPRMC,223603.586,A,3744.9443,N,12230.4337,W,002.4,348.1,100617,,,A*77
$GPGGA,223604.586,3744.9445,N,12230.4333,W,1,03,20.0,-17.2,M,,,,0000*32
$GPGSA,A,2,12,02,24,,,,,,,,,,20.0,20.0,20.0*06
$GPRMC,223604.586,A,3744.9445,N,12230.4333,W,002.2,352.2,100617,,,A*7C
$GPGGA,223605.586,3744.9448,N,12230.4337,W,1,03,20.0,-17.1,M,,,,0000*39
$GPGSA,A,2,12,02,24,,,,,,,,,,20.0,20.0,20.0*06
$GPGSV,3,1,09,12,67,335,42,02,74,172,39,24,46,227,32,25,26,312,27*78
$GPGSV,3,2,09,06,50,053,,19,28,059,,17,10,067,,29,10,262,*70
$GPGSV,3,3,09,05,08,159,*40
$GPRMC,223605.586,A,3744.9448,N,12230.4337,W,001.8,342.6,100617,,,A*78
$GPGGA,223606.586,3744.9451,N,12230.4342,W,1,03,20.0,-17.4,M,,,,0000*35
$GPGSA,A,2,12,02,24,,,,,,,,,,20.0,20.0,20.0*06
$GPRMC,223606.586,A,3744.9451,N,12230.4342,W,001.6,334.0,100617,,,A*78
$GPGGA,223607.586,3744.9454,N,12230.4348,W,1,03,20.0,-17.1,M,,,,0000*3E
$GPGSA,A,2,12,02,24,,,,,,,,,,20.0,20.0,20.0*06
$GPRMC,223607.586,A,3744.9454,N,12230.4348,W,001.4,320.8,100617,,,A*79
$GPGGA,223608.586,3744.9455,N,12230.4355,W,1,03,20.0,-17.0,M,,,,0000*3D
$GPGSA,A,2,12,02,24,,,,,,,,,,20.0,20.0,20.0*06
$GPGSV,3,1,09,12,67,335,42,02,74,172,38,24,46,227,29,25,26,312,26*72
$GPGSV,3,2,09,17,10,067,41,06,50,053,,19,27,059,,29,10,262,*7A
$GPGSV,3,3,09,05,08,159,*40
$GPRMC,223608.586,A,3744.9455,N,12230.4355,W,001.4,307.5,100617,,,A*73
$GPGGA,223609.586,3744.9455,N,12230.4360,W,1,03,20.0,-17.3,M,,,,0000*39
$GPGSA,A,2,12,02,24,,,,,,,,,,20.0,20.0,20.0*06
$GPRMC,223609.586,A,3744.9455,N,12230.4360,W,001.4,296.9,100617,,,A*71
$GPGGA,223610.586,3744.9456,N,12230.4367,W,1,03,20.0,-17.5,M,,,,0000*33
$GPGSA,A,2,12,02,24,,,,,,,,,,20.0,20.0,20.0*06
$GPRMC,223610.586,A,3744.9456,N,12230.4367,W,001.5,291.3,100617,,,A*71
$GPGGA,223611.586,3744.9455,N,12230.4371,W,1,03,20.0,-17.3,M,,,,0000*30
$GPGSA,A,2,12,02,24,,,,,,,,,,20.0,20.0,20.0*06
$GPGSV,3,1,09,12,67,335,42,02,74,172,37,24,46,227,26,25,26,312,27*73
$GPGSV,3,2,09,17,10,067,29,06,50,053,,19,27,059,,29,10,262,*74
$GPGSV,3,3,09,05,08,159,*40
$GPRMC,223611.586,A,3744.9455,N,12230.4371,W,001.5,285.9,100617,,,A*7B
$GPGGA,223612.586,3744.9457,N,12230.4377,W,1,03,20.0,-17.6,M,,,,0000*32
$GPGSA,A,2,12,02,24,,,,,,,,,,20.0,20.0,20.0*06
$GPRMC,223612.586,A,3744.9457,N,12230.4377,W,001.5,286.8,100617,,,A*7E
$GPGGA,223613.586,3744.9457,N,12230.4380,W,1,03,20.0,-17.7,M,,,,0000*3A
$GPGSA,A,2,12,02,24,,,,,,,,,,20.0,20.0,20.0*06
$GPRMC,223613.586,A,3744.9457,N,12230.4380,W,001.4,286.7,100617,,,A*79
$GPGGA,223614.586,3744.9458,N,12230.4385,W,1,03,20.0,-17.6,M,,,,0000*36
$GPGSA,A,2,12,02,24,,,,,,,,,,20.0,20.0,20.0*06
$GPGSV,3,1,09,12,67,335,45,02,74,172,38,24,45,227,28,25,26,312,29*78
$GPGSV,3,2,09,19,27,059,38,17,10,067,40,06,50,053,,29,10,262,*70
$GPGSV,3,3,09,05,08,159,*40
$GPRMC,223614.586,A,3744.9458,N,12230.4385,W,001.4,282.0,100617,,,A*77
$GPGGA,223615.586,3744.9462,N,12230.4396,W,1,03,20.0,-17.9,M,,,,0000*33
$GPGSA,A,2,12,02,24,,,,,,,,,,20.0,20.0,20.0*06
$GPRMC,223615.586,A,3744.9462,N,12230.4396,W,001.5,281.8,100617,,,A*77
$GPGGA,223616.586,3744.9464,N,12230.4398,W,1,03,20.0,-17.9,M,,,,0000*38
$GPGSA,A,2,12,02,24,,,,,,,,,,20.0,20.0,20.0*06
$GPRMC,223616.586,A,3744.9464,N,12230.4398,W,001.4,289.2,100617,,,A*7F
$GPGGA,223617.586,3744.9465,N,12230.4397,W,1,03,20.0,-17.7,M,,,,0000*39
$GPGSA,A,2,12,02,24,,,,,,,,,,20.0,20.0,20.0*06
$GPGSV,3,1,09,12,67,335,40,02,74,172,37,24,45,227,25,25,26,312,24*72
$GPGSV,3,2,09,19,27,059,35,17,10,067,27,06,50,053,,29,10,262,*7C
$GPGSV,3,3,09,05,08,159,*40
$GPRMC,223617.586,A,3744.9465,N,12230.4397,W,001.1,294.0,100617,,,A*7B
$GPGGA,223618.586,3744.9470,N,12230.4388,W,1,03,20.0,-17.6,M,,,,0000*3D
$GPGSA,A,2,12,02,24,,,,,,,,,,20.0,20.0,20.0*06
$GPRMC,223618.586,A,3744.9470,N,12230.4388,W,001.0,324.9,100617,,,A*7C
$GPGGA,223619.586,3744.9474,N,12230.4387,W,1,03,20.0,-17.7,M,,,,0000*36
$GPGSA,A,2,12,02,24,,,,,,,,,,20.0,20.0,20.0*06
$GPRMC,223619.586,A,3744.9474,N,12230.4387,W,001.1,344.8,100617,,,A*70
$GPGGA,223620.586,3744.9477,N,12230.4387,W,1,03,20.0,-17.2,M,,,,0000*3A
$GPGSA,A,2,12,02,24,,,,,,,,,,20.0,20.0,20.0*06
$GPGSV,3,1,09,12,67,335,41,02,74,172,39,24,45,227,25,25,26,312,27*7E
$GPGSV,3,2,09,17,10,067,29,06,50,053,,19,27,059,,29,10,262,*74
$GPGSV,3,3,09,05,08,159,*40
$GPRMC,223620.586,A,3744.9477,N,12230.4387,W,001.0,348.1,100617,,,A*7D
$GPGGA,223621.586,3744.9481,N,12230.4383,W,1,03,20.0,-16.7,M,,,,0000*32
$GPGSA,A,2,12,02,24,,,,,,,,,,20.0,20.0,20.0*06
$GPRMC,223621.586,A,3744.9481,N,12230.4383,W,001.0,356.2,100617,,,A*7D
$GPGGA,223622.586,3744.9483,N,12230.4376,W,1,03,20.0,-16.5,M,,,,0000*3B
$GPGSA,A,2,12,02,24,,,,,,,,,,20.0,20.0,20.0*06
$GPRMC,223622.586,A,3744.9483,N,12230.4376,W,001.1,008.7,100617,,,A*7A
$GPGGA,223623.586,3744.9486,N,12230.4369,W,1,03,20.0,-16.2,M,,,,0000*36
$GPGSA,A,2,12,02,24,,,,,,,,,,20.0,20.0,20.0*06
$GPGSV,3,1,09,12,67,335,47,02,74,172,40,24,45,227,25,25,26,312,28*79
$GPGSV,3,2,09,17,10,067,40,06,50,053,,19,27,059,,29,10,262,*7B
$GPGSV,3,3,09,05,08,159,*40
$GPRMC,223623.586,A,3744.9486,N,12230.4369,W,001.3,024.0,100617,,,A*7B
$GPGGA,223624.586,3744.9492,N,12230.4367,W,1,03,20.0,-16.1,M,,,,0000*39
$GPGSA,A,2,12,02,24,,,,,,,,,,20.0,20.0,20.0*06
$GPRMC,223624.586,A,3744.9492,N,12230.4367,W,001.4,028.8,100617,,,A*74
$GPGGA,223625.586,3744.9492,N,12230.4373,W,1,03,20.0,-15.9,M,,,,0000*36
$GPGSA,A,2,12,02,24,,,,,,,,,,20.0,20.0,20.0*06
$GPRMC,223625.586,A,3744.9492,N,12230.4373,W,001.1,021.4,100617,,,A*70
$GPGGA,223626.586,3744.9495,N,12230.4377,W,1,03,20.0,-15.8,M,,,,0000*37
$GPGSA,A,2,12,02,24,,,,,,,,,,20.0,20.0,20.0*06
$GPGSV,3,1,09,12,67,335,42,02,74,172,38,24,45,227,24,25,26,312,25*7F
$GPGSV,3,2,09,06,50,053,41,17,10,067,32,19,27,059,,29,10,262,*7B
$GPGSV,3,3,09,05,08,159,*40
$GPRMC,223626.586,A,3744.9495,N,12230.4377,W,001.0,011.1,100617,,,A*77
$GPGGA,223627.586,3744.9498,N,12230.4372,W,1,03,20.0,-15.6,M,,,,0000*30
$GPGSA,A,2,12,02,24,,,,,,,,,,20.0,20.0,20.0*06
$GPRMC,223627.586,A,3744.9498,N,12230.4372,W,001.0,016.1,100617,,,A*79
$GPGGA,223628.586,3744.9502,N,12230.4370,W,1,03,20.0,-15.6,M,,,,0000*3F
$GPGSA,A,2,12,02,24,,,,,,,,,,20.0,20.0,20.0*06
$GPRMC,223628.586,A,3744.9502,N,12230.4370,W,001.1,014.7,100617,,,A*73
$GPGGA,223629.586,3744.9502,N,12230.4373,W,1,03,20.0,-15.6,M,,,,0000*3D
$GPGSA,A,2,12,02,24,,,,,,,,,,20.0,20.0,20.0*06
$GPGSV,3,1,09,12,67,335,45,02,74,172,34,24,45,227,26,25,26,312,28*7B
$GPGSV,3,2,09,06,50,053,32,17,10,067,46,19,27,059,38,29,10,262,*77
$GPGSV,3,3,09,05,08,159,*40
$GPRMC,223629.586,A,3744.9502,N,12230.4373,W,000.0,014.7,100617,,,A*71
$GPGGA,223630.586,3744.9498,N,12230.4383,W,1,03,20.0,-15.8,M,,,,0000*36
$GPGSA,A,2,12,02,24,,,,,,,,,,20.0,20.0,20.0*06
$GPRMC,223630.586,A,3744.9498,N,12230.4383,W,000.0,014.7,100617,,,A*74
$GPGGA,223631.586,3744.9496,N,12230.4389,W,1,03,20.0,-15.8,M,,,,0000*33
$GPGSA,A,2,12,02,24,,,,,,,,,,20.0,20.0,20.0*06
$GPRMC,223631.586,A,3744.9496,N,12230.4389,W,000.0,014.7,100617,,,A*71
$GPGGA,223632.586,3744.9496,N,12230.4389,W,1,03,20.0,-15.8,M,,,,0000*30
$GPGSA,A,2,12,02,24,,,,,,,,,,20.0,20.0,20.0*06
$GPGSV,3,1,09,12,68,335,41,02,74,172,34,24,45,227,25,25,26,312,25*7E
$GPGSV,3,2,09,06,50,053,41,17,10,067,40,29,10,262,00,19,27,059,29*75
$GPGSV,3,3,09,05,08,159,*40
$GPRMC,223632.586,A,3744.9496,N,12230.4389,W,000.0,014.7,100617,,,A*72
$GPGGA,223633.586,3744.9497,N,12230.4389,W,1,03,20.0,-15.9,M,,,,0000*31
$GPGSA,A,2,12,02,24,,,,,,,,,,20.0,20.0,20.0*06
$GPRMC,223633.586,A,3744.9497,N,12230.4389,W,000.8,329.1,100617,,,A*71
$GPGGA,223634.586,3744.9497,N,12230.4391,W,1,03,20.0,-16.1,M,,,,0000*34
$GPGSA,A,2,12,02,24,,,,,,,,,,20.0,20.0,20.0*06
$GPRMC,223634.586,A,3744.9497,N,12230.4391,W,000.9,311.4,100617,,,A*70
$GPGGA,223635.586,3744.9499,N,12230.4391,W,1,03,20.0,-16.2,M,,,,0000*38
$GPGSA,A,2,12,02,24,,,,,,,,,,20.0,20.0,20.0*06
$GPGSV,3,1,09,12,68,335,42,02,74,172,36,24,45,227,24,25,26,312,28*73
$GPGSV,3,2,09,06,50,053,40,17,10,067,41,19,27,059,33,29,10,262,*7E
$GPGSV,3,3,09,05,08,159,*40
$GPRMC,223635.586,A,3744.9499,N,12230.4391,W,000.9,318.5,100617,,,A*77
$GPGGA,223636.586,3744.9499,N,12230.4392,W,1,03,20.0,-16.2,M,,,,0000*38
$GPGSA,A,2,12,02,24,,,,,,,,,,20.0,20.0,20.0*06
$GPRMC,223636.586,A,3744.9499,N,12230.4392,W,000.9,311.5,100617,,,A*7E
$GPGGA,223637.586,3744.9500,N,12230.4395,W,1,03,20.0,-16.3,M,,,,0000*3E
$GPGSA,A,2,12,02,24,,,,,,,,,,20.0,20.0,20.0*06
$GPRMC,223637.586,A,3744.9500,N,12230.4395,W,000.9,308.6,100617,,,A*72
$GPGGA,223638.586,3744.9500,N,12230.4395,W,1,00,20.0,-16.3,M,,,,0000*32
$GPGSA,A,2,,,,,,,,,,,,,20.0,20.0,20.0*01
$GPGSV,3,1,09,12,68,335,42,02,74,172,33,24,45,227,24,25,26,312,30*7F
$GPGSV,3,2,09,06,50,053,38,17,10,068,39,29,10,262,28,19,27,059,31*79
$GPGSV,3,3,09,05,08,159,*40
$GPRMC,223638.586,A,3744.9500,N,12230.4395,W,000.9,308.6,100617,,,A*7D
$GPGGA,223639.586,3744.9500,N,12230.4395,W,1,00,20.0,-16.3,M,,,,0000*33
$GPGSA,A,2,,,,,,,,,,,,,20.0,20.0,20.0*01
$GPRMC,223639.586,A,3744.9500,N,12230.4395,W,000.9,308.6,100617,,,A*7C
$GPGGA,223640.586,3744.9499,N,12230.4408,W,1,03,20.0,-16.4,M,,,,0000*3B
$GPGSA,A,2,12,02,24,,,,,,,,,,20.0,20.0,20.0*06
$GPRMC,223640.586,A,3744.9499,N,12230.4408,W,001.1,284.8,100617,,,A*72
$GPGGA,223641.586,3744.9499,N,12230.4422,W,1,03,20.0,-16.5,M,,,,0000*33
$GPGSA,A,2,12,02,24,,,,,,,,,,20.0,20.0,20.0*06
$GPGSV,3,1,09,12,68,335,41,02,74,172,39,24,45,227,32,25,26,312,25*75
$GPGSV,3,2,09,06,50,053,40,17,10,068,41,29,10,262,28,19,27,059,33*7B
$GPGSV,3,3,09,05,08,159,*40
$GPRMC,223641.586,A,3744.9499,N,12230.4422,W,001.5,273.3,100617,,,A*7C
$GPGGA,223642.586,3744.9496,N,12230.4443,W,1,03,20.0,-16.5,M,,,,0000*38
$GPGSA,A,2,12,02,24,,,,,,,,,,20.0,20.0,20.0*06
$GPRMC,223642.586,A,3744.9496,N,12230.4443,W,001.8,265.9,100617,,,A*77
$GPGGA,223643.586,3744.9492,N,12230.4461,W,1,03,20.0,-16.4,M,,,,0000*3C
$GPGSA,A,2,12,02,24,,,,,,,,,,20.0,20.0,20.0*06
$GPRMC,223643.586,A,3744.9492,N,12230.4461,W,002.0,263.8,100617,,,A*7E
$GPGGA,223644.586,3744.9491,N,12230.4472,W,1,03,20.0,-16.4,M,,,,0000*3A
$GPGSA,A,2,12,02,24,,,,,,,,,,20.0,20.0,20.0*06
$GPGSV,3,1,09,12,68,335,41,02,74,172,38,24,45,227,29,25,26,312,29*72
$GPGSV,3,2,09,06,50,053,25,17,10,068,36,29,10,262,26,19,27,059,29*7D
$GPGSV,3,3,09,05,08,159,*40
$GPRMC,223644.586,A,3744.9491,N,12230.4472,W,002.0,264.5,100617,,,A*72
$GPGGA,223645.586,3744.9487,N,12230.4499,W,1,03,20.0,-16.5,M,,,,0000*38
$GPGSA,A,2,12,02,24,,,,,,,,,,20.0,20.0,20.0*06
$GPRMC,223645.586,A,3744.9487,N,12230.4499,W,002.1,268.3,100617,,,A*7A
$GPGGA,223646.586,3744.9486,N,12230.4518,W,1,03,20.0,-16.8,M,,,,0000*3F
$GPGSA,A,2,12,02,24,,,,,,,,,,20.0,20.0,20.0*06
$GPRMC,223646.586,A,3744.9486,N,12230.4518,W,002.3,268.5,100617,,,A*74
$GPGGA,223647.586,3744.9487,N,12230.4539,W,1,03,20.0,-16.7,M,,,,0000*33
$GPGSA,A,2,12,02,24,,,,,,,,,,20.0,20.0,20.0*06
$GPGSV,3,1,09,12,68,335,43,02,74,172,38,24,45,227,31,25,27,312,28*79
$GPGSV,3,2,09,06,50,053,24,17,10,068,37,29,10,262,25,19,27,059,33*75
$GPGSV,3,3,09,05,08,159,*40
$GPRMC,223647.586,A,3744.9487,N,12230.4539,W,002.5,269.8,100617,,,A*7D
$GPGGA,223648.586,3744.9486,N,12230.4553,W,1,03,20.0,-16.6,M,,,,0000*30
$GPGSA,A,2,12,02,24,,,,,,,,,,20.0,20.0,20.0*06
$GPRMC,223648.586,A,3744.9486,N,12230.4553,W,002.4,271.4,100617,,,A*7B
$GPGGA,223649.586,3744.9486,N,12230.4569,W,1,03,20.0,-16.8,M,,,,0000*36
$GPGSA,A,2,12,02,24,,,,,,,,,,20.0,20.0,20.0*06
$GPRMC,223649.586,A,3744.9486,N,12230.4569,W,002.6,270.4,100617,,,A*70
$GPGGA,223650.586,3744.9483,N,12230.4585,W,1,03,20.0,-17.0,M,,,,0000*30
$GPGSA,A,2,12,02,24,,,,,,,,,,20.0,20.0,20.0*06
$GPGSV,3,1,09,12,68,335,42,02,74,172,38,24,45,227,30,25,27,312,25*74
$GPGSV,3,2,09,06,50,053,42,17,10,068,27,29,10,262,26,19,27,059,33*77
$GPGSV,3,3,09,05,08,159,*40
$GPRMC,223650.586,A,3744.9483,N,12230.4585,W,002.7,269.0,100617,,,A*72
$GPGGA,223651.586,3744.9483,N,12230.4585,W,1,00,20.0,-16.9,M,,,,0000*3A
$GPGSA,A,2,,,,,,,,,,,,,20.0,20.0,20.0*01
$GPRMC,223651.586,A,3744.9483,N,12230.4585,W,002.7,269.0,100617,,,A*73
$GPGGA,223652.586,3744.9480,N,12230.4616,W,1,03,20.0,-16.9,M,,,,0000*30
$GPGSA,A,2,12,02,24,,,,,,,,,,20.0,20.0,20.0*06
$GPRMC,223652.586,A,3744.9480,N,12230.4616,W,003.0,265.7,100617,,,A*77
$GPGGA,223653.586,3744.9476,N,12230.4629,W,1,03,20.0,-17.1,M,,,,0000*3D
$GPGSA,A,2,12,02,24,,,,,,,,,,20.0,20.0,20.0*06
$GPGSV,3,1,09,12,68,335,44,02,74,172,37,24,45,227,26,25,27,312,27*78
$GPGSV,3,2,09,06,50,053,36,17,10,068,35,29,10,262,28,19,27,059,34*7E
$GPGSV,3,3,09,05,08,159,*40
$GPRMC,223653.586,A,3744.9476,N,12230.4629,W,002.9,264.7,100617,,,A*7A
$GPGGA,223654.586,3744.9473,N,12230.4640,W,1,03,20.0,-17.1,M,,,,0000*30
$GPGSA,A,2,12,02,24,,,,,,,,,,20.0,20.0,20.0*06
$GPRMC,223654.586,A,3744.9473,N,12230.4640,W,002.9,263.7,100617,,,A*70
$GPGGA,223655.586,3744.9471,N,12230.4658,W,1,03,20.0,-17.0,M,,,,0000*3B
$GPGSA,A,2,12,02,24,,,,,,,,,,20.0,20.0,20.0*06
$GPRMC,223655.586,A,3744.9471,N,12230.4658,W,003.0,265.8,100617,,,A*7B
$GPGGA,223656.586,3744.9469,N,12230.4670,W,1,03,20.0,-16.9,M,,,,0000*33
$GPGSA,A,2,12,02,24,,,,,,,,,,20.0,20.0,20.0*06
$GPGSV,3,1,09,12,68,335,42,02,74,171,38,24,45,227,32,25,27,312,25*75
$GPGSV,3,2,09,06,50,053,39,17,10,068,33,29,10,262,27,19,27,059,32*7E
$GPGSV,3,3,09,05,08,159,*40
$GPRMC,223656.586,A,3744.9469,N,12230.4670,W,002.8,265.8,100617,,,A*72
$GPGGA,223657.586,3744.9457,N,12230.4707,W,1,03,20.0,-16.5,M,,,,0000*32
$GPGSA,A,2,12,02,24,,,,,,,,,,20.0,20.0,20.0*06
$GPRMC,223657.586,A,3744.9457,N,12230.4707,W,003.0,265.3,100617,,,A*7D
$GPGGA,223658.586,3744.9456,N,12230.4732,W,1,03,20.0,-16.9,M,,,,0000*36
$GPGSA,A,2,12,02,24,,,,,,,,,,20.0,20.0,20.0*06
$GPRMC,223658.586,A,3744.9456,N,12230.4732,W,003.1,269.8,100617,,,A*73
$GPGGA,223659.586,3744.9457,N,12230.4749,W,1,03,20.0,-16.8,M,,,,0000*3B
$GPGSA,A,2,12,02,24,,,,,,,,,,20.0,20.0,20.0*06
$GPGSV,3,1,09,12,68,335,42,02,74,171,38,24,45,227,32,25,27,312,24*74
$GPGSV,3,2,09,06,49,053,39,17,10,068,32,29,10,262,24,19,27,059,38*7E
$GPGSV,3,3,09,05,08,159,38*4B
$GPRMC,223659.586,A,3744.9457,N,12230.4749,W,003.1,271.4,100617,,,A*7A
$GPGGA,223700.586,3744.9452,N,12230.4788,W,1,03,20.0,-16.6,M,,,,0000*30
$GPGSA,A,2,12,02,24,,,,,,,,,,20.0,20.0,20.0*06
$GPRMC,223700.586,A,3744.9452,N,12230.4788,W,003.2,275.0,100617,,,A*7C
$GPGGA,223701.586,3744.9451,N,12230.4819,W,1,03,20.0,-16.3,M,,,,0000*30
$GPGSA,A,2,12,02,24,,,,,,,,,,20.0,20.0,20.0*06
$GPRMC,223701.586,A,3744.9451,N,12230.4819,W,003.2,281.6,100617,,,A*74
$GPGGA,223702.586,3744.9447,N,12230.4842,W,1,03,20.0,-16.8,M,,,,0000*31
$GPGSA,A,2,12,02,24,,,,,,,,,,20.0,20.0,20.0*06
$GPGSV,3,1,09,12,68,335,39,02,74,171,39,24,45,227,38,25,27,312,24*73
$GPGSV,3,2,09,06,49,053,42,17,10,068,40,29,10,262,26,19,27,059,41*7B
$GPGSV,3,3,09,05,08,159,42*46
$GPRMC,223702.586,A,3744.9447,N,12230.4842,W,003.0,287.0,100617,,,A*7C
$GPGGA,223703.586,3744.9447,N,12230.4867,W,1,03,20.0,-16.6,M,,,,0000*39
$GPGSA,A,2,12,02,24,,,,,,,,,,20.0,20.0,20.0*06
$GPRMC,223703.586,A,3744.9447,N,12230.4867,W,002.9,295.2,100617,,,A*73
$GPGGA,223704.586,3744.9454,N,12230.4875,W,1,03,20.0,-16.7,M,,,,0000*3E
$GPGSA,A,2,12,02,24,,,,,,,,,,20.0,20.0,20.0*06
$GPRMC,223704.586,A,3744.9454,N,12230.4875,W,002.9,306.5,100617,,,A*79
$GPGGA,223705.586,3744.9460,N,12230.4885,W,1,03,20.0,-16.5,M,,,,0000*35
$GPGSA,A,2,12,02,24,,,,,,,,,,20.0,20.0,20.0*06
$GPGSV,3,1,09,12,68,335,35,02,74,171,39,24,45,227,40,25,27,312,25*71
$GPGSV,3,2,09,06,49,053,40,17,10,068,37,29,10,262,30,19,27,059,38*70
$GPGSV,3,3,09,05,08,159,40*44
$GPRMC,223705.586,A,3744.9460,N,12230.4885,W,002.9,313.8,100617,,,A*79
$GPGGA,223706.586,3744.9468,N,12230.4904,W,1,03,20.0,-16.6,M,,,,0000*35
$GPGSA,A,2,12,02,24,,,,,,,,,,20.0,20.0,20.0*06
$GPRMC,223706.586,A,3744.9468,N,12230.4904,W,003.1,319.7,100617,,,A*76
$GPGGA,223707.586,3744.9476,N,12230.4919,W,1,03,20.0,-16.6,M,,,,0000*37
$GPGSA,A,2,12,02,24,,,,,,,,,,20.0,20.0,20.0*06
$GPRMC,223707.586,A,3744.9476,N,12230.4919,W,003.2,324.3,100617,,,A*7D
$GPGGA,223708.586,3744.9485,N,12230.4925,W,1,03,20.0,-16.7,M,,,,0000*3A
$GPGSA,A,2,12,02,24,,,,,,,,,,20.0,20.0,20.0*06
$GPGSV,3,1,09,12,68,335,37,02,74,171,41,24,45,227,39,25,27,312,24*73
$GPGSV,3,2,09,06,49,053,38,17,10,068,29,29,10,262,34,19,27,059,32*7E
$GPGSV,3,3,09,05,08,159,38*4B
$GPRMC,223708.586,A,3744.9485,N,12230.4925,W,003.1,329.9,100617,,,A*75
$GPGGA,223709.586,3744.9490,N,12230.4929,W,1,03,20.0,-16.7,M,,,,0000*33
$GPGSA,A,2,12,02,24,,,,,,,,,,20.0,20.0,20.0*06
$GPRMC,223709.586,A,3744.9490,N,12230.4929,W,003.0,334.5,100617,,,A*7D
$GPGGA,223710.586,3744.9492,N,12230.4935,W,1,03,20.0,-16.9,M,,,,0000*3A
$GPGSA,A,2,12,02,24,,,,,,,,,,20.0,20.0,20.0*06
$GPRMC,223710.586,A,3744.9492,N,12230.4935,W,003.0,340.2,100617,,,A*7E
$GPGGA,223711.586,3744.9496,N,12230.4934,W,1,03,20.0,-16.9,M,,,,0000*3E
$GPGSA,A,2,12,02,24,,,,,,,,,,20.0,20.0,20.0*06
$GPGSV,3,1,09,12,68,335,36,02,74,171,41,24,45,227,33,25,27,312,24*78
$GPGSV,3,2,09,06,49,053,37,17,10,068,25,29,10,262,34,19,27,059,28*76
$GPGSV,3,3,09,05,08,159,40*44
$GPRMC,223711.586,A,3744.9496,N,12230.4934,W,002.9,342.2,100617,,,A*70
$GPGGA,223712.586,3744.9505,N,12230.4936,W,1,03,20.0,-16.9,M,,,,0000*34
$GPGSA,A,2,12,02,24,,,,,,,,,,20.0,20.0,20.0*06
$GPRMC,223712.586,A,3744.9505,N,12230.4936,W,002.9,345.3,100617,,,A*7C
$GPGGA,223713.586,3744.9514,N,12230.4944,W,1,03,20.0,-16.8,M,,,,0000*31
$GPGSA,A,2,12,02,24,,,,,,,,,,20.0,20.0,20.0*06
$GPRMC,223713.586,A,3744.9514,N,12230.4944,W,002.9,346.8,100617,,,A*70
$GPGGA,223714.586,3744.9523,N,12230.4947,W,1,03,20.0,-16.5,M,,,,0000*3C
$GPGSA,A,2,12,02,24,,,,,,,,,,20.0,20.0,20.0*06
$GPGSV,3,1,09,12,68,335,37,02,74,171,40,24,45,227,41,25,27,312,24*7D
$GPGSV,3,2,09,06,49,053,37,17,10,068,25,29,10,262,24,19,27,059,24*7B
$GPGSV,3,3,09,05,08,159,41*45
$GPRMC,223714.586,A,3744.9523,N,12230.4947,W,002.9,347.4,100617,,,A*7D
$GPGGA,223715.586,3744.9534,N,12230.4947,W,1,03,20.0,-16.6,M,,,,0000*38
$GPGSA,A,2,12,02,24,,,,,,,,,,20.0,20.0,20.0*06
$GPRMC,223715.586,A,3744.9534,N,12230.4947,W,003.0,349.4,100617,,,A*7C
$GPGGA,223716.586,3744.9539,N,12230.4944,W,1,03,20.0,-16.7,M,,,,0000*34
$GPGSA,A,2,12,02,24,,,,,,,,,,20.0,20.0,20.0*06
$GPRMC,223716.586,A,3744.9539,N,12230.4944,W,002.9,352.2,100617,,,A*75
$GPGGA,223717.586,3744.9547,N,12230.4949,W,1,03,20.0,-16.5,M,,,,0000*33
$GPGSA,A,2,12,02,24,,,,,,,,,,20.0,20.0,20.0*06
$GPGSV,3,1,09,12,68,335,34,02,74,171,41,24,45,226,39,25,27,312,27*72
$GPGSV,3,2,09,06,49,053,38,17,10,068,26,29,10,262,27,19,27,059,28*78
$GPGSV,3,3,09,05,08,159,40*44
$GPRMC,223717.586,A,3744.9547,N,12230.4949,W,002.8,350.1,100617,,,A*70
$GPGGA,223718.586,3744.9555,N,12230.4951,W,1,03,20.0,-16.6,M,,,,0000*35
$GPGSA,A,2,12,02,24,,,,,,,,,,20.0,20.0,20.0*06
$GPRMC,223718.586,A,3744.9555,N,12230.4951,W,002.9,350.6,100617,,,A*73
$GPGGA,223719.586,3744.9563,N,12230.4954,W,1,03,20.0,-17.0,M,,,,0000*33
$GPGSA,A,2,12,02,24,,,,,,,,,,20.0,20.0,20.0*06
$GPRMC,223719.586,A,3744.9563,N,12230.4954,W,002.9,351.7,100617,,,A*72
$GPGGA,223720.586,3744.9573,N,12230.4955,W,1,03,20.0,-17.1,M,,,,0000*38
$GPGSA,A,2,12,02,24,,,,,,,,,,20.0,20.0,20.0*06
$GPGSV,3,1,09,12,68,335,38,02,74,171,40,24,45,226,38,25,27,312,26*7F
$GPGSV,3,2,09,06,49,053,39,17,10,068,34,29,10,262,29,19,27,059,32*7F
$GPGSV,3,3,09,05,08,159,27*45
$GPRMC,223720.586,A,3744.9573,N,12230.4955,W,002.9,352.6,100617,,,A*7A
$GPGGA,223721.586,3744.9583,N,12230.4959,W,1,03,20.0,-16.9,M,,,,0000*33
$GPGSA,A,2,12,02,24,,,,,,,,,,20.0,20.0,20.0*06
$GPRMC,223721.586,A,3744.9583,N,12230.4959,W,002.9,350.2,100617,,,A*7E
$GPGGA,223722.586,3744.9590,N,12230.4962,W,1,03,20.0,-17.0,M,,,,0000*32
$GPGSA,A,2,12,02,24,,,,,,,,,,20.0,20.0,20.0*06
$GPRMC,223722.586,A,3744.9590,N,12230.4962,W,002.8,349.8,100617,,,A*74
$GPGGA,223723.586,3744.9600,N,12230.4965,W,1,03,20.0,-16.9,M,,,,0000*36
$GPGSA,A,2,12,02,24,,,,,,,,,,20.0,20.0,20.0*06
$GPGSV,3,1,09,12,68,335,36,02,74,171,40,24,45,226,39,25,27,312,25*73
$GPGSV,3,2,09,06,49,053,38,17,10,068,37,29,10,262,33,19,27,059,33*77
$GPGSV,3,3,09,05,08,159,32*41
$GPRMC,223723.586,A,3744.9600,N,12230.4965,W,002.8,349.6,100617,,,A*76
$GPGGA,223724.586,3744.9608,N,12230.4964,W,1,03,20.0,-17.3,M,,,,0000*33
$GPGSA,A,2,12,02,24,,,,,,,,,,20.0,20.0,20.0*06
$GPRMC,223724.586,A,3744.9608,N,12230.4964,W,002.9,351.8,100617,,,A*7E
$GPGGA,223725.586,3744.9618,N,12230.4966,W,1,03,20.0,-17.0,M,,,,0000*32
$GPGSA,A,2,12,02,24,,,,,,,,,,20.0,20.0,20.0*06
$GPRMC,223725.586,A,3744.9618,N,12230.4966,W,003.0,349.4,100617,,,A*71
$GPGGA,223726.586,3744.9626,N,12230.4969,W,1,03,20.0,-17.1,M,,,,0000*32
$GPGSA,A,2,12,02,24,,,,,,,,,,20.0,20.0,20.0*06
$GPGSV,3,1,09,12,68,335,37,02,74,171,40,24,45,226,39,25,27,312,29*7E
$GPGSV,3,2,09,06,49,053,38,17,10,068,40,29,10,262,25,19,27,059,32*71
$GPGSV,3,3,09,05,08,159,32*41
$GPRMC,223726.586,A,3744.9626,N,12230.4969,W,002.9,348.9,100617,,,A*74
$GPGGA,223727.586,3744.9633,N,12230.4970,W,1,03,20.0,-17.5,M,,,,0000*3B
$GPGSA,A,2,12,02,24,,,,,,,,,,20.0,20.0,20.0*06
$GPRMC,223727.586,A,3744.9633,N,12230.4970,W,002.9,348.3,100617,,,A*73
$GPGGA,223728.586,3744.9639,N,12230.4968,W,1,03,20.0,-17.3,M,,,,0000*31
$GPGSA,A,2,12,02,24,,,,,,,,,,20.0,20.0,20.0*06
$GPRMC,223728.586,A,3744.9639,N,12230.4968,W,002.8,349.7,100617,,,A*7B
$GPGGA,223729.586,3744.9646,N,12230.4968,W,1,03,20.0,-17.2,M,,,,0000*39
$GPGSA,A,2,12,02,24,,,,,,,,,,20.0,20.0,20.0*06
$GPGSV,3,1,09,12,68,335,36,02,74,171,40,24,45,226,40,25,27,312,27*7F
$GPGSV,3,2,09,06,49,053,34,17,10,068,25,29,10,262,25,19,27,059,25*78
$GPGSV,3,3,09,05,09,159,34*46
$GPRMC,223729.586,A,3744.9646,N,12230.4968,W,002.8,352.3,100617,,,A*7C
$GPGGA,223730.586,3744.9656,N,12230.4970,W,1,03,20.0,-17.5,M,,,,0000*3E
$GPGSA,A,2,12,02,24,,,,,,,,,,20.0,20.0,20.0*06
$GPRMC,223730.586,A,3744.9656,N,12230.4970,W,002.8,350.3,100617,,,A*7E
$GPGGA,223731.586,3744.9660,N,12230.4967,W,1,03,20.0,-17.5,M,,,,0000*3C
$GPGSA,A,2,12,02,24,,,,,,,,,,20.0,20.0,20.0*06
$GPRMC,223731.586,A,3744.9660,N,12230.4967,W,002.7,351.4,100617,,,A*75
$GPGGA,223732.586,3744.9666,N,12230.4968,W,1,03,20.0,-17.4,M,,,,0000*37
$GPGSA,A,2,12,02,24,,,,,,,,,,20.0,20.0,20.0*06
$GPGSV,3,1,09,12,68,335,35,02,74,171,40,24,45,226,34,25,27,312,25*7D
$GPGSV,3,2,09,06,49,053,38,17,10,068,33,29,10,262,34,19,27,059,34*73
$GPGSV,3,3,09,05,09,159,32*40
