$GPGGA,161300.559,3911.5405,N,10716.7844,W,1,03,20.0,2224.7,M,,,,0000*11
$GPGSA,A,2,17,06,19,,,,,,,,,,20.0,20.0,20.0*09
$GPGSV,2,1,06,17,70,021,29,06,39,175,40,19,74,281,34,28,45,086,20*7E
$GPGSV,2,2,06,30,19,158,34,11,01,044,*7E
$GPRMC,161300.559,A,3911.5405,N,10716.7844,W,000.0,163.9,090817,,,A*7A
$GPGGA,161301.559,3911.5383,N,10716.7836,W,1,04,124.5,2223.5,M,,,,0000*2E
$GPGSA,A,2,17,06,19,28,,,,,,,,,338.4,124.5,314.7*3E
$GPRMC,161301.559,A,3911.5383,N,10716.7836,W,000.0,163.9,090817,,,A*77
$GPGGA,161302.559,3911.5385,N,10716.7842,W,1,04,124.8,2224.6,M,,,,0000*21
$GPGSA,A,2,17,06,19,28,,,,,,,,,339.3,124.8,315.5*36
$GPRMC,161302.559,A,3911.5385,N,10716.7842,W,000.0,163.9,090817,,,A*71
$GPGGA,161303.559,3911.5384,N,10716.7865,W,1,04,127.4,2225.4,M,,,,0000*28
$GPGSA,A,2,17,06,19,28,,,,,,,,,346.5,127.4,322.2*34
$GPGSV,2,1,06,17,70,021,26,06,39,175,40,19,74,281,34,28,45,086,19*7B
$GPGSV,2,2,06,30,19,158,34,11,01,044,*7E
$GPRMC,161303.559,A,3911.5384,N,10716.7865,W,000.8,107.2,090817,,,A*75
$GPGGA,161304.559,3911.5392,N,10716.7887,W,1,04,125.1,2226.2,M,,,,0000*26
$GPGSA,A,2,17,06,19,28,,,,,,,,,340.3,125.1,316.4*32
$GPRMC,161304.559,A,3911.5392,N,10716.7887,W,000.0,107.2,090817,,,A*71
$GPGGA,161305.559,3911.5396,N,10716.7890,W,1,03,20.0,2226.4,M,,,,0000*11
$GPGSA,A,2,17,06,19,,,,,,,,,,20.0,20.0,20.0*09
$GPRMC,161305.559,A,3911.5396,N,10716.7890,W,000.0,107.2,090817,,,A*72
$GPGGA,161306.559,3911.5396,N,10716.7890,W,1,03,20.0,2226.4,M,,,,0000*12
$GPGSA,A,2,17,06,19,,,,,,,,,,20.0,20.0,20.0*09
$GPGSV,2,1,06,17,70,021,24,06,39,175,41,19,74,281,34,28,45,086,22*70
$GPGSV,2,2,06,30,19,158,34,11,01,044,*7E
$GPRMC,161306.559,A,3911.5396,N,10716.7890,W,000.8,089.7,090817,,,A*7B
$GPGGA,161307.559,3911.5402,N,10716.7896,W,1,04,124.3,2226.6,M,,,,0000*2C
$GPGSA,A,2,17,06,19,28,,,,,,,,,338.4,124.3,314.7*38
$GPRMC,161307.559,A,3911.5402,N,10716.7896,W,000.0,089.7,090817,,,A*7E
$GPGGA,161308.559,3911.5410,N,10716.7901,W,1,03,20.0,2227.7,M,,,,0000*1E
$GPGSA,A,2,06,19,28,,,,,,,,,,20.0,20.0,20.0*05
$GPRMC,161308.559,A,3911.5410,N,10716.7901,W,000.0,089.7,090817,,,A*7D
$GPGGA,161309.559,3911.5410,N,10716.7901,W,1,00,20.0,2227.7,M,,,,0000*1C
$GPGSA,A,2,,,,,,,,,,,,,20.0,20.0,20.0*01
$GPGSV,2,1,06,17,70,021,20,06,39,175,39,19,74,281,34,28,45,086,23*7A
$GPGSV,2,2,06,30,19,158,34,11,01,044,*7E
$GPRMC,161309.559,A,3911.5410,N,10716.7901,W,000.0,089.7,090817,,,A*7C
$GPGGA,161310.559,3911.5410,N,10716.7901,W,1,00,20.0,2227.7,M,,,,0000*14
$GPGSA,A,2,,,,,,,,,,,,,20.0,20.0,20.0*01
$GPRMC,161310.559,A,3911.5410,N,10716.7901,W,000.0,089.7,090817,,,A*74
$GPGGA,161311.559,3911.5421,N,10716.7907,W,1,03,20.0,2228.4,M,,,,0000*1E
$GPGSA,A,2,17,06,19,,,,,,,,,,20.0,20.0,20.0*09
$GPRMC,161311.559,A,3911.5421,N,10716.7907,W,000.0,089.7,090817,,,A*71
$GPGGA,161312.559,3911.5427,N,10716.7905,W,1,04,127.8,2228.5,M,,,,0000*21
$GPGSA,A,2,17,06,19,28,,,,,,,,,348.0,127.8,323.7*37
$GPGSV,2,1,06,17,70,021,24,06,39,175,39,19,74,281,34,28,45,086,21*7C
$GPGSV,2,2,06,30,19,158,34,11,01,044,*7E
$GPRMC,161312.559,A,3911.5427,N,10716.7905,W,000.0,089.7,090817,,,A*76
$GPGGA,161313.559,3911.5431,N,10716.7909,W,1,04,127.7,2228.2,M,,,,0000*23
$GPGSA,A,2,17,06,19,28,,,,,,,,,347.7,127.7,323.4*33
$GPRMC,161313.559,A,3911.5431,N,10716.7909,W,000.0,089.7,090817,,,A*7C
$GPGGA,161314.559,3911.5431,N,10716.7911,W,1,04,124.7,2228.6,M,,,,0000*2A
$GPGSA,A,2,17,06,19,28,,,,,,,,,339.7,124.7,316.0*3B
$GPRMC,161314.559,A,3911.5431,N,10716.7911,W,000.0,089.7,090817,,,A*72
$GPGGA,161315.559,3911.5440,N,10716.7911,W,1,04,128.4,2230.0,M,,,,0000*2D
$GPGSA,A,2,17,06,19,28,,,,,,,,,349.9,128.4,325.4*39
$GPGSV,2,1,06,17,70,021,33,06,39,175,41,19,74,281,33,28,45,086,46*73
$GPGSV,2,2,06,30,19,158,32,11,00,044,*79
$GPRMC,161315.559,A,3911.5440,N,10716.7911,W,000.0,089.7,090817,,,A*75
$GPGGA,161316.559,3911.5432,N,10716.7866,W,1,04,127.8,2228.2,M,,,,0000*22
$GPGSA,A,2,17,06,19,28,,,,,,,,,348.2,127.8,323.9*3B
$GPRMC,161316.559,A,3911.5432,N,10716.7866,W,000.0,089.7,090817,,,A*72
$GPGGA,161317.559,3911.5424,N,10716.7866,W,1,04,129.3,2227.5,M,,,,0000*29
$GPGSA,A,2,17,06,19,28,,,,,,,,,352.4,129.3,327.8*36
$GPRMC,161317.559,A,3911.5424,N,10716.7866,W,001.7,123.8,090817,,,A*7C
$GPGGA,161318.559,3911.5423,N,10716.7864,W,1,03,20.0,2227.1,M,,,,0000*1B
$GPGSA,A,2,17,06,28,,,,,,,,,,20.0,20.0,20.0*0B
$GPGSV,2,1,07,17,70,021,32,06,39,175,28,19,74,282,24,28,45,086,38*70
$GPGSV,2,2,07,30,19,158,32,12,03,294,,11,00,044,*47
$GPRMC,161318.559,A,3911.5423,N,10716.7864,W,001.0,120.6,090817,,,A*7C
$GPGGA,161319.559,3911.5431,N,10716.7860,W,1,04,124.7,2226.5,M,,,,0000*2D
$GPGSA,A,2,17,06,19,28,,,,,,,,,339.9,124.7,316.2*37
$GPRMC,161319.559,A,3911.5431,N,10716.7860,W,000.0,120.6,090817,,,A*7B
$GPGGA,161320.559,3911.5427,N,10716.7870,W,1,04,125.6,2226.9,M,,,,0000*2D
$GPGSA,A,2,17,06,19,28,,,,,,,,,342.5,125.6,318.6*3D
$GPRMC,161320.559,A,3911.5427,N,10716.7870,W,000.0,120.6,090817,,,A*77
$GPGGA,161321.559,3911.5429,N,10716.7873,W,1,03,20.0,2226.0,M,,,,0000*1D
$GPGSA,A,2,17,06,28,,,,,,,,,,20.0,20.0,20.0*0B
$GPGSV,2,1,07,17,70,021,27,06,39,175,34,19,74,282,24,28,45,087,39*79
$GPGSV,2,2,07,30,19,158,34,12,03,294,,11,00,044,*41
$GPRMC,161321.559,A,3911.5429,N,10716.7873,W,000.0,120.6,090817,,,A*7B
$GPGGA,161322.559,3911.5433,N,10716.7883,W,1,04,126.7,2228.8,M,,,,0000*2B
$GPGSA,A,2,17,06,19,28,,,,,,,,,345.5,126.7,321.4*30
$GPRMC,161322.559,A,3911.5433,N,10716.7883,W,000.0,120.6,090817,,,A*7C
$GPGGA,161323.559,3911.5435,N,10716.7885,W,1,04,128.6,2229.9,M,,,,0000*25
$GPGSA,A,2,17,06,19,28,,,,,,,,,350.8,128.6,326.4*31
$GPRMC,161323.559,A,3911.5435,N,10716.7885,W,000.0,120.6,090817,,,A*7D
$GPGGA,161324.559,3911.5439,N,10716.7880,W,1,04,129.9,2230.1,M,,,,0000*25
$GPGSA,A,2,17,06,19,28,,,,,,,,,354.3,129.9,329.6*3D
$GPGSV,2,1,07,17,70,021,25,06,39,175,25,19,74,282,32,28,45,087,42*70
$GPGSV,2,2,07,30,19,158,34,12,03,294,,11,00,044,*41
$GPRMC,161324.559,A,3911.5439,N,10716.7880,W,000.0,120.6,090817,,,A*73
$GPGGA,161325.559,3911.5439,N,10716.7882,W,1,03,20.0,2229.5,M,,,,0000*1C
$GPGSA,A,2,06,19,28,,,,,,,,,,20.0,20.0,20.0*05
$GPRMC,161325.559,A,3911.5439,N,10716.7882,W,000.0,120.6,090817,,,A*70
$GPGGA,161326.559,3911.5440,N,10716.7883,W,1,03,20.0,2229.0,M,,,,0000*15
$GPGSA,A,2,06,19,28,,,,,,,,,,20.0,20.0,20.0*05
$GPRMC,161326.559,A,3911.5440,N,10716.7883,W,000.0,120.6,090817,,,A*7C
$GPGGA,161327.559,3911.5436,N,10716.7872,W,1,04,129.5,2228.9,M,,,,0000*29
$GPGSA,A,2,17,06,19,28,,,,,,,,,353.3,129.5,328.8*39
$GPGSV,2,1,07,17,70,021,28,06,40,175,35,19,74,282,30,28,45,087,41*73
$GPGSV,2,2,07,30,19,158,34,12,03,294,,11,00,044,*41
$GPRMC,161327.559,A,3911.5436,N,10716.7872,W,000.0,120.6,090817,,,A*72
$GPGGA,161328.559,3911.5433,N,10716.7853,W,1,04,132.7,2226.4,M,,,,0000*2B
$GPGSA,A,2,17,06,19,28,,,,,,,,,362.3,132.7,337.1*34
$GPRMC,161328.559,A,3911.5433,N,10716.7853,W,000.0,120.6,090817,,,A*7B
$GPGGA,161329.559,3911.5431,N,10716.7816,W,1,04,130.1,2223.4,M,,,,0000*28
$GPGSA,A,2,17,06,19,28,,,,,,,,,355.0,130.1,330.4*35
$GPRMC,161329.559,A,3911.5431,N,10716.7816,W,000.0,120.6,090817,,,A*79
$GPGGA,161330.559,3911.5425,N,10716.7814,W,1,04,128.9,2225.5,M,,,,0000*21
$GPGSA,A,2,17,06,19,28,,,,,,,,,351.8,128.9,327.4*3E
$GPGSV,2,1,07,17,70,021,28,06,40,175,37,19,74,282,34,28,45,087,37*74
$GPGSV,2,2,07,30,19,158,32,12,03,294,,11,00,044,*47
$GPRMC,161330.559,A,3911.5425,N,10716.7814,W,000.0,120.6,090817,,,A*76
$GPGGA,161331.559,3911.5421,N,10716.7822,W,1,04,131.6,2226.6,M,,,,0000*26
$GPGSA,A,2,17,06,19,28,,,,,,,,,359.3,131.6,334.3*3F
$GPRMC,161331.559,A,3911.5421,N,10716.7822,W,000.0,120.6,090817,,,A*76
$GPGGA,161332.559,3911.5414,N,10716.7815,W,1,04,132.8,2224.7,M,,,,0000*29
$GPGSA,A,2,17,06,19,28,,,,,,,,,362.7,132.8,337.6*38
$GPRMC,161332.559,A,3911.5414,N,10716.7815,W,000.0,120.6,090817,,,A*77
$GPGGA,161333.559,3911.5409,N,10716.7814,W,1,03,20.0,2225.1,M,,,,0000*1F
$GPGSA,A,2,17,06,28,,,,,,,,,,20.0,20.0,20.0*0B
$GPGSV,2,1,07,17,70,022,30,06,40,175,34,19,74,282,28,28,45,087,39*7E
$GPGSV,2,2,07,30,19,158,31,12,03,294,,11,00,044,*44
$GPRMC,161333.559,A,3911.5409,N,10716.7814,W,000.0,120.6,090817,,,A*7B
$GPGGA,161334.559,3911.5407,N,10716.7801,W,1,04,131.8,2225.2,M,,,,0000*2F
$GPGSA,A,2,17,06,19,28,,,,,,,,,359.9,131.8,334.9*31
$GPRMC,161334.559,A,3911.5407,N,10716.7801,W,000.0,120.6,090817,,,A*76
$GPGGA,161335.559,3911.5395,N,10716.7793,W,1,04,132.3,2225.8,M,,,,0000*24
$GPGSA,A,2,17,06,19,28,,,,,,,,,361.4,132.3,336.4*30
$GPRMC,161335.559,A,3911.5395,N,10716.7793,W,000.8,133.8,090817,,,A*7B
$GPGGA,161336.559,3911.5387,N,10716.7778,W,1,04,133.1,2226.0,M,,,,0000*29
$GPGSA,A,2,17,06,19,28,,,,,,,,,363.8,133.1,338.5*32
$GPGSV,2,1,07,17,70,022,29,06,40,175,39,19,74,282,25,28,45,087,37*78
$GPGSV,2,2,07,30,19,158,33,12,03,294,,11,00,044,*46
$GPRMC,161336.559,A,3911.5387,N,10716.7778,W,000.0,133.8,090817,,,A*76
$GPGGA,161337.559,3911.5382,N,10716.7762,W,1,04,128.8,2225.3,M,,,,0000*25
$GPGSA,A,2,17,06,19,28,,,,,,,,,352.1,128.8,327.6*37
$GPRMC,161337.559,A,3911.5382,N,10716.7762,W,000.0,133.8,090817,,,A*79
$GPGGA,161338.559,3911.5377,N,10716.7758,W,1,04,130.9,2224.7,M,,,,0000*24
$GPGSA,A,2,17,06,19,28,,,,,,,,,357.8,130.9,333.0*30
$GPRMC,161338.559,A,3911.5377,N,10716.7758,W,000.0,133.8,090817,,,A*75
$GPGGA,161339.559,3911.5382,N,10716.7762,W,1,04,130.3,2225.8,M,,,,0000*22
$GPGSA,A,2,17,06,19,28,,,,,,,,,356.3,130.3,331.6*34
$GPGSV,2,1,07,17,70,022,35,06,40,175,31,19,74,282,29,28,45,087,39*7F
$GPGSV,2,2,07,30,19,158,34,12,03,294,,11,00,044,*41
$GPRMC,161339.559,A,3911.5382,N,10716.7762,W,000.9,149.3,090817,,,A*78
$GPGGA,161340.559,3911.5382,N,10716.7757,W,1,03,20.0,2226.7,M,,,,0000*12
$GPGSA,A,2,17,19,28,,,,,,,,,,20.0,20.0,20.0*05
$GPRMC,161340.559,A,3911.5382,N,10716.7757,W,000.9,171.2,090817,,,A*7A
$GPGGA,161341.559,3911.5402,N,10716.7780,W,1,04,134.6,2229.0,M,,,,0000*2B
$GPGSA,A,2,17,06,19,28,,,,,,,,,368.0,134.6,342.5*3C
$GPRMC,161341.559,A,3911.5402,N,10716.7780,W,000.0,171.2,090817,,,A*77
$GPGGA,161342.559,3911.5402,N,10716.7800,W,1,04,132.2,2229.1,M,,,,0000*2C
$GPGSA,A,2,17,06,19,28,,,,,,,,,361.4,132.2,336.4*31
$GPGSV,2,1,07,17,70,022,34,06,40,175,25,19,74,282,33,28,45,087,39*70
$GPGSV,2,2,07,30,19,158,33,12,03,294,,11,00,044,*46
$GPRMC,161342.559,A,3911.5402,N,10716.7800,W,000.0,171.2,090817,,,A*73
$GPGGA,161343.559,3911.5407,N,10716.7806,W,1,04,131.9,2229.9,M,,,,0000*2E
$GPGSA,A,2,17,06,19,28,,,,,,,,,360.7,131.9,335.7*3B
$GPRMC,161343.559,A,3911.5407,N,10716.7806,W,000.0,171.2,090817,,,A*71
$GPGGA,161344.559,3911.5407,N,10716.7805,W,1,03,20.0,2229.3,M,,,,0000*1F
$GPGSA,A,2,17,19,28,,,,,,,,,,20.0,20.0,20.0*05
$GPRMC,161344.559,A,3911.5407,N,10716.7805,W,000.0,171.2,090817,,,A*75
$GPGGA,161345.559,3911.5410,N,10716.7776,W,1,04,132.5,2226.3,M,,,,0000*2C
$GPGSA,A,2,17,06,19,28,,,,,,,,,362.6,132.5,337.5*37
$GPGSV,2,1,08,17,70,022,40,06,40,175,39,19,74,282,39,28,45,087,31*73
$GPGSV,2,2,08,30,19,158,37,13,15,233,,12,03,294,,11,00,044,*79
$GPRMC,161345.559,A,3911.5410,N,10716.7776,W,001.7,087.1,090817,,,A*74
$GPGGA,161346.559,3911.5405,N,10716.7780,W,1,04,129.5,2227.4,M,,,,0000*2E
$GPGSA,A,2,17,06,19,28,,,,,,,,,354.5,129.5,329.9*38
$GPRMC,161346.559,A,3911.5405,N,10716.7780,W,001.2,196.5,090817,,,A*7A
$GPGGA,161347.559,3911.5401,N,10716.7785,W,1,03,20.0,2227.9,M,,,,0000*19
$GPGSA,A,2,17,06,28,,,,,,,,,,20.0,20.0,20.0*0B
$GPRMC,161347.559,A,3911.5401,N,10716.7785,W,001.5,178.6,090817,,,A*7E
$GPGGA,161348.559,3911.5405,N,10716.7819,W,1,05,4.0,2230.3,M,,,,0000*24
$GPGSA,A,3,17,06,19,28,30,,,,,,,,8.3,4.0,7.2*39
$GPGSV,2,1,08,17,70,022,40,06,40,175,40,19,75,283,33,28,45,087,41*70
$GPGSV,2,2,08,30,19,158,32,13,15,233,,12,03,294,,11,00,044,*7C
$GPRMC,161348.559,A,3911.5405,N,10716.7819,W,002.5,145.9,090817,,,A*7D
$GPGGA,161349.559,3911.5424,N,10716.7824,W,1,05,4.0,2232.4,M,,,,0000*2D
$GPGSA,A,3,17,06,19,28,30,,,,,,,,8.3,4.0,7.2*39
$GPRMC,161349.559,A,3911.5424,N,10716.7824,W,003.1,127.6,090817,,,A*7F
$GPGGA,161350.559,3911.5422,N,10716.7811,W,1,05,4.0,2232.9,M,,,,0000*28
$GPGSA,A,3,17,06,19,28,30,,,,,,,,8.2,4.0,7.2*38
$GPRMC,161350.559,A,3911.5422,N,10716.7811,W,002.5,108.4,090817,,,A*7D
$GPGGA,161351.559,3911.5422,N,10716.7805,W,1,05,4.0,2233.8,M,,,,0000*2C
$GPGSA,A,3,17,06,19,28,30,,,,,,,,8.2,4.0,7.2*38
$GPGSV,2,1,08,17,70,022,41,06,40,175,27,19,75,283,38,28,45,087,38*75
$GPGSV,2,2,08,30,19,158,31,13,15,233,,12,03,294,,11,00,044,*7F
$GPRMC,161351.559,A,3911.5422,N,10716.7805,W,001.7,109.1,090817,,,A*7C
$GPGGA,161352.559,3911.5422,N,10716.7809,W,1,05,4.0,2234.6,M,,,,0000*2A
$GPGSA,A,3,17,06,19,28,30,,,,,,,,8.2,4.0,7.2*38
$GPRMC,161352.559,A,3911.5422,N,10716.7809,W,001.2,123.1,090817,,,A*7E
$GPGGA,161353.559,3911.5417,N,10716.7805,W,1,05,4.0,2236.2,M,,,,0000*27
$GPGSA,A,3,17,06,19,28,30,,,,,,,,8.2,4.0,7.2*38
$GPRMC,161353.559,A,3911.5417,N,10716.7805,W,001.6,141.0,090817,,,A*74
$GPGGA,161354.559,3911.5415,N,10716.7798,W,1,05,4.0,2239.5,M,,,,0000*21
$GPGSA,A,3,17,06,19,28,30,,,,,,,,8.2,4.0,7.2*38
$GPGSV,2,1,08,17,70,022,40,06,40,175,25,19,75,283,29,28,45,087,45*7C
$GPGSV,2,2,08,30,19,158,34,13,15,233,,12,03,294,,11,00,044,*7A
$GPRMC,161354.559,A,3911.5415,N,10716.7798,W,001.5,123.7,090817,,,A*7A
$GPGGA,161355.559,3911.5412,N,10716.7793,W,1,05,4.0,2241.1,M,,,,0000*27
$GPGSA,A,3,17,06,19,28,30,,,,,,,,8.2,4.0,7.2*38
$GPRMC,161355.559,A,3911.5412,N,10716.7793,W,001.6,126.6,090817,,,A*70
$GPGGA,161356.559,3911.5410,N,10716.7789,W,1,05,4.0,2242.6,M,,,,0000*29
$GPGSA,A,3,17,06,19,28,30,,,,,,,,8.2,4.0,7.2*38
$GPRMC,161356.559,A,3911.5410,N,10716.7789,W,001.6,128.4,090817,,,A*76
$GPGGA,161357.559,3911.5407,N,10716.7785,W,1,05,4.0,2244.1,M,,,,0000*23
$GPGSA,A,3,17,06,19,28,30,,,,,,,,8.2,4.0,7.1*3B
$GPGSV,2,1,08,17,70,022,40,06,40,175,40,19,75,283,30,28,45,087,32*77
$GPGSV,2,2,08,30,19,158,27,13,15,233,,12,03,294,,11,00,044,*78
$GPRMC,161357.559,A,3911.5407,N,10716.7785,W,001.6,130.8,090817,,,A*78
$GPGGA,161358.559,3911.5405,N,10716.7781,W,1,05,4.0,2245.6,M,,,,0000*2C
$GPGSA,A,3,17,06,19,28,30,,,,,,,,8.2,4.0,7.1*3B
$GPRMC,161358.559,A,3911.5405,N,10716.7781,W,001.6,130.8,090817,,,A*71
$GPGGA,161359.559,3911.5404,N,10716.7779,W,1,04,132.4,2246.1,M,,,,0000*2E
$GPGSA,A,2,17,06,19,28,,,,,,,,,362.9,132.4,337.9*35
$GPRMC,161359.559,A,3911.5404,N,10716.7779,W,001.4,132.9,090817,,,A*77
$GPGGA,161400.559,3911.5400,N,10716.7777,W,1,05,4.0,2247.6,M,,,,0000*28
$GPGSA,A,3,17,06,19,28,30,,,,,,,,8.2,4.0,7.1*3B
$GPGSV,2,1,08,17,70,022,41,06,40,175,33,19,75,283,33,28,45,087,30*73
$GPGSV,2,2,08,30,19,158,29,13,15,232,,12,03,294,,11,00,044,*77
$GPRMC,161400.559,A,3911.5400,N,10716.7777,W,001.3,139.9,090817,,,A*7A
$GPGGA,161401.559,3911.5399,N,10716.7776,W,1,05,4.0,2248.9,M,,,,0000*2F
$GPGSA,A,3,17,06,19,28,30,,,,,,,,8.2,4.0,7.1*3B
$GPRMC,161401.559,A,3911.5399,N,10716.7776,W,001.1,140.0,090817,,,A*78
$GPGGA,161402.559,3911.5397,N,10716.7775,W,1,05,4.0,2250.4,M,,,,0000*25
$GPGSA,A,3,17,06,19,28,30,,,,,,,,8.2,4.0,7.1*3B
$GPRMC,161402.559,A,3911.5397,N,10716.7775,W,001.1,140.9,090817,,,A*7F
$GPGGA,161403.559,3911.5397,N,10716.7773,W,1,05,4.0,2251.7,M,,,,0000*20
$GPGSA,A,3,17,06,19,28,30,,,,,,,,8.2,4.0,7.1*3B
$GPGSV,2,1,08,17,70,022,44,06,40,175,38,19,75,283,35,28,45,087,29*73
$GPGSV,2,2,08,30,19,158,26,13,15,232,,12,03,294,,11,00,044,*78
$GPRMC,161403.559,A,3911.5397,N,10716.7773,W,001.0,138.3,090817,,,A*7C
$GPGGA,161404.559,3911.5394,N,10716.7769,W,1,05,4.0,2253.1,M,,,,0000*2B
$GPGSA,A,3,17,06,19,28,30,,,,,,,,8.1,4.0,7.1*38
$GPRMC,161404.559,A,3911.5394,N,10716.7769,W,001.1,138.5,090817,,,A*74
$GPGGA,161405.559,3911.5393,N,10716.7759,W,1,03,20.0,2253.9,M,,,,0000*16
$GPGSA,A,2,17,19,28,,,,,,,,,,20.0,20.0,20.0*05
$GPRMC,161405.559,A,3911.5393,N,10716.7759,W,001.3,127.8,090817,,,A*70
$GPGGA,161406.559,3911.5390,N,10716.7756,W,1,04,6.0,2255.5,M,,,,0000*20
$GPGSA,A,3,17,06,19,30,,,,,,,,,10.4,6.0,8.5*07
$GPGSV,2,1,08,17,70,022,33,06,40,175,27,19,75,283,38,28,45,087,26*7F
$GPGSV,2,2,08,30,18,158,26,13,15,232,,12,03,294,,11,00,044,*79
$GPRMC,161406.559,A,3911.5390,N,10716.7756,W,001.3,130.9,090817,,,A*78
$GPGGA,161407.559,3911.5390,N,10716.7750,W,1,05,4.0,2257.3,M,,,,0000*20
$GPGSA,A,3,17,06,19,28,30,,,,,,,,8.1,4.0,7.1*38
$GPRMC,161407.559,A,3911.5390,N,10716.7750,W,001.1,123.1,090817,,,A*77
$GPGGA,161408.559,3911.5393,N,10716.7748,W,1,05,4.0,2258.5,M,,,,0000*2C
$GPGSA,A,3,17,06,19,28,30,,,,,,,,8.1,4.0,7.1*38
$GPRMC,161408.559,A,3911.5393,N,10716.7748,W,000.9,107.0,090817,,,A*7C
$GPGGA,161409.559,3911.5390,N,10716.7750,W,1,04,135.5,2258.5,M,,,,0000*20
$GPGSA,A,2,17,06,19,28,,,,,,,,,372.1,135.5,346.5*30
$GPGSV,2,1,08,17,70,022,41,06,40,175,33,19,75,283,39,28,45,087,42*7C
$GPGSV,2,2,08,30,18,158,28,13,15,232,,12,03,294,,11,00,044,*77
$GPRMC,161409.559,A,3911.5390,N,10716.7750,W,001.0,122.1,090817,,,A*79
$GPGGA,161410.559,3911.5395,N,10716.7750,W,1,05,4.0,2259.8,M,,,,0000*26
$GPGSA,A,3,17,06,19,28,30,,,,,,,,8.1,4.0,7.1*38
$GPRMC,161410.559,A,3911.5395,N,10716.7750,W,001.0,118.6,090817,,,A*7A
$GPGGA,161411.559,3911.5393,N,10716.7745,W,1,05,4.0,2261.2,M,,,,0000*24
$GPGSA,A,3,17,06,19,28,30,,,,,,,,8.1,4.0,7.1*38
$GPRMC,161411.559,A,3911.5393,N,10716.7745,W,001.2,095.2,090817,,,A*7B
$GPGGA,161412.559,3911.5396,N,10716.7745,W,1,05,4.0,2262.8,M,,,,0000*2B
$GPGSA,A,3,17,06,19,28,30,,,,,,,,8.1,4.0,7.1*38
$GPGSV,2,1,08,17,70,022,43,06,40,175,42,19,75,283,42,28,45,087,40*76
$GPGSV,2,2,08,30,18,158,39,13,15,232,,12,03,294,,11,00,044,*77
$GPRMC,161412.559,A,3911.5396,N,10716.7745,W,001.6,083.5,090817,,,A*79
$GPGGA,161413.559,3911.5398,N,10716.7742,W,1,05,4.0,2264.6,M,,,,0000*2B
$GPGSA,A,3,17,06,19,28,30,,,,,,,,8.1,4.0,7.0*39
$GPRMC,161413.559,A,3911.5398,N,10716.7742,W,001.8,078.1,090817,,,A*7F
$GPGGA,161414.559,3911.5398,N,10716.7734,W,1,05,4.0,2265.9,M,,,,0000*23
$GPGSA,A,3,17,06,19,28,30,,,,,,,,8.1,4.0,7.0*39
$GPRMC,161414.559,A,3911.5398,N,10716.7734,W,001.8,069.9,090817,,,A*71
$GPGGA,161415.559,3911.5399,N,10716.7729,W,1,05,4.0,2267.3,M,,,,0000*27
$GPGSA,A,3,17,06,19,28,30,,,,,,,,8.1,4.0,7.0*39
$GPGSV,2,1,08,17,70,022,40,06,40,175,44,19,75,283,42,28,45,087,39*7D
$GPGSV,2,2,08,30,18,158,33,13,15,232,,12,03,294,,11,00,044,*7D
$GPRMC,161415.559,A,3911.5399,N,10716.7729,W,001.7,072.0,090817,,,A*71
$GPGGA,161416.559,3911.5398,N,10716.7721,W,1,05,4.0,2268.7,M,,,,0000*26
$GPGSA,A,3,17,06,19,28,30,,,,,,,,8.1,4.0,7.0*39
$GPRMC,161416.559,A,3911.5398,N,10716.7721,W,001.8,070.4,090817,,,A*72
$GPGGA,161417.559,3911.5398,N,10716.7717,W,1,05,4.0,2270.5,M,,,,0000*29
$GPGSA,A,3,17,06,19,28,30,,,,,,,,8.1,4.0,7.0*39
$GPRMC,161417.559,A,3911.5398,N,10716.7717,W,001.8,075.7,090817,,,A*70
$GPGGA,161418.559,3911.5395,N,10716.7711,W,1,05,4.0,2273.8,M,,,,0000*23
$GPGSA,A,3,17,06,19,28,30,,,,,,,,8.1,4.0,7.0*39
$GPGSV,2,1,08,17,70,022,41,06,40,175,41,19,75,283,40,28,45,087,40*75
$GPGSV,2,2,08,30,18,158,38,13,15,232,,12,03,294,,11,00,044,*76
$GPRMC,161418.559,A,3911.5395,N,10716.7711,W,001.8,078.4,090817,,,A*7A
$GPGGA,161419.559,3911.5394,N,10716.7713,W,1,05,4.0,2275.2,M,,,,0000*2D
$GPGSA,A,3,17,06,19,28,30,,,,,,,,8.0,4.0,7.0*38
$GPRMC,161419.559,A,3911.5394,N,10716.7713,W,001.7,072.8,090817,,,A*71
$GPGGA,161420.559,3911.5393,N,10716.7705,W,1,05,4.0,2277.8,M,,,,0000*2F
$GPGSA,A,3,17,06,19,28,30,,,,,,,,8.0,4.0,7.0*38
$GPRMC,161420.559,A,3911.5393,N,10716.7705,W,001.9,074.8,090817,,,A*73
$GPGGA,161421.559,3911.5394,N,10716.7695,W,1,05,3.9,2280.6,M,,,,0000*29
$GPGSA,A,3,17,06,19,28,30,,,,,,,,8.0,3.9,7.0*36
$GPGSV,2,1,08,17,70,022,42,06,40,175,42,19,75,283,41,28,44,087,41*74
$GPGSV,2,2,08,30,18,158,38,13,15,232,,12,03,294,,11,00,044,*76
$GPRMC,161421.559,A,3911.5394,N,10716.7695,W,001.9,073.9,090817,,,A*7B
$GPGGA,161422.559,3911.5392,N,10716.7688,W,1,05,3.9,2283.4,M,,,,0000*21
$GPGSA,A,3,17,06,19,28,30,,,,,,,,8.0,3.9,7.0*36
$GPRMC,161422.559,A,3911.5392,N,10716.7688,W,001.8,073.4,090817,,,A*7E
$GPGGA,161423.559,3911.5392,N,10716.7682,W,1,05,3.9,2285.4,M,,,,0000*2C
$GPGSA,A,3,17,06,19,28,30,,,,,,,,8.0,3.9,7.0*36
$GPRMC,161423.559,A,3911.5392,N,10716.7682,W,001.8,075.3,090817,,,A*74
$GPGGA,161424.559,3911.5394,N,10716.7676,W,1,05,3.9,2287.6,M,,,,0000*26
$GPGSA,A,3,17,06,19,28,30,,,,,,,,8.0,3.9,7.0*36
$GPGSV,2,1,08,17,70,022,45,06,40,175,40,19,75,283,36,28,44,087,32*75
$GPGSV,2,2,08,30,18,158,40,13,15,232,,12,03,294,,11,00,044,*79
$GPRMC,161424.559,A,3911.5394,N,10716.7676,W,001.7,068.7,090817,,,A*79
$GPGGA,161425.559,3911.5395,N,10716.7671,W,1,05,3.9,2289.6,M,,,,0000*2F
$GPGSA,A,3,17,06,19,28,30,,,,,,,,8.0,3.9,7.0*36
$GPRMC,161425.559,A,3911.5395,N,10716.7671,W,001.6,067.6,090817,,,A*71
$GPGGA,161426.559,3911.5392,N,10716.7651,W,1,05,3.9,2293.8,M,,,,0000*2C
$GPGSA,A,3,17,06,19,28,30,,,,,,,,8.0,3.9,7.0*36
$GPRMC,161426.559,A,3911.5392,N,10716.7651,W,001.9,076.2,090817,,,A*7C
$GPGGA,161427.559,3911.5396,N,10716.7645,W,1,04,5.9,2295.2,M,,,,0000*27
$GPGSA,A,3,17,06,19,30,,,,,,,,,10.3,5.9,8.4*0B
$GPGSV,2,1,08,17,70,022,44,06,40,175,39,19,75,283,39,28,44,087,27*71
$GPGSV,2,2,08,30,18,158,34,13,15,232,,12,03,294,,11,00,044,*7A
$GPRMC,161427.559,A,3911.5396,N,10716.7645,W,001.9,072.9,090817,,,A*73
$GPGGA,161428.559,3911.5396,N,10716.7626,W,1,05,3.9,2297.5,M,,,,0000*2F
$GPGSA,A,3,17,06,19,28,30,,,,,,,,8.0,3.9,7.0*36
$GPRMC,161428.559,A,3911.5396,N,10716.7626,W,001.9,081.5,090817,,,A*79
$GPGGA,161429.559,3911.5400,N,10716.7634,W,1,04,136.3,2297.4,M,,,,0000*28
$GPGSA,A,2,17,06,19,28,,,,,,,,,375.1,136.3,349.5*3D
$GPRMC,161429.559,A,3911.5400,N,10716.7634,W,001.3,072.5,090817,,,A*75
$GPGGA,161430.559,3911.5404,N,10716.7633,W,1,05,3.9,2299.1,M,,,,0000*24
$GPGSA,A,3,17,06,19,28,30,,,,,,,,8.0,3.9,6.9*3E
$GPGSV,2,1,08,17,70,022,44,06,40,175,41,19,75,283,40,28,44,087,43*72
$GPGSV,2,2,08,30,18,158,37,13,15,232,,12,03,294,,11,00,044,*79
$GPRMC,161430.559,A,3911.5404,N,10716.7633,W,001.5,064.0,090817,,,A*7A
$GPGGA,161431.559,3911.5405,N,10716.7631,W,1,05,3.9,2300.8,M,,,,0000*2E
$GPGSA,A,3,17,06,19,28,30,,,,,,,,8.0,3.9,6.9*3E
$GPRMC,161431.559,A,3911.5405,N,10716.7631,W,001.4,060.8,090817,,,A*75
$GPGGA,161432.559,3911.5409,N,10716.7629,W,1,04,138.8,2302.1,M,,,,0000*2A
$GPGSA,A,2,17,06,19,28,,,,,,,,,382.4,138.8,356.3*3D
$GPRMC,161432.559,A,3911.5409,N,10716.7629,W,001.4,058.1,090817,,,A*71
$GPGGA,161433.559,3911.5411,N,10716.7624,W,1,05,3.9,2303.5,M,,,,0000*23
$GPGSA,A,3,17,06,19,28,30,,,,,,,,8.0,3.9,6.9*3E
$GPGSV,2,1,08,17,70,022,46,06,40,175,33,19,75,283,40,28,44,087,39*78
$GPGSV,2,2,08,30,18,158,27,13,14,232,,12,03,294,,11,00,044,*79
$GPRMC,161433.559,A,3911.5411,N,10716.7624,W,001.3,050.3,090817,,,A*79
$GPGGA,161434.559,3911.5412,N,10716.7619,W,1,05,3.9,2304.9,M,,,,0000*22
$GPGSA,A,3,17,06,19,28,30,,,,,,,,7.9,3.9,6.9*38
$GPRMC,161434.559,A,3911.5412,N,10716.7619,W,001.3,045.2,090817,,,A*76
$GPGGA,161435.559,3911.5415,N,10716.7615,W,1,05,3.9,2306.3,M,,,,0000*20
$GPGSA,A,3,17,06,19,28,30,,,,,,,,7.9,3.9,6.9*38
$GPRMC,161435.559,A,3911.5415,N,10716.7615,W,001.3,043.1,090817,,,A*79
$GPGGA,161436.559,3911.5418,N,10716.7610,W,1,05,3.9,2307.5,M,,,,0000*2C
$GPGSA,A,3,17,06,19,28,30,,,,,,,,7.9,3.9,6.9*38
$GPGSV,2,1,08,17,70,022,46,06,40,175,33,19,75,284,34,28,44,087,41*73
$GPGSV,2,2,08,30,18,158,38,13,14,232,,12,03,294,,11,00,044,*77
$GPRMC,161436.559,A,3911.5418,N,10716.7610,W,001.5,040.7,090817,,,A*71
$GPGGA,161437.559,3911.5423,N,10716.7610,W,1,05,3.9,2308.9,M,,,,0000*26
$GPGSA,A,3,17,06,19,28,30,,,,,,,,7.9,3.9,6.9*38
$GPRMC,161437.559,A,3911.5423,N,10716.7610,W,001.4,037.1,090817,,,A*7F
$GPGGA,161438.559,3911.5424,N,10716.7610,W,1,05,3.9,2310.4,M,,,,0000*2A
$GPGSA,A,3,17,06,19,28,30,,,,,,,,7.9,3.9,6.9*38
$GPRMC,161438.559,A,3911.5424,N,10716.7610,W,001.4,044.3,090817,,,A*71
$GPGGA,161439.559,3911.5428,N,10716.7607,W,1,05,3.9,2311.8,M,,,,0000*2C
$GPGSA,A,3,17,06,19,28,30,,,,,,,,7.9,3.9,6.9*38
$GPGSV,2,1,08,17,70,022,45,06,40,175,37,19,75,284,41,28,44,087,42*75
$GPGSV,2,2,08,30,18,158,37,13,14,232,,12,03,294,,11,00,044,*78
$GPRMC,161439.559,A,3911.5428,N,10716.7607,W,001.4,036.1,090817,,,A*7D
$GPGGA,161440.559,3911.5432,N,10716.7603,W,1,05,3.9,2313.0,M,,,,0000*27
$GPGSA,A,3,17,06,19,28,30,,,,,,,,7.9,3.9,6.9*38
$GPRMC,161440.559,A,3911.5432,N,10716.7603,W,001.4,028.2,090817,,,A*70
$GPGGA,161441.559,3911.5435,N,10716.7600,W,1,05,3.9,2314.3,M,,,,0000*26
$GPGSA,A,3,17,06,19,28,30,,,,,,,,7.9,3.9,6.9*38
$GPRMC,161441.559,A,3911.5435,N,10716.7600,W,001.1,026.9,090817,,,A*75
$GPGGA,161442.559,3911.5438,N,10716.7600,W,1,04,12.8,2315.9,M,,,,0000*13
$GPGSA,A,3,17,19,28,30,,,,,,,,,26.2,12.8,22.9*01
$GPGSV,2,1,08,17,70,022,45,06,40,175,24,19,75,284,41,28,44,087,42*77
$GPGSV,2,2,08,30,18,158,34,13,14,232,,12,03,294,,11,00,044,*7B
$GPRMC,161442.559,A,3911.5438,N,10716.7600,W,001.0,014.7,090817,,,A*75
$GPGGA,161443.559,3911.5441,N,10716.7601,W,1,05,3.9,2316.9,M,,,,0000*2E
$GPGSA,A,3,17,06,19,28,30,,,,,,,,7.9,3.9,6.9*38
$GPRMC,161443.559,A,3911.5441,N,10716.7601,W,000.9,358.2,090817,,,A*7D
$GPGGA,161444.559,3911.5441,N,10716.7597,W,1,05,3.9,2318.6,M,,,,0000*24
$GPGSA,A,3,17,06,19,28,30,,,,,,,,7.9,3.9,6.9*38
$GPRMC,161444.559,A,3911.5441,N,10716.7597,W,000.0,358.2,090817,,,A*7F
$GPGGA,161445.559,3911.5442,N,10716.7603,W,1,04,139.5,2318.8,M,,,,0000*23
$GPGSA,A,2,17,06,19,28,,,,,,,,,384.8,139.5,358.6*30
$GPGSV,2,1,08,17,70,022,46,06,40,175,30,19,75,284,40,28,44,087,45*77
$GPGSV,2,2,08,30,18,158,25,13,14,232,,12,03,294,,11,00,044,*7B
$GPRMC,161445.559,A,3911.5442,N,10716.7603,W,000.9,320.6,090817,,,A*71
$GPGGA,161446.559,3911.5442,N,10716.7602,W,1,05,3.9,2318.7,M,,,,0000*2B
$GPGSA,A,3,17,06,19,28,30,,,,,,,,7.9,3.9,6.8*39
$GPRMC,161446.559,A,3911.5442,N,10716.7602,W,001.0,308.3,090817,,,A*74
$GPGGA,161447.559,3911.5444,N,10716.7602,W,1,05,3.9,2318.6,M,,,,0000*2D
$GPGSA,A,3,17,06,19,28,30,,,,,,,,7.9,3.9,6.8*39
$GPRMC,161447.559,A,3911.5444,N,10716.7602,W,001.0,308.6,090817,,,A*76
$GPGGA,161448.559,3911.5445,N,10716.7602,W,1,05,3.9,2318.4,M,,,,0000*21
$GPGSA,A,3,17,06,19,28,30,,,,,,,,7.9,3.9,6.8*39
$GPGSV,2,1,08,17,70,022,47,06,40,175,33,19,75,284,41,28,44,087,44*75
$GPGSV,2,2,08,30,18,158,31,13,14,232,,12,03,294,,11,00,044,*7E
$GPRMC,161448.559,A,3911.5445,N,10716.7602,W,001.2,295.9,090817,,,A*70
$GPGGA,161449.559,3911.5447,N,10716.7603,W,1,05,3.9,2318.4,M,,,,0000*23
$GPGSA,A,3,17,06,19,28,30,,,,,,,,7.8,3.9,6.8*38
$GPRMC,161449.559,A,3911.5447,N,10716.7603,W,001.1,285.6,090817,,,A*7F
$GPGGA,161450.559,3911.5448,N,10716.7607,W,1,05,3.9,2319.3,M,,,,0000*26
$GPGSA,A,3,17,06,19,28,30,,,,,,,,7.8,3.9,6.8*38
$GPRMC,161450.559,A,3911.5448,N,10716.7607,W,001.3,274.4,090817,,,A*72
$GPGGA,161451.559,3911.5449,N,10716.7614,W,1,05,3.9,2320.1,M,,,,0000*2C
$GPGSA,A,3,17,06,19,28,30,,,,,,,,7.8,3.9,6.8*38
$GPGSV,3,1,09,17,70,023,47,06,40,175,29,19,75,284,40,28,44,087,40*7A
$GPGSV,3,2,09,30,18,158,26,13,14,232,,15,10,266,,12,03,294,*7F
$GPGSV,3,3,09,11,00,044,*40
$GPRMC,161451.559,A,3911.5449,N,10716.7614,W,001.5,270.4,090817,,,A*72
$GPGGA,161452.559,3911.5448,N,10716.7619,W,1,05,3.9,2320.7,M,,,,0000*25
$GPGSA,A,3,17,06,19,28,30,,,,,,,,7.8,3.9,6.8*38
$GPRMC,161452.559,A,3911.5448,N,10716.7619,W,001.5,261.1,090817,,,A*78
$GPGGA,161453.559,3911.5448,N,10716.7624,W,1,05,3.9,2321.2,M,,,,0000*2E
$GPGSA,A,3,17,06,19,28,30,,,,,,,,7.8,3.9,6.8*38
$GPRMC,161453.559,A,3911.5448,N,10716.7624,W,001.4,252.4,090817,,,A*73
$GPGGA,161454.559,3911.5447,N,10716.7626,W,1,05,3.9,2321.5,M,,,,0000*23
$GPGSA,A,3,17,06,19,28,30,,,,,,,,7.8,3.9,6.8*38
$GPGSV,3,1,09,17,70,023,47,06,40,175,28,19,75,284,42,28,44,087,40*79
$GPGSV,3,2,09,30,18,158,27,13,14,232,,15,10,266,,12,03,294,*7E
$GPGSV,3,3,09,11,00,044,*40
$GPRMC,161454.559,A,3911.5447,N,10716.7626,W,001.5,241.2,090817,,,A*7C
$GPGGA,161455.559,3911.5446,N,10716.7633,W,1,05,3.9,2321.3,M,,,,0000*21
$GPGSA,A,3,17,06,19,28,30,,,,,,,,7.8,3.9,6.8*38
$GPRMC,161455.559,A,3911.5446,N,10716.7633,W,001.5,231.5,090817,,,A*78
$GPGGA,161456.559,3911.5445,N,10716.7636,W,1,05,3.9,2321.4,M,,,,0000*23
$GPGSA,A,3,17,06,19,28,30,,,,,,,,7.8,3.9,6.8*38
$GPRMC,161456.559,A,3911.5445,N,10716.7636,W,001.4,230.9,090817,,,A*71
$GPGGA,161457.559,3911.5446,N,10716.7638,W,1,05,3.9,2321.1,M,,,,0000*2A
$GPGSA,A,3,17,06,19,28,30,,,,,,,,7.8,3.9,6.8*38
$GPGSV,3,1,09,17,70,023,46,06,40,175,29,19,75,284,43,28,44,087,33*7C
$GPGSV,3,2,09,30,18,158,26,13,14,232,,15,10,266,,12,03,294,*7F
$GPGSV,3,3,09,11,00,044,*40
$GPRMC,161457.559,A,3911.5446,N,10716.7638,W,001.5,225.9,090817,,,A*78
$GPGGA,161458.559,3911.5445,N,10716.7647,W,1,05,3.9,2321.6,M,,,,0000*29
$GPGSA,A,3,17,06,19,28,30,,,,,,,,7.8,3.9,6.8*38
$GPRMC,161458.559,A,3911.5445,N,10716.7647,W,001.5,233.1,090817,,,A*73
$GPGGA,161459.559,3911.5442,N,10716.7651,W,1,04,5.8,2322.0,M,,,,0000*2B
$GPGSA,A,3,17,06,19,30,,,,,,,,,10.0,5.8,8.1*0C
$GPRMC,161459.559,A,3911.5442,N,10716.7651,W,001.5,236.6,090817,,,A*70
$GPGGA,161500.559,3911.5441,N,10716.7659,W,1,05,3.8,2323.0,M,,,,0000*2B
$GPGSA,A,3,17,06,19,28,30,,,,,,,,7.8,3.8,6.8*39
$GPGSV,3,1,09,17,70,023,46,06,40,175,34,19,75,284,41,28,44,087,40*76
$GPGSV,3,2,09,30,18,158,33,13,14,232,,15,10,266,,12,03,294,*7B
$GPGSV,3,3,09,11,00,044,*40
$GPRMC,161500.559,A,3911.5441,N,10716.7659,W,001.7,245.0,090817,,,A*76
$GPGGA,161501.559,3911.5442,N,10716.7668,W,1,04,138.7,2323.1,M,,,,0000*2D
$GPGSA,A,2,17,06,19,28,,,,,,,,,383.6,138.7,357.6*35
$GPRMC,161501.559,A,3911.5442,N,10716.7668,W,001.6,253.2,090817,,,A*72
$GPGGA,161502.559,3911.5445,N,10716.7675,W,1,05,3.8,2323.5,M,,,,0000*26
$GPGSA,A,3,17,06,19,28,30,,,,,,,,7.8,3.8,6.8*39
$GPRMC,161502.559,A,3911.5445,N,10716.7675,W,001.6,273.4,090817,,,A*7E
$GPGGA,161503.559,3911.5447,N,10716.7679,W,1,04,144.6,2324.0,M,,,,0000*26
$GPGSA,A,2,17,06,19,28,,,,,,,,,400.1,144.6,373.0*34
$GPGSV,3,1,09,17,70,023,44,06,40,175,36,19,75,284,40,28,44,087,42*75
$GPGSV,3,2,09,30,18,158,25,13,14,232,,15,10,266,,12,03,294,*7C
$GPGSV,3,3,09,11,00,044,*40
$GPRMC,161503.559,A,3911.5447,N,10716.7679,W,001.5,296.1,090817,,,A*7C
$GPGGA,161504.559,3911.5450,N,10716.7687,W,1,04,12.5,2324.5,M,,,,0000*12
$GPGSA,A,3,17,19,28,30,,,,,,,,,25.6,12.5,22.3*01
$GPRMC,161504.559,A,3911.5450,N,10716.7687,W,001.4,302.6,090817,,,A*76
$GPGGA,161505.559,3911.5456,N,10716.7692,W,1,05,3.8,2324.9,M,,,,0000*21
$GPGSA,A,3,17,06,19,28,30,,,,,,,,7.8,3.8,6.7*36
$GPRMC,161505.559,A,3911.5456,N,10716.7692,W,001.6,314.3,090817,,,A*75
$GPGGA,161506.559,3911.5461,N,10716.7701,W,1,05,3.8,2325.3,M,,,,0000*26
$GPGSA,A,3,17,06,19,28,30,,,,,,,,7.7,3.8,6.7*39
$GPGSV,3,1,09,17,70,023,41,06,40,175,29,19,75,284,42,28,44,087,44*7A
$GPGSV,3,2,09,30,18,158,27,13,14,232,,15,09,266,,12,03,294,*76
$GPGSV,3,3,09,11,00,044,*40
$GPRMC,161506.559,A,3911.5461,N,10716.7701,W,001.6,312.0,090817,,,A*7C
$GPGGA,161507.559,3911.5464,N,10716.7704,W,1,05,3.8,2325.6,M,,,,0000*22
$GPGSA,A,3,17,06,19,28,30,,,,,,,,7.7,3.8,6.7*39
$GPRMC,161507.559,A,3911.5464,N,10716.7704,W,001.6,311.3,090817,,,A*7D
$GPGGA,161508.559,3911.5466,N,10716.7707,W,1,05,3.8,2325.6,M,,,,0000*2C
$GPGSA,A,3,17,06,19,28,30,,,,,,,,7.7,3.8,6.7*39
$GPRMC,161508.559,A,3911.5466,N,10716.7707,W,001.6,305.0,090817,,,A*75
$GPGGA,161509.559,3911.5472,N,10716.7713,W,1,04,141.0,2324.5,M,,,,0000*21
$GPGSA,A,2,17,06,19,28,,,,,,,,,390.3,141.0,363.9*33
$GPGSV,3,1,09,17,70,023,41,06,40,175,40,19,75,285,42,28,44,087,30*77
$GPGSV,3,2,09,30,18,158,24,13,14,232,,15,09,266,,12,03,294,*75
$GPGSV,3,3,09,11,00,044,*40
$GPRMC,161509.559,A,3911.5472,N,10716.7713,W,001.7,305.7,090817,,,A*72
$GPGGA,161510.559,3911.5474,N,10716.7721,W,1,05,3.8,2324.6,M,,,,0000*23
$GPGSA,A,3,17,06,19,28,30,,,,,,,,7.7,3.8,6.7*39
$GPRMC,161510.559,A,3911.5474,N,10716.7721,W,002.0,292.0,090817,,,A*71
$GPGGA,161511.559,3911.5476,N,10716.7727,W,1,05,3.8,2324.8,M,,,,0000*28
$GPGSA,A,3,17,06,19,28,30,,,,,,,,7.7,3.8,6.7*39
$GPRMC,161511.559,A,3911.5476,N,10716.7727,W,002.0,290.5,090817,,,A*73
$GPGGA,161512.559,3911.5471,N,10716.7737,W,1,05,3.8,2325.2,M,,,,0000*26
$GPGSA,A,3,17,06,19,28,30,,,,,,,,7.7,3.8,6.7*39
$GPGSV,3,1,09,17,70,023,35,06,40,175,42,19,75,285,32,28,44,087,45*73
$GPGSV,3,2,09,30,18,158,26,13,14,232,,15,09,266,,12,03,294,*77
$GPGSV,3,3,09,11,00,044,*40
$GPRMC,161512.559,A,3911.5471,N,10716.7737,W,002.1,287.1,090817,,,A*75
$GPGGA,161513.559,3911.5474,N,10716.7742,W,1,05,3.8,2325.0,M,,,,0000*22
$GPGSA,A,3,17,06,19,28,30,,,,,,,,7.7,3.8,6.7*39
$GPRMC,161513.559,A,3911.5474,N,10716.7742,W,002.0,284.1,090817,,,A*71
$GPGGA,161514.559,3911.5475,N,10716.7749,W,1,04,140.1,2325.0,M,,,,0000*21
$GPGSA,A,2,17,06,19,28,,,,,,,,,388.2,140.1,362.0*33
$GPRMC,161514.559,A,3911.5475,N,10716.7749,W,002.0,281.5,090817,,,A*7D
$GPGGA,161515.559,3911.5474,N,10716.7757,W,1,05,3.8,2325.4,M,,,,0000*24
$GPGSA,A,3,17,06,19,28,30,,,,,,,,7.7,3.8,6.7*39
$GPGSV,3,1,09,17,70,023,41,06,40,174,39,19,75,285,29,28,44,087,41*73
$GPGSV,3,2,09,30,18,158,31,13,14,232,,15,09,266,,12,03,294,*71
$GPGSV,3,3,09,11,00,044,*40
$GPRMC,161515.559,A,3911.5474,N,10716.7757,W,002.0,277.1,090817,,,A*7F
$GPGGA,161516.559,3911.5481,N,10716.7766,W,1,05,3.8,2325.9,M,,,,0000*22
$GPGSA,A,3,17,06,19,28,30,,,,,,,,7.7,3.8,6.7*39
$GPRMC,161516.559,A,3911.5481,N,10716.7766,W,002.1,288.5,090817,,,A*71
$GPGGA,161517.559,3911.5483,N,10716.7772,W,1,05,3.8,2326.2,M,,,,0000*2C
$GPGSA,A,3,17,06,19,28,30,,,,,,,,7.7,3.8,6.7*39
$GPRMC,161517.559,A,3911.5483,N,10716.7772,W,002.2,292.4,090817,,,A*7E
$GPGGA,161518.559,3911.5484,N,10716.7779,W,1,04,12.3,2326.4,M,,,,0000*13
$GPGSA,A,3,17,19,28,30,,,,,,,,,25.2,12.3,22.0*00
$GPGSV,3,1,09,17,70,023,41,06,40,174,28,19,75,285,32,28,44,087,33*7C
$GPGSV,3,2,09,30,18,158,32,13,14,232,,15,09,266,,12,03,294,*72
$GPGSV,3,3,09,11,00,044,*40
$GPRMC,161518.559,A,3911.5484,N,10716.7779,W,002.1,291.3,090817,,,A*7A
$GPGGA,161519.559,3911.5486,N,10716.7784,W,1,05,3.8,2326.9,M,,,,0000*25
$GPGSA,A,3,17,06,19,28,30,,,,,,,,7.7,3.8,6.7*39
$GPRMC,161519.559,A,3911.5486,N,10716.7784,W,002.1,289.1,090817,,,A*70
$GPGGA,161520.559,3911.5488,N,10716.7793,W,1,04,5.8,2327.0,M,,,,0000*28
$GPGSA,A,3,17,06,19,30,,,,,,,,,9.9,5.8,8.0*3C
$GPRMC,161520.559,A,3911.5488,N,10716.7793,W,002.2,288.1,090817,,,A*70
$GPGGA,161521.559,3911.5491,N,10716.7799,W,1,05,3.8,2327.4,M,,,,0000*28
$GPGSA,A,3,17,06,19,28,30,,,,,,,,7.7,3.8,6.6*38
$GPGSV,3,1,09,17,70,023,44,06,40,174,32,19,75,285,41,28,44,087,35*70
$GPGSV,3,2,09,30,18,158,32,13,14,232,,15,09,266,,12,04,295,*74
$GPGSV,3,3,09,11,00,044,*40
$GPRMC,161521.559,A,3911.5491,N,10716.7799,W,001.9,291.1,090817,,,A*73
$GPGGA,161522.559,3911.5488,N,10716.7805,W,1,05,3.8,2327.6,M,,,,0000*2B
$GPGSA,A,3,17,06,19,28,30,,,,,,,,7.6,3.8,6.6*39
$GPRMC,161522.559,A,3911.5488,N,10716.7805,W,001.9,284.5,090817,,,A*72
$GPGGA,161523.559,3911.5490,N,10716.7811,W,1,04,5.8,2327.9,M,,,,0000*2E
$GPGSA,A,3,17,06,19,30,,,,,,,,,9.9,5.8,8.0*3C
$GPRMC,161523.559,A,3911.5490,N,10716.7811,W,002.0,282.8,090817,,,A*7E
$GPGGA,161524.559,3911.5493,N,10716.7812,W,1,05,3.8,2328.0,M,,,,0000*28
$GPGSA,A,3,17,06,19,28,30,,,,,,,,7.6,3.8,6.6*39
$GPGSV,3,1,09,17,70,023,46,06,40,174,39,19,75,285,41,28,44,087,32*7E
$GPGSV,3,2,09,30,18,158,32,13,14,232,,15,09,266,,12,04,295,*74
$GPGSV,3,3,09,11,00,044,*40
$GPRMC,161524.559,A,3911.5493,N,10716.7812,W,001.6,279.5,090817,,,A*75
$GPGGA,161525.559,3911.5486,N,10716.7825,W,1,05,3.8,2329.2,M,,,,0000*2A
$GPGSA,A,3,17,06,19,28,30,,,,,,,,7.6,3.8,6.6*39
$GPRMC,161525.559,A,3911.5486,N,10716.7825,W,001.7,274.3,090817,,,A*7E
$GPGGA,161526.559,3911.5487,N,10716.7829,W,1,05,3.8,2329.4,M,,,,0000*22
$GPGSA,A,3,17,06,19,28,30,,,,,,,,7.6,3.8,6.6*39
$GPRMC,161526.559,A,3911.5487,N,10716.7829,W,001.6,274.1,090817,,,A*73
$GPGGA,161527.559,3911.5491,N,10716.7833,W,1,04,12.2,2329.0,M,,,,0000*10
$GPGSA,A,3,17,19,28,30,,,,,,,,,24.9,12.2,21.7*0F
$GPGSV,3,1,09,17,69,023,46,06,40,174,23,19,75,286,44,28,44,087,38*71
$GPGSV,3,2,09,30,18,158,25,13,14,232,,15,09,266,,12,04,295,*72
$GPGSV,3,3,09,11,00,044,*40
$GPRMC,161527.559,A,3911.5491,N,10716.7833,W,001.6,272.6,090817,,,A*7F
$GPGGA,161528.559,3911.5491,N,10716.7839,W,1,04,12.2,2329.0,M,,,,0000*15
$GPGSA,A,3,17,19,28,30,,,,,,,,,24.9,12.2,21.7*0F
$GPRMC,161528.559,A,3911.5491,N,10716.7839,W,001.7,272.5,090817,,,A*78
$GPGGA,161529.559,3911.5494,N,10716.7842,W,1,04,144.8,2328.2,M,,,,0000*26
$GPGSA,A,2,17,06,19,28,,,,,,,,,401.8,144.8,374.8*3D
$GPRMC,161529.559,A,3911.5494,N,10716.7842,W,001.8,274.8,090817,,,A*74
$GPGGA,161530.559,3911.5498,N,10716.7858,W,1,05,3.8,2328.1,M,,,,0000*29
$GPGSA,A,3,17,06,19,28,30,,,,,,,,7.6,3.8,6.6*39
$GPGSV,3,1,09,17,69,023,46,06,40,174,31,19,75,286,42,28,44,088,44*70
$GPGSV,3,2,09,30,18,158,31,13,14,232,,15,09,266,,12,04,295,*77
$GPGSV,3,3,09,11,00,044,*40
$GPRMC,161530.559,A,3911.5498,N,10716.7858,W,001.9,281.4,090817,,,A*7C
$GPGGA,161531.559,3911.5498,N,10716.7865,W,1,05,3.8,2328.1,M,,,,0000*26
$GPGSA,A,3,17,06,19,28,30,,,,,,,,7.6,3.8,6.6*39
$GPRMC,161531.559,A,3911.5498,N,10716.7865,W,001.9,280.7,090817,,,A*71
$GPGGA,161532.559,3911.5497,N,10716.7873,W,1,05,3.8,2328.4,M,,,,0000*28
$GPGSA,A,3,17,06,19,28,30,,,,,,,,7.6,3.8,6.6*39
$GPRMC,161532.559,A,3911.5497,N,10716.7873,W,001.9,279.6,090817,,,A*7D
$GPGGA,161533.559,3911.5499,N,10716.7881,W,1,05,3.8,2328.5,M,,,,0000*2B
$GPGSA,A,3,17,06,19,28,30,,,,,,,,7.6,3.8,6.6*39
$GPGSV,3,1,09,17,69,023,46,06,41,174,32,19,75,286,40,28,44,088,40*74
$GPGSV,3,2,09,30,18,158,28,13,14,232,,15,09,266,,12,04,295,*7F
$GPGSV,3,3,09,11,00,044,*40
$GPRMC,161533.559,A,3911.5499,N,10716.7881,W,001.9,283.1,090817,,,A*7D
$GPGGA,161534.559,3911.5501,N,10716.7890,W,1,05,3.8,2328.5,M,,,,0000*2C
$GPGSA,A,3,17,06,19,28,30,,,,,,,,7.6,3.8,6.6*39
$GPRMC,161534.559,A,3911.5501,N,10716.7890,W,002.0,279.2,090817,,,A*76
$GPGGA,161535.559,3911.5502,N,10716.7894,W,1,05,3.8,2328.6,M,,,,0000*29
$GPGSA,A,3,17,06,19,28,30,,,,,,,,7.6,3.8,6.6*39
$GPRMC,161535.559,A,3911.5502,N,10716.7894,W,001.9,279.7,090817,,,A*7F
$GPGGA,161536.559,3911.5500,N,10716.7901,W,1,05,3.8,2329.0,M,,,,0000*22
$GPGSA,A,3,17,06,19,28,30,,,,,,,,7.6,3.8,6.6*39
$GPGSV,3,1,09,17,69,023,46,06,41,174,37,19,75,286,41,28,44,088,42*72
$GPGSV,3,2,09,30,18,158,26,13,14,232,,15,09,266,,12,04,295,*71
$GPGSV,3,3,09,11,00,044,*40
$GPRMC,161536.559,A,3911.5500,N,10716.7901,W,002.0,284.8,090817,,,A*74
$GPGGA,161537.559,3911.5503,N,10716.7908,W,1,05,3.8,2328.9,M,,,,0000*21
$GPGSA,A,3,17,06,19,28,30,,,,,,,,7.6,3.8,6.6*39
$GPRMC,161537.559,A,3911.5503,N,10716.7908,W,002.1,286.2,090817,,,A*76
$GPGGA,161538.559,3911.5508,N,10716.7916,W,1,05,3.8,2328.9,M,,,,0000*2A
$GPGSA,A,3,17,06,19,28,30,,,,,,,,7.6,3.8,6.6*39
$GPRMC,161538.559,A,3911.5508,N,10716.7916,W,002.0,286.8,090817,,,A*76
$GPGGA,161539.559,3911.5509,N,10716.7922,W,1,05,3.8,2328.9,M,,,,0000*2D
$GPGSA,A,3,17,06,19,28,30,,,,,,,,7.5,3.8,6.5*39
$GPGSV,3,1,09,17,69,023,45,06,41,174,29,19,75,286,42,28,44,088,41*7E
$GPGSV,3,2,09,30,18,158,35,13,14,232,,15,09,266,,12,04,295,*73
$GPGSV,3,3,09,11,00,044,*40
$GPRMC,161539.559,A,3911.5509,N,10716.7922,W,001.9,285.9,090817,,,A*79
$GPGGA,161540.559,3911.5514,N,10716.7923,W,1,04,144.9,2328.4,M,,,,0000*21
$GPGSA,A,2,17,06,19,28,,,,,,,,,402.8,144.9,375.8*3E
$GPRMC,161540.559,A,3911.5514,N,10716.7923,W,001.8,285.3,090817,,,A*71
$GPGGA,161541.559,3911.5518,N,10716.7928,W,1,04,145.9,2328.2,M,,,,0000*20
$GPGSA,A,2,17,06,19,28,,,,,,,,,405.5,145.9,378.3*33
$GPRMC,161541.559,A,3911.5518,N,10716.7928,W,001.7,290.6,090817,,,A*79
$GPGGA,161542.559,3911.5520,N,10716.7933,W,1,05,3.8,2328.3,M,,,,0000*20
$GPGSA,A,3,17,06,19,28,30,,,,,,,,7.5,3.8,6.5*39
$GPGSV,3,1,09,17,69,023,48,06,41,174,28,19,75,286,40,28,44,088,35*73
$GPGSV,3,2,09,30,18,158,30,13,14,232,,15,09,266,,12,04,295,*76
$GPGSV,3,3,09,11,00,044,*40
$GPRMC,161542.559,A,3911.5520,N,10716.7933,W,001.7,285.3,090817,,,A*7A
$GPGGA,161543.559,3911.5522,N,10716.7942,W,1,05,3.7,2328.4,M,,,,0000*2D
$GPGSA,A,3,17,06,19,28,30,,,,,,,,7.5,3.7,6.5*36
$GPRMC,161543.559,A,3911.5522,N,10716.7942,W,001.9,280.1,090817,,,A*76
$GPGGA,161544.559,3911.5523,N,10716.7946,W,1,05,3.7,2328.3,M,,,,0000*28
$GPGSA,A,3,17,06,19,28,30,,,,,,,,7.5,3.7,6.5*36
$GPRMC,161544.559,A,3911.5523,N,10716.7946,W,001.8,279.5,090817,,,A*77
$GPGGA,161545.559,3911.5528,N,10716.7959,W,1,05,3.7,2328.1,M,,,,0000*2E
$GPGSA,A,3,17,06,19,28,30,,,,,,,,7.5,3.7,6.5*36
$GPGSV,3,1,09,17,69,023,44,06,41,174,33,19,75,286,41,28,44,088,39*78
$GPGSV,3,2,09,30,18,158,27,13,14,232,,15,09,266,,12,04,295,*70
$GPGSV,3,3,09,11,00,044,*40
$GPRMC,161545.559,A,3911.5528,N,10716.7959,W,002.1,277.7,090817,,,A*75
$GPGGA,161546.559,3911.5530,N,10716.7965,W,1,05,3.7,2327.8,M,,,,0000*2D
$GPGSA,A,3,17,06,19,28,30,,,,,,,,7.5,3.7,6.5*36
$GPRMC,161546.559,A,3911.5530,N,10716.7965,W,001.9,276.4,090817,,,A*79
$GPGGA,161547.559,3911.5531,N,10716.7967,W,1,05,3.7,2327.7,M,,,,0000*20
$GPGSA,A,3,17,06,19,28,30,,,,,,,,7.5,3.7,6.5*36
$GPRMC,161547.559,A,3911.5531,N,10716.7967,W,001.7,278.8,090817,,,A*77
$GPGGA,161548.559,3911.5530,N,10716.7972,W,1,05,3.7,2327.7,M,,,,0000*2A
$GPGSA,A,3,17,06,19,28,30,,,,,,,,7.5,3.7,6.5*36
$GPGSV,3,1,09,17,69,023,46,06,41,174,34,19,75,286,42,28,44,088,40*70
$GPGSV,3,2,09,30,18,158,31,13,14,232,,15,09,266,,12,04,295,*77
$GPGSV,3,3,09,11,00,044,*40
$GPRMC,161548.559,A,3911.5530,N,10716.7972,W,001.7,275.9,090817,,,A*71
$GPGGA,161549.559,3911.5527,N,10716.7981,W,1,05,3.7,2328.2,M,,,,0000*2B
$GPGSA,A,3,17,06,19,28,30,,,,,,,,7.5,3.7,6.5*36
$GPRMC,161549.559,A,3911.5527,N,10716.7981,W,001.8,273.7,090817,,,A*7D
$GPGGA,161550.559,3911.5526,N,10716.7979,W,1,05,3.7,2328.3,M,,,,0000*24
$GPGSA,A,3,17,06,19,28,30,,,,,,,,7.5,3.7,6.5*36
$GPRMC,161550.559,A,3911.5526,N,10716.7979,W,001.3,282.0,090817,,,A*71
$GPGGA,161551.559,3911.5528,N,10716.7987,W,1,05,3.7,2328.2,M,,,,0000*2B
$GPGSA,A,3,17,06,19,28,30,,,,,,,,7.5,3.7,6.5*36
$GPGSV,3,1,09,17,69,023,46,06,41,174,39,19,75,286,45,28,44,088,42*78
$GPGSV,3,2,09,30,18,158,31,15,09,266,14,13,14,232,,12,04,295,*72
$GPGSV,3,3,09,11,00,044,*40
$GPRMC,161551.559,A,3911.5528,N,10716.7987,W,001.3,300.3,090817,,,A*77
$GPGGA,161552.559,3911.5536,N,10716.7996,W,1,05,3.7,2327.6,M,,,,0000*2C
$GPGSA,A,3,17,06,19,28,30,,,,,,,,7.5,3.7,6.5*36
$GPRMC,161552.559,A,3911.5536,N,10716.7996,W,001.4,308.4,090817,,,A*73
$GPGGA,161553.559,3911.5538,N,10716.8001,W,1,05,3.7,2327.3,M,,,,0000*2E
$GPGSA,A,3,17,06,19,28,30,,,,,,,,7.5,3.7,6.5*36
$GPRMC,161553.559,A,3911.5538,N,10716.8001,W,001.4,308.4,090817,,,A*74
$GPGGA,161554.559,3911.5541,N,10716.8006,W,1,05,3.7,2327.2,M,,,,0000*21
$GPGSA,A,3,17,06,19,28,30,,,,,,,,7.5,3.7,6.5*36
$GPGSV,3,1,09,17,69,023,45,06,41,174,28,19,75,286,44,28,44,088,41*79
$GPGSV,3,2,09,30,18,158,25,13,14,232,,15,09,266,,12,04,295,*72
$GPGSV,3,3,09,11,00,044,*40
$GPRMC,161554.559,A,3911.5541,N,10716.8006,W,001.6,305.3,090817,,,A*72
$GPGGA,161555.559,3911.5542,N,10716.8012,W,1,05,3.7,2327.1,M,,,,0000*25
$GPGSA,A,3,17,06,19,28,30,,,,,,,,7.5,3.7,6.5*36
$GPRMC,161555.559,A,3911.5542,N,10716.8012,W,001.6,308.5,090817,,,A*7E
$GPGGA,161556.559,3911.5548,N,10716.8018,W,1,04,148.9,2326.5,M,,,,0000*22
$GPGSA,A,2,17,06,19,28,,,,,,,,,414.6,148.9,387.0*3E
$GPRMC,161556.559,A,3911.5548,N,10716.8018,W,001.3,330.0,090817,,,A*76
$GPGGA,161557.559,3911.5554,N,10716.8021,W,1,05,3.7,2326.3,M,,,,0000*23
$GPGSA,A,3,17,06,19,28,30,,,,,,,,7.4,3.7,6.5*37
$GPGSV,3,1,09,17,69,023,47,06,41,174,32,19,75,286,43,28,44,088,44*72
$GPGSV,3,2,09,30,18,158,26,13,14,232,,15,09,266,,12,04,295,*71
$GPGSV,3,3,09,11,00,044,*40
$GPRMC,161557.559,A,3911.5554,N,10716.8021,W,001.5,332.0,090817,,,A*74
$GPGGA,161558.559,3911.5559,N,10716.8030,W,1,05,3.7,2325.9,M,,,,0000*28
$GPGSA,A,3,17,06,19,28,30,,,,,,,,7.4,3.7,6.4*36
$GPRMC,161558.559,A,3911.5559,N,10716.8030,W,001.5,316.0,090817,,,A*70
$GPGGA,161559.559,3911.5562,N,10716.8032,W,1,05,3.7,2325.6,M,,,,0000*2C
$GPGSA,A,3,17,06,19,28,30,,,,,,,,7.4,3.7,6.4*36
$GPRMC,161559.559,A,3911.5562,N,10716.8032,W,001.5,307.9,090817,,,A*72
$GPGGA,161600.559,3911.5564,N,10716.8038,W,1,04,148.9,2325.4,M,,,,0000*2C
$GPGSA,A,2,17,06,19,28,,,,,,,,,414.9,148.9,387.2*33
$GPGSV,3,1,09,17,69,023,46,06,41,174,27,19,75,286,42,28,44,088,46*74
$GPGSV,3,2,09,30,18,158,25,13,14,232,,15,09,266,,12,04,295,*72
$GPGSV,3,3,09,11,00,044,*40
$GPRMC,161600.559,A,3911.5564,N,10716.8038,W,001.5,297.3,090817,,,A*73
$GPGGA,161601.559,3911.5568,N,10716.8039,W,1,05,3.7,2325.1,M,,,,0000*24
$GPGSA,A,3,17,06,19,28,30,,,,,,,,7.4,3.7,6.4*36
$GPRMC,161601.559,A,3911.5568,N,10716.8039,W,001.4,302.8,090817,,,A*78
$GPGGA,161602.559,3911.5571,N,10716.8043,W,1,04,150.7,2324.9,M,,,,0000*2D
$GPGSA,A,2,17,06,19,28,,,,,,,,,419.9,150.7,391.9*35
$GPRMC,161602.559,A,3911.5571,N,10716.8043,W,001.6,301.3,090817,,,A*74
$GPGGA,161603.559,3911.5573,N,10716.8050,W,1,05,3.7,2324.8,M,,,,0000*2B
$GPGSA,A,3,17,06,19,28,30,,,,,,,,7.4,3.7,6.4*36
$GPGSV,3,1,09,17,69,023,45,06,41,174,28,19,75,287,43,28,44,088,42*7C
$GPGSV,3,2,09,30,18,158,28,13,14,232,,15,09,266,,12,04,295,*7F
$GPGSV,3,3,09,11,00,044,*40
$GPRMC,161603.559,A,3911.5573,N,10716.8050,W,001.8,288.1,090817,,,A*79
$GPGGA,161604.559,3911.5582,N,10716.8055,W,1,04,149.7,2323.9,M,,,,0000*2F
$GPGSA,A,2,17,06,19,28,,,,,,,,,417.3,149.7,389.6*3F
$GPRMC,161604.559,A,3911.5582,N,10716.8055,W,001.9,287.2,090817,,,A*78
$GPGGA,161605.559,3911.5585,N,10716.8062,W,1,05,3.7,2323.7,M,,,,0000*2D
$GPGSA,A,3,17,06,19,28,30,,,,,,,,7.4,3.7,6.4*36
$GPRMC,161605.559,A,3911.5585,N,10716.8062,W,001.9,283.8,090817,,,A*74
$GPGGA,161606.559,3911.5587,N,10716.8067,W,1,05,3.7,2323.4,M,,,,0000*2A
$GPGSA,A,3,17,06,19,28,30,,,,,,,,7.4,3.7,6.4*36
$GPGSV,3,1,09,17,69,023,42,06,41,174,30,19,75,287,41,28,44,088,45*77
$GPGSV,3,2,09,30,18,158,32,13,14,232,,15,09,266,,12,04,295,*74
$GPGSV,3,3,09,11,00,044,*40
$GPRMC,161606.559,A,3911.5587,N,10716.8067,W,001.9,286.1,090817,,,A*7C
$GPGGA,161607.559,3911.5591,N,10716.8074,W,1,05,3.7,2323.2,M,,,,0000*28
$GPGSA,A,3,17,06,19,28,30,,,,,,,,7.4,3.7,6.4*36
$GPRMC,161607.559,A,3911.5591,N,10716.8074,W,001.8,297.4,090817,,,A*7C
$GPGGA,161608.559,3911.5593,N,10716.8077,W,1,04,145.9,2323.0,M,,,,0000*28
$GPGSA,A,2,17,06,19,28,,,,,,,,,406.8,145.9,379.8*37
$GPRMC,161608.559,A,3911.5593,N,10716.8077,W,001.6,299.7,090817,,,A*71
$GPGGA,161609.559,3911.5596,N,10716.8083,W,1,05,3.7,2322.7,M,,,,0000*2D
$GPGSA,A,3,17,06,19,28,30,,,,,,,,7.4,3.7,6.4*36
$GPGSV,3,1,09,17,69,023,27,06,41,174,30,19,75,287,35,28,44,088,45*77
$GPGSV,3,2,09,30,18,158,32,13,14,232,,15,09,266,,12,04,295,*74
$GPGSV,3,3,09,11,00,044,*40
$GPRMC,161609.559,A,3911.5596,N,10716.8083,W,001.6,303.9,090817,,,A*72
$GPGGA,161610.559,3911.5595,N,10716.8085,W,1,05,3.7,2322.4,M,,,,0000*23
$GPGSA,A,3,17,06,19,28,30,,,,,,,,7.4,3.7,6.4*36
$GPRMC,161610.559,A,3911.5595,N,10716.8085,W,001.4,301.9,090817,,,A*7F
$GPGGA,161611.559,3911.5598,N,10716.8090,W,1,05,3.7,2322.3,M,,,,0000*2C
$GPGSA,A,3,17,06,19,28,30,,,,,,,,7.4,3.7,6.4*36
$GPRMC,161611.559,A,3911.5598,N,10716.8090,W,001.4,309.9,090817,,,A*7F
$GPGGA,161612.559,3911.5603,N,10716.8092,W,1,05,3.7,2322.2,M,,,,0000*2D
$GPGSA,A,3,17,06,19,28,30,,,,,,,,7.4,3.7,6.4*36
$GPGSV,3,1,09,17,69,023,24,06,41,174,34,19,75,287,35,28,44,088,45*70
$GPGSV,3,2,09,30,18,158,28,13,14,232,,15,09,266,,12,04,295,*7F
$GPGSV,3,3,09,11,00,044,*40
$GPRMC,161612.559,A,3911.5603,N,10716.8092,W,001.4,316.2,090817,,,A*7A
$GPGGA,161613.559,3911.5606,N,10716.8094,W,1,05,3.7,2322.0,M,,,,0000*2D
$GPGSA,A,3,17,06,19,28,30,,,,,,,,7.4,3.7,6.4*36
$GPRMC,161613.559,A,3911.5606,N,10716.8094,W,001.3,317.8,090817,,,A*74
$GPGGA,161614.559,3911.5613,N,10716.8096,W,1,05,3.7,2322.5,M,,,,0000*29
$GPGSA,A,3,17,06,19,28,30,,,,,,,,7.4,3.7,6.4*36
$GPRMC,161614.559,A,3911.5613,N,10716.8096,W,001.4,313.8,090817,,,A*76
$GPGGA,161615.559,3911.5611,N,10716.8097,W,1,05,3.7,2322.6,M,,,,0000*28
$GPGSA,A,3,17,06,19,28,30,,,,,,,,7.3,3.7,6.4*31
$GPGSV,3,1,09,17,69,023,42,06,41,174,32,19,75,287,39,28,44,088,41*7E
$GPGSV,3,2,09,30,18,158,32,13,14,232,,15,09,266,,12,04,295,*74
$GPGSV,3,3,09,11,00,044,*40
$GPRMC,161615.559,A,3911.5611,N,10716.8097,W,001.3,307.0,090817,,,A*7E
$GPGGA,161616.559,3911.5612,N,10716.8105,W,1,05,3.7,2322.7,M,,,,0000*23
$GPGSA,A,3,17,06,19,28,30,,,,,,,,7.3,3.7,6.4*31
$GPRMC,161616.559,A,3911.5612,N,10716.8105,W,001.5,297.1,090817,,,A*7B
$GPGGA,161617.559,3911.5614,N,10716.8111,W,1,05,3.7,2322.7,M,,,,0000*21
$GPGSA,A,3,17,06,19,28,30,,,,,,,,7.3,3.7,6.3*36
$GPRMC,161617.559,A,3911.5614,N,10716.8111,W,001.5,292.5,090817,,,A*78
$GPGGA,161618.559,3911.5612,N,10716.8115,W,1,05,3.7,2322.9,M,,,,0000*22
$GPGSA,A,3,17,06,19,28,30,,,,,,,,7.3,3.7,6.3*36
$GPGSV,3,1,09,17,69,023,45,06,41,174,35,19,75,287,39,28,44,088,33*7B
$GPGSV,3,2,09,30,18,158,31,13,14,232,,15,09,265,,12,04,295,*74
$GPGSV,3,3,09,11,00,044,*40
$GPRMC,161618.559,A,3911.5612,N,10716.8115,W,001.4,291.9,090817,,,A*7B
$GPGGA,161619.559,3911.5617,N,10716.8125,W,1,04,150.1,2320.9,M,,,,0000*27
$GPGSA,A,2,17,06,19,28,,,,,,,,,419.4,150.1,391.6*31
$GPRMC,161619.559,A,3911.5617,N,10716.8125,W,001.5,290.0,090817,,,A*75
$GPGGA,161620.559,3911.5618,N,10716.8128,W,1,05,3.7,2320.7,M,,,,0000*21
$GPGSA,A,3,17,06,19,28,30,,,,,,,,7.3,3.7,6.3*36
$GPRMC,161620.559,A,3911.5618,N,10716.8128,W,001.3,288.1,090817,,,A*73
$GPGGA,161621.559,3911.5619,N,10716.8132,W,1,05,3.7,2320.6,M,,,,0000*2B
$GPGSA,A,3,17,06,19,28,30,,,,,,,,7.3,3.7,6.3*36
$GPGSV,3,1,09,17,69,023,48,06,41,174,34,19,75,287,39,28,44,088,38*7C
$GPGSV,3,2,09,30,18,158,31,13,14,232,,15,09,265,,12,04,295,*74
$GPGSV,3,3,09,11,00,044,*40
$GPRMC,161621.559,A,3911.5619,N,10716.8132,W,001.3,288.5,090817,,,A*7C
$GPGGA,161622.559,3911.5618,N,10716.8138,W,1,05,3.7,2320.6,M,,,,0000*23
$GPGSA,A,3,17,06,19,28,30,,,,,,,,7.3,3.7,6.3*36
$GPRMC,161622.559,A,3911.5618,N,10716.8138,W,001.3,296.0,090817,,,A*7E
$GPGGA,161623.559,3911.5615,N,10716.8140,W,1,04,152.2,2320.8,M,,,,0000*2F
$GPGSA,A,2,17,06,19,28,,,,,,,,,425.3,152.2,397.2*3A
$GPRMC,161623.559,A,3911.5615,N,10716.8140,W,001.2,293.1,090817,,,A*78
$GPGGA,161624.559,3911.5616,N,10716.8146,W,1,05,3.7,2320.6,M,,,,0000*22
$GPGSA,A,3,17,06,19,28,30,,,,,,,,7.3,3.7,6.3*36
$GPGSV,3,1,09,17,69,023,46,06,41,174,29,19,75,287,41,28,44,088,33*7A
$GPGSV,3,2,09,30,18,158,28,13,14,232,,15,09,265,,12,04,295,*7C
$GPGSV,3,3,09,11,00,044,*40
$GPRMC,161624.559,A,3911.5616,N,10716.8146,W,001.4,294.2,090817,,,A*78
$GPGGA,161625.559,3911.5618,N,10716.8150,W,1,05,3.7,2320.5,M,,,,0000*29
$GPGSA,A,3,17,06,19,28,30,,,,,,,,7.3,3.7,6.3*36
$GPRMC,161625.559,A,3911.5618,N,10716.8150,W,001.4,291.2,090817,,,A*75
$GPGGA,161626.559,3911.5619,N,10716.8152,W,1,05,3.7,2320.2,M,,,,0000*2E
$GPGSA,A,3,17,06,19,28,30,,,,,,,,7.3,3.7,6.3*36
$GPRMC,161626.559,A,3911.5619,N,10716.8152,W,001.2,291.6,090817,,,A*77
$GPGGA,161627.559,3911.5621,N,10716.8157,W,1,05,3.7,2319.9,M,,,,0000*20
$GPGSA,A,3,17,06,19,28,30,,,,,,,,7.3,3.7,6.3*36
$GPGSV,3,1,09,17,69,023,41,06,41,174,32,19,75,287,40,28,44,088,30*75
$GPGSV,3,2,09,30,17,158,31,13,14,232,,15,09,265,,12,04,295,*7B
$GPGSV,3,3,09,11,00,044,*40
$GPRMC,161627.559,A,3911.5621,N,10716.8157,W,001.3,293.8,090817,,,A*75
$GPGGA,161628.559,3911.5620,N,10716.8165,W,1,05,3.7,2319.9,M,,,,0000*2F
$GPGSA,A,3,17,06,19,28,30,,,,,,,,7.3,3.7,6.3*36
$GPRMC,161628.559,A,3911.5620,N,10716.8165,W,001.3,285.3,090817,,,A*76
$GPGGA,161629.559,3911.5622,N,10716.8165,W,1,04,11.5,2319.5,M,,,,0000*10
$GPGSA,A,3,17,19,28,30,,,,,,,,,23.4,11.5,20.4*03
$GPRMC,161629.559,A,3911.5622,N,10716.8165,W,001.3,283.0,090817,,,A*70
$GPGGA,161630.559,3911.5619,N,10716.8168,W,1,05,3.6,2320.1,M,,,,0000*22
$GPGSA,A,3,17,06,19,28,30,,,,,,,,7.3,3.6,6.3*37
$GPGSV,3,1,09,17,69,023,34,06,41,174,35,19,75,287,41,28,44,088,29*79
$GPGSV,3,2,09,30,17,158,28,13,14,232,,15,09,265,,12,04,295,*73
$GPGSV,3,3,09,11,00,044,*40
$GPRMC,161630.559,A,3911.5619,N,10716.8168,W,001.3,280.9,090817,,,A*77
$GPGGA,161631.559,3911.5622,N,10716.8176,W,1,05,3.6,2319.7,M,,,,0000*28
$GPGSA,A,3,17,06,19,28,30,,,,,,,,7.3,3.6,6.3*37
$GPRMC,161631.559,A,3911.5622,N,10716.8176,W,001.4,281.5,090817,,,A*7B
$GPGGA,161632.559,3911.5619,N,10716.8180,W,1,05,3.6,2319.6,M,,,,0000*2B
$GPGSA,A,3,17,06,19,28,30,,,,,,,,7.3,3.6,6.3*37
$GPRMC,161632.559,A,3911.5619,N,10716.8180,W,001.1,266.3,090817,,,A*73
$GPGGA,161633.559,3911.5617,N,10716.8184,W,1,03,20.0,2319.8,M,,,,0000*1F
$GPGSA,A,2,17,06,19,,,,,,,,,,20.0,20.0,20.0*09
$GPGSV,3,1,09,17,69,023,34,06,41,174,26,19,75,287,33,28,44,088,25*72
$GPGSV,3,2,09,30,17,158,24,13,14,232,,15,09,265,,12,04,295,*7F
$GPGSV,3,3,09,11,00,044,*40
$GPRMC,161633.559,A,3911.5617,N,10716.8184,W,001.1,260.8,090817,,,A*75
$GPGGA,161634.559,3911.5620,N,10716.8188,W,1,05,3.6,2319.6,M,,,,0000*2F
$GPGSA,A,3,17,06,19,28,30,,,,,,,,7.2,3.6,6.3*36
$GPRMC,161634.559,A,3911.5620,N,10716.8188,W,000.9,272.5,090817,,,A*7D
$GPGGA,161635.559,3911.5622,N,10716.8189,W,1,05,3.6,2319.5,M,,,,0000*2E
$GPGSA,A,3,17,06,19,28,30,,,,,,,,7.2,3.6,6.3*36
$GPRMC,161635.559,A,3911.5622,N,10716.8189,W,000.0,272.5,090817,,,A*76
$GPGGA,161636.559,3911.5621,N,10716.8186,W,1,05,3.6,2319.6,M,,,,0000*22
$GPGSA,A,3,17,06,19,28,30,,,,,,,,7.2,3.6,6.3*36
$GPGSV,3,1,09,17,69,023,44,06,41,174,27,19,75,287,39,28,44,088,32*78
$GPGSV,3,2,09,30,17,158,26,13,14,232,,15,09,265,,12,04,295,*7D
$GPGSV,3,3,09,11,00,044,*40
$GPRMC,161636.559,A,3911.5621,N,10716.8186,W,000.0,272.5,090817,,,A*79
$GPGGA,161637.559,3911.5611,N,10716.8191,W,1,05,3.6,2319.8,M,,,,0000*28
$GPGSA,A,3,17,06,19,28,30,,,,,,,,7.2,3.6,6.2*37
$GPRMC,161637.559,A,3911.5611,N,10716.8191,W,000.0,272.5,090817,,,A*7D
$GPGGA,161638.559,3911.5613,N,10716.8192,W,1,05,3.6,2320.3,M,,,,0000*27
$GPGSA,A,3,17,06,19,28,30,,,,,,,,7.2,3.6,6.2*37
$GPRMC,161638.559,A,3911.5613,N,10716.8192,W,000.9,248.1,090817,,,A*77
$GPGGA,161639.559,3911.5609,N,10716.8189,W,1,04,5.6,2320.6,M,,,,0000*25
$GPGSA,A,3,17,06,19,30,,,,,,,,,9.4,5.6,7.5*35
$GPGSV,3,1,09,17,69,024,31,06,41,174,34,19,75,287,38,28,44,088,32*7E
$GPGSV,3,2,09,30,17,158,24,13,14,232,,15,09,265,,12,04,295,*7F
$GPGSV,3,3,09,11,00,044,*40
$GPRMC,161639.559,A,3911.5609,N,10716.8189,W,000.9,239.7,090817,,,A*77
$GPGGA,161640.559,3911.5607,N,10716.8192,W,1,05,3.6,2320.9,M,,,,0000*27
$GPGSA,A,3,17,06,19,28,30,,,,,,,,7.2,3.6,6.2*37
$GPRMC,161640.559,A,3911.5607,N,10716.8192,W,001.1,231.7,090817,,,A*7C
$GPGGA,161641.559,3911.5602,N,10716.8191,W,1,05,3.6,2321.2,M,,,,0000*2A
$GPGSA,A,3,17,06,19,28,30,,,,,,,,7.2,3.6,6.2*37
$GPRMC,161641.559,A,3911.5602,N,10716.8191,W,001.0,241.8,090817,,,A*72
$GPGGA,161642.559,3911.5603,N,10716.8181,W,1,05,3.6,2320.9,M,,,,0000*23
$GPGSA,A,3,17,06,19,28,30,,,,,,,,7.2,3.6,6.2*37
$GPGSV,3,1,09,17,69,024,43,06,41,174,40,19,75,288,44,28,44,088,26*79
$GPGSV,3,2,09,30,17,158,25,13,14,232,,15,09,265,,12,04,295,*7E
$GPGSV,3,3,09,11,00,044,*40
$GPRMC,161642.559,A,3911.5603,N,10716.8181,W,001.1,247.2,090817,,,A*7C
$GPGGA,161643.559,3911.5603,N,10716.8180,W,1,04,5.6,2321.0,M,,,,0000*2C
$GPGSA,A,3,17,06,19,30,,,,,,,,,9.4,5.6,7.5*35
$GPRMC,161643.559,A,3911.5603,N,10716.8180,W,001.2,245.0,090817,,,A*7F
$GPGGA,161644.559,3911.5597,N,10716.8185,W,1,05,3.6,2321.5,M,,,,0000*22
$GPGSA,A,3,17,06,19,28,30,,,,,,,,7.2,3.6,6.2*37
$GPRMC,161644.559,A,3911.5597,N,10716.8185,W,001.1,248.1,090817,,,A*7C
$GPGGA,161645.559,3911.5593,N,10716.8195,W,1,05,3.6,2321.9,M,,,,0000*2A
$GPGSA,A,3,17,06,19,28,30,,,,,,,,7.2,3.6,6.2*37
$GPGSV,3,1,09,17,69,024,44,06,41,174,34,19,75,288,39,28,44,088,26*77
$GPGSV,3,2,09,30,17,158,32,13,14,232,,15,09,265,,12,04,295,*78
$GPGSV,3,3,09,11,00,044,*40
$GPRMC,161645.559,A,3911.5593,N,10716.8195,W,001.3,249.7,090817,,,A*7D
$GPGGA,161646.559,3911.5592,N,10716.8198,W,1,04,5.6,2322.1,M,,,,0000*29
$GPGSA,A,3,17,06,19,30,,,,,,,,,9.4,5.6,7.5*35
$GPRMC,161646.559,A,3911.5592,N,10716.8198,W,001.2,258.0,090817,,,A*74
$GPGGA,161647.559,3911.5592,N,10716.8199,W,1,05,3.6,2322.4,M,,,,0000*2B
$GPGSA,A,3,17,06,19,28,30,,,,,,,,7.2,3.6,6.2*37
$GPRMC,161647.559,A,3911.5592,N,10716.8199,W,001.0,254.7,090817,,,A*7D
$GPGGA,161648.559,3911.5593,N,10716.8202,W,1,04,149.0,2322.1,M,,,,0000*29
$GPGSA,A,2,17,06,19,28,,,,,,,,,417.5,149.0,390.1*31
$GPGSV,3,1,09,17,69,024,44,06,41,174,28,19,75,288,42,28,44,088,32*73
$GPGSV,3,2,09,30,17,158,23,13,14,232,,15,09,265,,12,04,295,*78
$GPGSV,3,3,09,11,00,044,*40
$GPRMC,161648.559,A,3911.5593,N,10716.8202,W,001.0,263.0,090817,,,A*71
$GPGGA,161649.559,3911.5593,N,10716.8214,W,1,03,20.0,2321.8,M,,,,0000*1C
$GPGSA,A,2,17,06,19,,,,,,,,,,20.0,20.0,20.0*09
$GPRMC,161649.559,A,3911.5593,N,10716.8214,W,001.3,267.1,090817,,,A*71
$GPGGA,161650.559,3911.5593,N,10716.8214,W,1,05,3.6,2322.1,M,,,,0000*2F
$GPGSA,A,3,17,06,19,28,30,,,,,,,,7.2,3.6,6.2*37
$GPRMC,161650.559,A,3911.5593,N,10716.8214,W,001.0,267.9,090817,,,A*72
$GPGGA,161651.559,3911.5594,N,10716.8218,W,1,04,150.9,2322.1,M,,,,0000*2C
$GPGSA,A,2,17,06,19,28,,,,,,,,,423.1,150.9,395.3*34
$GPGSV,3,1,09,17,69,024,39,06,41,174,38,19,75,288,44,28,44,088,29*74
$GPGSV,3,2,09,30,17,158,22,13,14,232,,15,09,265,,12,04,295,*79
$GPGSV,3,3,09,11,00,044,*40
$GPRMC,161651.559,A,3911.5594,N,10716.8218,W,000.8,266.2,090817,,,A*7B
$GPGGA,161652.559,3911.5594,N,10716.8220,W,1,04,11.3,2322.1,M,,,,0000*1A
$GPGSA,A,3,17,19,28,30,,,,,,,,,22.9,11.3,19.9*0E
$GPRMC,161652.559,A,3911.5594,N,10716.8220,W,000.0,266.2,090817,,,A*7B
$GPGGA,161653.559,3911.5590,N,10716.8223,W,1,04,5.6,2322.1,M,,,,0000*2C
$GPGSA,A,3,17,06,19,30,,,,,,,,,9.3,5.6,7.4*33
$GPRMC,161653.559,A,3911.5590,N,10716.8223,W,000.9,236.6,090817,,,A*75
$GPGGA,161654.559,3911.5583,N,10716.8223,W,1,04,5.6,2322.1,M,,,,0000*29
$GPGSA,A,3,17,06,19,30,,,,,,,,,9.3,5.6,7.4*33
$GPGSV,3,1,09,17,69,024,41,06,41,174,39,19,75,288,39,28,44,088,29*70
$GPGSV,3,2,09,30,17,158,25,13,14,232,,15,09,265,,12,04,295,*7E
$GPGSV,3,3,09,11,00,044,*40
$GPRMC,161654.559,A,3911.5583,N,10716.8223,W,001.0,235.7,090817,,,A*7A
$GPGGA,161655.559,3911.5581,N,10716.8221,W,1,04,153.0,2322.1,M,,,,0000*2C
$GPGSA,A,2,17,06,19,28,,,,,,,,,429.3,153.0,401.1*3E
$GPRMC,161655.559,A,3911.5581,N,10716.8221,W,001.2,242.9,090817,,,A*77
$GPGGA,161656.559,3911.5579,N,10716.8220,W,1,05,3.6,2322.1,M,,,,0000*2A
$GPGSA,A,3,17,06,19,28,30,,,,,,,,7.1,3.6,6.2*34
$GPRMC,161656.559,A,3911.5579,N,10716.8220,W,001.1,249.1,090817,,,A*72
$GPGGA,161657.559,3911.5577,N,10716.8223,W,1,04,149.6,2322.3,M,,,,0000*2A
$GPGSA,A,2,17,06,19,28,,,,,,,,,419.9,149.6,392.3*35
$GPGSV,3,1,09,17,69,024,43,06,41,174,35,19,75,288,41,28,44,088,32*7B
$GPGSV,3,2,09,30,17,158,24,13,14,232,,15,09,265,,12,04,295,*7F
$GPGSV,3,3,09,11,00,044,*40
$GPRMC,161657.559,A,3911.5577,N,10716.8223,W,001.1,233.5,090817,,,A*77
$GPGGA,161658.559,3911.5575,N,10716.8224,W,1,03,20.0,2322.1,M,,,,0000*1D
$GPGSA,A,2,17,19,28,,,,,,,,,,20.0,20.0,20.0*05
$GPRMC,161658.559,A,3911.5575,N,10716.8224,W,001.0,228.5,090817,,,A*76
$GPGGA,161659.559,3911.5574,N,10716.8220,W,1,05,3.6,2322.0,M,,,,0000*29
$GPGSA,A,3,17,06,19,28,30,,,,,,,,7.1,3.6,6.1*37
$GPRMC,161659.559,A,3911.5574,N,10716.8220,W,000.0,228.5,090817,,,A*73
$GPGGA,161700.559,3911.5576,N,10716.8220,W,1,05,3.6,2322.0,M,,,,0000*26
$GPGSA,A,3,17,06,19,28,30,,,,,,,,7.1,3.6,6.1*37
$GPGSV,3,1,09,17,69,024,46,06,41,174,31,19,75,288,39,28,44,088,25*73
$GPGSV,3,2,09,30,17,158,25,13,14,232,,15,09,265,,12,04,295,*7E
$GPGSV,3,3,09,11,00,044,*40
$GPRMC,161700.559,A,3911.5576,N,10716.8220,W,000.0,228.5,090817,,,A*7C
$GPGGA,161701.559,3911.5577,N,10716.8224,W,1,04,11.2,2322.0,M,,,,0000*14
$GPGSA,A,3,17,19,28,30,,,,,,,,,22.7,11.2,19.7*0F
$GPRMC,161701.559,A,3911.5577,N,10716.8224,W,000.0,228.5,090817,,,A*78
$GPGGA,161702.559,3911.5577,N,10716.8224,W,1,05,3.6,2322.1,M,,,,0000*20
$GPGSA,A,3,17,06,19,28,30,,,,,,,,7.1,3.6,6.1*37
$GPRMC,161702.559,A,3911.5577,N,10716.8224,W,000.9,224.7,090817,,,A*7C
$GPGGA,161703.559,3911.5577,N,10716.8224,W,1,05,3.6,2322.0,M,,,,0000*20
$GPGSA,A,3,17,06,19,28,30,,,,,,,,7.1,3.6,6.1*37
$GPGSV,3,1,09,17,69,024,41,06,41,174,28,19,75,288,42,28,44,088,32*76
$GPGSV,3,2,09,30,17,158,27,13,14,232,,15,09,265,,12,04,295,*7C
$GPGSV,3,3,09,11,00,044,*40
$GPRMC,161703.559,A,3911.5577,N,10716.8224,W,000.9,220.4,090817,,,A*7A
$GPGGA,161704.559,3911.5579,N,10716.8223,W,1,05,3.6,2321.9,M,,,,0000*24
$GPGSA,A,3,17,06,19,28,30,,,,,,,,7.1,3.6,6.1*37
$GPRMC,161704.559,A,3911.5579,N,10716.8223,W,000.0,220.4,090817,,,A*7D
$GPGGA,161705.559,3911.5577,N,10716.8224,W,1,04,152.3,2321.8,M,,,,0000*2C
$GPGSA,A,2,17,06,19,28,,,,,,,,,427.7,152.3,399.6*37
$GPRMC,161705.559,A,3911.5577,N,10716.8224,W,000.0,220.4,090817,,,A*75
$GPGGA,161706.559,3911.5576,N,10716.8225,W,1,05,3.6,2321.8,M,,,,0000*2E
$GPGSA,A,3,17,06,19,28,30,,,,,,,,7.1,3.6,6.1*37
$GPGSV,3,1,09,17,69,024,44,06,41,174,26,19,75,288,40,28,44,088,34*79
$GPGSV,3,2,09,30,17,158,29,13,14,232,,15,09,265,,12,04,295,*72
$GPGSV,3,3,09,11,00,044,*40
$GPRMC,161706.559,A,3911.5576,N,10716.8225,W,000.0,220.4,090817,,,A*76
$GPGGA,161707.559,3911.5575,N,10716.8227,W,1,04,151.5,2322.0,M,,,,0000*21
$GPGSA,A,2,17,06,19,28,,,,,,,,,425.7,151.5,397.8*30
$GPRMC,161707.559,A,3911.5575,N,10716.8227,W,000.0,220.4,090817,,,A*76
$GPGGA,161708.559,3911.5575,N,10716.8229,W,1,04,11.1,2322.0,M,,,,0000*11
$GPGSA,A,3,17,19,28,30,,,,,,,,,22.5,11.1,19.6*0F
$GPRMC,161708.559,A,3911.5575,N,10716.8229,W,000.0,220.4,090817,,,A*77
$GPGGA,161709.559,3911.5575,N,10716.8230,W,1,04,152.6,2321.7,M,,,,0000*2D
