$GPGGA,171633.000,0000.0000,N,00000.0000,E,0,00,0.0,0.0,M,,,,0000*0F
$GPGSA,A,1,,,,,,,,,,,,,0.0,0.0,0.0*30
$GPRMC,171633.000,V,0000.0000,N,00000.0000,E,000.0,000.0,080817,,,N*71
$GPGGA,171634.000,0000.0000,N,00000.0000,E,0,00,0.0,0.0,M,,,,0000*08
$GPGSA,A,1,,,,,,,,,,,,,0.0,0.0,0.0*30
$GPRMC,171634.000,V,0000.0000,N,00000.0000,E,000.0,000.0,080817,,,N*76
$GPGGA,171635.000,0000.0000,N,00000.0000,E,0,00,0.0,0.0,M,,,,0000*09
$GPGSA,A,1,,,,,,,,,,,,,0.0,0.0,0.0*30
$GPGSV,1,1,02,17,00,000,24,12,00,000,27*7D
$GPRMC,171635.000,V,0000.0000,N,00000.0000,E,000.0,000.0,080817,,,N*77
$GPGGA,171636.000,0000.0000,N,00000.0000,E,0,00,0.0,0.0,M,,,,0000*0A
$GPGSA,A,1,,,,,,,,,,,,,0.0,0.0,0.0*30
$GPRMC,171636.000,V,0000.0000,N,00000.0000,E,000.0,000.0,080817,,,N*74
$GPGGA,171637.000,0000.0000,N,00000.0000,E,0,00,0.0,0.0,M,,,,0000*0B
$GPGSA,A,1,,,,,,,,,,,,,0.0,0.0,0.0*30
$GPRMC,171637.000,V,0000.0000,N,00000.0000,E,000.0,000.0,080817,,,N*75
$GPGGA,171638.000,0000.0000,N,00000.0000,E,0,00,0.0,0.0,M,,,,0000*04
$GPGSA,A,1,,,,,,,,,,,,,0.0,0.0,0.0*30
$GPGSV,1,1,02,17,00,000,24,12,00,000,25*7F
$GPRMC,171638.000,V,0000.0000,N,00000.0000,E,000.0,000.0,080817,,,N*7A
$GPGGA,171639.000,0000.0000,N,00000.0000,E,0,00,0.0,0.0,M,,,,0000*05
$GPGSA,A,1,,,,,,,,,,,,,0.0,0.0,0.0*30
$GPRMC,171639.000,V,0000.0000,N,00000.0000,E,000.0,000.0,080817,,,N*7B
$GPGGA,171640.000,0000.0000,N,00000.0000,E,0,00,0.0,0.0,M,,,,0000*0B
$GPGSA,A,1,,,,,,,,,,,,,0.0,0.0,0.0*30
$GPRMC,171640.000,V,0000.0000,N,00000.0000,E,000.0,000.0,080817,,,N*75
$GPGGA,171641.000,0000.0000,N,00000.0000,E,0,00,0.0,0.0,M,,,,0000*0A
$GPGSA,A,1,,,,,,,,,,,,,0.0,0.0,0.0*30
$GPGSV,1,1,02,17,00,000,23,12,00,000,27*7A
$GPRMC,171641.000,V,0000.0000,N,00000.0000,E,000.0,000.0,080817,,,N*74
$GPGGA,171642.000,0000.0000,N,00000.0000,E,0,00,0.0,0.0,M,,,,0000*09
$GPGSA,A,1,,,,,,,,,,,,,0.0,0.0,0.0*30
$GPRMC,171642.000,V,0000.0000,N,00000.0000,E,000.0,000.0,080817,,,N*77
$GPGGA,171643.000,0000.0000,N,00000.0000,E,0,00,0.0,0.0,M,,,,0000*08
$GPGSA,A,1,,,,,,,,,,,,,0.0,0.0,0.0*30
$GPRMC,171643.000,V,0000.0000,N,00000.0000,E,000.0,000.0,080817,,,N*76
$GPGGA,171644.000,0000.0000,N,00000.0000,E,0,00,0.0,0.0,M,,,,0000*0F
$GPGSA,A,1,,,,,,,,,,,,,0.0,0.0,0.0*30
$GPGSV,1,1,02,17,00,000,22,12,00,000,25*79
$GPRMC,171644.000,V,0000.0000,N,00000.0000,E,000.0,000.0,080817,,,N*71
$GPGGA,171645.000,0000.0000,N,00000.0000,E,0,00,0.0,0.0,M,,,,0000*0E
$GPGSA,A,1,,,,,,,,,,,,,0.0,0.0,0.0*30
$GPRMC,171645.000,V,0000.0000,N,00000.0000,E,000.0,000.0,080817,,,N*70
$GPGGA,171646.000,0000.0000,N,00000.0000,E,0,00,0.0,0.0,M,,,,0000*0D
$GPGSA,A,1,,,,,,,,,,,,,0.0,0.0,0.0*30
$GPRMC,171646.000,V,0000.0000,N,00000.0000,E,000.0,000.0,080817,,,N*73
$GPGGA,171647.000,0000.0000,N,00000.0000,E,0,00,0.0,0.0,M,,,,0000*0C
$GPGSA,A,1,,,,,,,,,,,,,0.0,0.0,0.0*30
$GPGSV,1,1,02,17,00,000,25,12,00,000,27*7C
$GPRMC,171647.000,V,0000.0000,N,00000.0000,E,000.0,000.0,080817,,,N*72
$GPGGA,171648.000,0000.0000,N,00000.0000,E,0,00,0.0,0.0,M,,,,0000*03
$GPGSA,A,1,,,,,,,,,,,,,0.0,0.0,0.0*30
$GPRMC,171648.000,V,0000.0000,N,00000.0000,E,000.0,000.0,080817,,,N*7D
$GPGGA,171649.000,0000.0000,N,00000.0000,E,0,00,0.0,0.0,M,,,,0000*02
$GPGSA,A,1,,,,,,,,,,,,,0.0,0.0,0.0*30
$GPRMC,171649.000,V,0000.0000,N,00000.0000,E,000.0,000.0,080817,,,N*7C
$GPGGA,171650.000,0000.0000,N,00000.0000,E,0,00,0.0,0.0,M,,,,0000*0A
$GPGSA,A,1,,,,,,,,,,,,,0.0,0.0,0.0*30
$GPGSV,1,1,02,17,00,000,26,12,00,000,26*7E
$GPRMC,171650.000,V,0000.0000,N,00000.0000,E,000.0,000.0,080817,,,N*74
$GPGGA,171651.000,0000.0000,N,00000.0000,E,0,00,0.0,0.0,M,,,,0000*0B
$GPGSA,A,1,,,,,,,,,,,,,0.0,0.0,0.0*30
$GPRMC,171651.000,V,0000.0000,N,00000.0000,E,000.0,000.0,080817,,,N*75
$GPGGA,171652.000,0000.0000,N,00000.0000,E,0,00,0.0,0.0,M,,,,0000*08
$GPGSA,A,1,,,,,,,,,,,,,0.0,0.0,0.0*30
$GPRMC,171652.000,V,0000.0000,N,00000.0000,E,000.0,000.0,080817,,,N*76
$GPGGA,171653.000,0000.0000,N,00000.0000,E,0,00,0.0,0.0,M,,,,0000*09
$GPGSA,A,1,,,,,,,,,,,,,0.0,0.0,0.0*30
$GPGSV,1,1,02,17,00,000,24,12,00,000,26*7C
$GPRMC,171653.000,V,0000.0000,N,00000.0000,E,000.0,000.0,080817,,,N*77
$GPGGA,171654.000,0000.0000,N,00000.0000,E,0,00,0.0,0.0,M,,,,0000*0E
$GPGSA,A,1,,,,,,,,,,,,,0.0,0.0,0.0*30
$GPRMC,171654.000,V,0000.0000,N,00000.0000,E,000.0,000.0,080817,,,N*70
$GPGGA,171655.000,0000.0000,N,00000.0000,E,0,00,0.0,0.0,M,,,,0000*0F
$GPGSA,A,1,,,,,,,,,,,,,0.0,0.0,0.0*30
$GPRMC,171655.000,V,0000.0000,N,00000.0000,E,000.0,000.0,080817,,,N*71
$GPGGA,171656.000,0000.0000,N,00000.0000,E,0,00,0.0,0.0,M,,,,0000*0C
$GPGSA,A,1,,,,,,,,,,,,,0.0,0.0,0.0*30
$GPGSV,1,1,02,17,00,000,22,12,00,000,26*7A
$GPRMC,171656.000,V,0000.0000,N,00000.0000,E,000.0,000.0,080817,,,N*72
$GPGGA,171657.000,0000.0000,N,00000.0000,E,0,00,0.0,0.0,M,,,,0000*0D
$GPGSA,A,1,,,,,,,,,,,,,0.0,0.0,0.0*30
$GPRMC,171657.000,V,0000.0000,N,00000.0000,E,000.0,000.0,080817,,,N*73
$GPGGA,171658.000,0000.0000,N,00000.0000,E,0,00,0.0,0.0,M,,,,0000*02
$GPGSA,A,1,,,,,,,,,,,,,0.0,0.0,0.0*30
$GPRMC,171658.000,V,0000.0000,N,00000.0000,E,000.0,000.0,080817,,,N*7C
$GPGGA,171659.000,0000.0000,N,00000.0000,E,0,00,0.0,0.0,M,,,,0000*03
$GPGSA,A,1,,,,,,,,,,,,,0.0,0.0,0.0*30
$GPGSV,1,1,02,17,00,000,21,12,00,000,26*79
$GPRMC,171659.000,V,0000.0000,N,00000.0000,E,000.0,000.0,080817,,,N*7D
$GPGGA,171700.000,0000.0000,N,00000.0000,E,0,00,0.0,0.0,M,,,,0000*0E
$GPGSA,A,1,,,,,,,,,,,,,0.0,0.0,0.0*30
$GPRMC,171700.000,V,0000.0000,N,00000.0000,E,000.0,000.0,080817,,,N*70
$GPGGA,171701.000,0000.0000,N,00000.0000,E,0,00,0.0,0.0,M,,,,0000*0F
$GPGSA,A,1,,,,,,,,,,,,,0.0,0.0,0.0*30
$GPRMC,171701.000,V,0000.0000,N,00000.0000,E,000.0,000.0,080817,,,N*71
$GPGGA,171702.000,0000.0000,N,00000.0000,E,0,00,0.0,0.0,M,,,,0000*0C
$GPGSA,A,1,,,,,,,,,,,,,0.0,0.0,0.0*30
$GPGSV,1,1,02,17,00,000,20,12,00,000,26*78
$GPRMC,171702.000,V,0000.0000,N,00000.0000,E,000.0,000.0,080817,,,N*72
$GPGGA,171703.000,0000.0000,N,00000.0000,E,0,00,0.0,0.0,M,,,,0000*0D
$GPGSA,A,1,,,,,,,,,,,,,0.0,0.0,0.0*30
$GPRMC,171703.000,V,0000.0000,N,00000.0000,E,000.0,000.0,080817,,,N*73
$GPGGA,171704.000,0000.0000,N,00000.0000,E,0,00,0.0,0.0,M,,,,0000*0A
$GPGSA,A,1,,,,,,,,,,,,,0.0,0.0,0.0*30
$GPRMC,171704.000,V,0000.0000,N,00000.0000,E,000.0,000.0,080817,,,N*74
$GPGGA,171705.000,0000.0000,N,00000.0000,E,0,00,0.0,0.0,M,,,,0000*0B
$GPGSA,A,1,,,,,,,,,,,,,0.0,0.0,0.0*30
$GPGSV,1,1,02,17,00,000,23,12,00,000,26*7B
$GPRMC,171705.000,V,0000.0000,N,00000.0000,E,000.0,000.0,080817,,,N*75
$GPGGA,171706.000,0000.0000,N,00000.0000,E,0,00,0.0,0.0,M,,,,0000*08
$GPGSA,A,1,,,,,,,,,,,,,0.0,0.0,0.0*30
$GPRMC,171706.000,V,0000.0000,N,00000.0000,E,000.0,000.0,080817,,,N*76
$GPGGA,171707.000,0000.0000,N,00000.0000,E,0,00,0.0,0.0,M,,,,0000*09
$GPGSA,A,1,,,,,,,,,,,,,0.0,0.0,0.0*30
$GPRMC,171707.000,V,0000.0000,N,00000.0000,E,000.0,000.0,080817,,,N*77
$GPGGA,171708.000,0000.0000,N,00000.0000,E,0,00,0.0,0.0,M,,,,0000*06
$GPGSA,A,1,,,,,,,,,,,,,0.0,0.0,0.0*30
$GPGSV,1,1,02,17,00,000,23,12,00,000,26*7B
$GPRMC,171708.000,V,0000.0000,N,00000.0000,E,000.0,000.0,080817,,,N*78
$GPGGA,171709.000,0000.0000,N,00000.0000,E,0,00,0.0,0.0,M,,,,0000*07
$GPGSA,A,1,,,,,,,,,,,,,0.0,0.0,0.0*30
$GPRMC,171709.000,V,0000.0000,N,00000.0000,E,000.0,000.0,080817,,,N*79
$GPGGA,171710.000,0000.0000,N,00000.0000,E,0,00,0.0,0.0,M,,,,0000*0F
$GPGSA,A,1,,,,,,,,,,,,,0.0,0.0,0.0*30
$GPRMC,171710.000,V,0000.0000,N,00000.0000,E,000.0,000.0,080817,,,N*71
$GPGGA,171711.000,0000.0000,N,00000.0000,E,0,00,0.0,0.0,M,,,,0000*0E
$GPGSA,A,1,,,,,,,,,,,,,0.0,0.0,0.0*30
$GPGSV,1,1,02,17,00,000,22,12,00,000,26*7A
$GPRMC,171711.000,V,0000.0000,N,00000.0000,E,000.0,000.0,080817,,,N*70
$GPGGA,171712.000,0000.0000,N,00000.0000,E,0,00,0.0,0.0,M,,,,0000*0D
$GPGSA,A,1,,,,,,,,,,,,,0.0,0.0,0.0*30
$GPRMC,171712.000,V,0000.0000,N,00000.0000,E,000.0,000.0,080817,,,N*73
$GPGGA,171713.000,0000.0000,N,00000.0000,E,0,00,0.0,0.0,M,,,,0000*0C
$GPGSA,A,1,,,,,,,,,,,,,0.0,0.0,0.0*30
$GPRMC,171713.000,V,0000.0000,N,00000.0000,E,000.0,000.0,080817,,,N*72
$GPGGA,171714.000,0000.0000,N,00000.0000,E,0,00,0.0,0.0,M,,,,0000*0B
$GPGSA,A,1,,,,,,,,,,,,,0.0,0.0,0.0*30
$GPGSV,1,1,02,17,00,000,23,12,00,000,25*78
$GPRMC,171714.000,V,0000.0000,N,00000.0000,E,000.0,000.0,080817,,,N*75
$GPGGA,171715.000,0000.0000,N,00000.0000,E,0,00,0.0,0.0,M,,,,0000*0A
$GPGSA,A,1,,,,,,,,,,,,,0.0,0.0,0.0*30
$GPRMC,171715.000,V,0000.0000,N,00000.0000,E,000.0,000.0,080817,,,N*74
$GPGGA,171716.000,0000.0000,N,00000.0000,E,0,00,0.0,0.0,M,,,,0000*09
$GPGSA,A,1,,,,,,,,,,,,,0.0,0.0,0.0*30
$GPRMC,171716.000,V,0000.0000,N,00000.0000,E,000.0,000.0,080817,,,N*77
$GPGGA,171717.000,0000.0000,N,00000.0000,E,0,00,0.0,0.0,M,,,,0000*08
$GPGSA,A,1,,,,,,,,,,,,,0.0,0.0,0.0*30
$GPGSV,1,1,02,17,00,000,22,12,00,000,25*79
$GPRMC,171717.000,V,0000.0000,N,00000.0000,E,000.0,000.0,080817,,,N*76
$GPGGA,171718.000,0000.0000,N,00000.0000,E,0,00,0.0,0.0,M,,,,0000*07
$GPGSA,A,1,,,,,,,,,,,,,0.0,0.0,0.0*30
$GPRMC,171718.000,V,0000.0000,N,00000.0000,E,000.0,000.0,080817,,,N*79
$GPGGA,171719.000,0000.0000,N,00000.0000,E,0,00,0.0,0.0,M,,,,0000*06
$GPGSA,A,1,,,,,,,,,,,,,0.0,0.0,0.0*30
$GPRMC,171719.000,V,0000.0000,N,00000.0000,E,000.0,000.0,080817,,,N*78
$GPGGA,171720.000,0000.0000,N,00000.0000,E,0,00,0.0,0.0,M,,,,0000*0C
$GPGSA,A,1,,,,,,,,,,,,,0.0,0.0,0.0*30
$GPGSV,1,1,02,17,00,000,23,12,00,000,27*7A
$GPRMC,171720.000,V,0000.0000,N,00000.0000,E,000.0,000.0,080817,,,N*72
$GPGGA,171721.000,0000.0000,N,00000.0000,E,0,00,0.0,0.0,M,,,,0000*0D
$GPGSA,A,1,,,,,,,,,,,,,0.0,0.0,0.0*30
$GPRMC,171721.000,V,0000.0000,N,00000.0000,E,000.0,000.0,080817,,,N*73
$GPGGA,171722.000,0000.0000,N,00000.0000,E,0,00,0.0,0.0,M,,,,0000*0E
$GPGSA,A,1,,,,,,,,,,,,,0.0,0.0,0.0*30
$GPRMC,171722.000,V,0000.0000,N,00000.0000,E,000.0,000.0,080817,,,N*70
$GPGGA,171723.000,0000.0000,N,00000.0000,E,0,00,0.0,0.0,M,,,,0000*0F
$GPGSA,A,1,,,,,,,,,,,,,0.0,0.0,0.0*30
$GPGSV,1,1,02,17,00,000,25,12,00,000,27*7C
$GPRMC,171723.000,V,0000.0000,N,00000.0000,E,000.0,000.0,080817,,,N*71
$GPGGA,171724.000,0000.0000,N,00000.0000,E,0,00,0.0,0.0,M,,,,0000*08
$GPGSA,A,1,,,,,,,,,,,,,0.0,0.0,0.0*30
$GPRMC,171724.000,V,0000.0000,N,00000.0000,E,000.0,000.0,080817,,,N*76
$GPGGA,171725.000,0000.0000,N,00000.0000,E,0,00,0.0,0.0,M,,,,0000*09
$GPGSA,A,1,,,,,,,,,,,,,0.0,0.0,0.0*30
$GPRMC,171725.000,V,0000.0000,N,00000.0000,E,000.0,000.0,080817,,,N*77
$GPGGA,171726.000,0000.0000,N,00000.0000,E,0,00,0.0,0.0,M,,,,0000*0A
$GPGSA,A,1,,,,,,,,,,,,,0.0,0.0,0.0*30
$GPGSV,1,1,02,17,00,000,24,12,00,000,27*7D
$GPRMC,171726.000,V,0000.0000,N,00000.0000,E,000.0,000.0,080817,,,N*74
$GPGGA,171727.000,0000.0000,N,00000.0000,E,0,00,0.0,0.0,M,,,,0000*0B
$GPGSA,A,1,,,,,,,,,,,,,0.0,0.0,0.0*30
$GPRMC,171727.000,V,0000.0000,N,00000.0000,E,000.0,000.0,080817,,,N*75
$GPGGA,171728.000,0000.0000,N,00000.0000,E,0,00,0.0,0.0,M,,,,0000*04
$GPGSA,A,1,,,,,,,,,,,,,0.0,0.0,0.0*30
$GPRMC,171728.000,V,0000.0000,N,00000.0000,E,000.0,000.0,080817,,,N*7A
$GPGGA,171729.000,0000.0000,N,00000.0000,E,0,00,0.0,0.0,M,,,,0000*05
$GPGSA,A,1,,,,,,,,,,,,,0.0,0.0,0.0*30
$GPGSV,1,1,02,17,00,000,22,12,00,000,25*79
$GPRMC,171729.000,V,0000.0000,N,00000.0000,E,000.0,000.0,080817,,,N*7B
$GPGGA,171730.000,0000.0000,N,00000.0000,E,0,00,0.0,0.0,M,,,,0000*0D
$GPGSA,A,1,,,,,,,,,,,,,0.0,0.0,0.0*30
$GPRMC,171730.000,V,0000.0000,N,00000.0000,E,000.0,000.0,080817,,,N*73
$GPGGA,171731.000,0000.0000,N,00000.0000,E,0,00,0.0,0.0,M,,,,0000*0C
$GPGSA,A,1,,,,,,,,,,,,,0.0,0.0,0.0*30
$GPRMC,171731.000,V,0000.0000,N,00000.0000,E,000.0,000.0,080817,,,N*72
$GPGGA,171732.000,0000.0000,N,00000.0000,E,0,00,0.0,0.0,M,,,,0000*0F
$GPGSA,A,1,,,,,,,,,,,,,0.0,0.0,0.0*30
$GPGSV,1,1,02,17,00,000,21,12,00,000,25*7A
$GPRMC,171732.000,V,0000.0000,N,00000.0000,E,000.0,000.0,080817,,,N*71
$GPGGA,171733.000,0000.0000,N,00000.0000,E,0,00,0.0,0.0,M,,,,0000*0E
$GPGSA,A,1,,,,,,,,,,,,,0.0,0.0,0.0*30
$GPRMC,171733.000,V,0000.0000,N,00000.0000,E,000.0,000.0,080817,,,N*70
$GPGGA,171734.000,0000.0000,N,00000.0000,E,0,00,0.0,0.0,M,,,,0000*09
$GPGSA,A,1,,,,,,,,,,,,,0.0,0.0,0.0*30
$GPRMC,171734.000,V,0000.0000,N,00000.0000,E,000.0,000.0,080817,,,N*77
$GPGGA,171735.000,0000.0000,N,00000.0000,E,0,00,0.0,0.0,M,,,,0000*08
$GPGSA,A,1,,,,,,,,,,,,,0.0,0.0,0.0*30
$GPGSV,1,1,02,17,00,000,23,12,00,000,24*79
$GPRMC,171735.000,V,0000.0000,N,00000.0000,E,000.0,000.0,080817,,,N*76
$GPGGA,171736.000,0000.0000,N,00000.0000,E,0,00,0.0,0.0,M,,,,0000*0B
$GPGSA,A,1,,,,,,,,,,,,,0.0,0.0,0.0*30
$GPRMC,171736.000,V,0000.0000,N,00000.0000,E,000.0,000.0,080817,,,N*75
$GPGGA,171737.000,0000.0000,N,00000.0000,E,0,00,0.0,0.0,M,,,,0000*0A
$GPGSA,A,1,,,,,,,,,,,,,0.0,0.0,0.0*30
$GPRMC,171737.000,V,0000.0000,N,00000.0000,E,000.0,000.0,080817,,,N*74
$GPGGA,171738.000,0000.0000,N,00000.0000,E,0,00,0.0,0.0,M,,,,0000*05
$GPGSA,A,1,,,,,,,,,,,,,0.0,0.0,0.0*30
$GPGSV,1,1,02,17,00,000,31,12,00,000,24*7A
$GPRMC,171738.000,V,0000.0000,N,00000.0000,E,000.0,000.0,080817,,,N*7B
$GPGGA,171739.000,0000.0000,N,00000.0000,E,0,00,0.0,0.0,M,,,,0000*04
$GPGSA,A,1,,,,,,,,,,,,,0.0,0.0,0.0*30
$GPRMC,171739.000,V,0000.0000,N,00000.0000,E,000.0,000.0,080817,,,N*7A
$GPGGA,171740.000,0000.0000,N,00000.0000,E,0,00,0.0,0.0,M,,,,0000*0A
$GPGSA,A,1,,,,,,,,,,,,,0.0,0.0,0.0*30
$GPRMC,171740.000,V,0000.0000,N,00000.0000,E,000.0,000.0,080817,,,N*74
$GPGGA,171741.000,0000.0000,N,00000.0000,E,0,00,0.0,0.0,M,,,,0000*0B
$GPGSA,A,1,,,,,,,,,,,,,0.0,0.0,0.0*30
$GPGSV,1,1,02,17,00,000,40,12,00,000,34*7D
$GPRMC,171741.000,V,0000.0000,N,00000.0000,E,000.0,000.0,080817,,,N*75
$GPGGA,171742.000,0000.0000,N,00000.0000,E,0,00,0.0,0.0,M,,,,0000*08
$GPGSA,A,1,,,,,,,,,,,,,0.0,0.0,0.0*30
$GPRMC,171742.000,V,0000.0000,N,00000.0000,E,000.0,000.0,080817,,,N*76
$GPGGA,171743.000,0000.0000,N,00000.0000,E,0,00,0.0,0.0,M,,,,0000*09
$GPGSA,A,1,,,,,,,,,,,,,0.0,0.0,0.0*30
$GPRMC,171743.000,V,0000.0000,N,00000.0000,E,000.0,000.0,080817,,,N*77
$GPGGA,171744.000,0000.0000,N,00000.0000,E,0,00,0.0,0.0,M,,,,0000*0E
$GPGSA,A,1,,,,,,,,,,,,,0.0,0.0,0.0*30
$GPGSV,1,1,02,17,00,000,41,12,00,000,24*7D
$GPRMC,171744.000,V,0000.0000,N,00000.0000,E,000.0,000.0,080817,,,N*70
$GPGGA,171745.000,0000.0000,N,00000.0000,E,0,00,0.0,0.0,M,,,,0000*0F
$GPGSA,A,1,,,,,,,,,,,,,0.0,0.0,0.0*30
$GPRMC,171745.000,V,0000.0000,N,00000.0000,E,000.0,000.0,080817,,,N*71
$GPGGA,171746.000,0000.0000,N,00000.0000,E,0,00,0.0,0.0,M,,,,0000*0C
$GPGSA,A,1,,,,,,,,,,,,,0.0,0.0,0.0*30
$GPRMC,171746.000,V,0000.0000,N,00000.0000,E,000.0,000.0,080817,,,N*72
$GPGGA,171747.000,0000.0000,N,00000.0000,E,0,00,0.0,0.0,M,,,,0000*0D
$GPGSA,A,1,,,,,,,,,,,,,0.0,0.0,0.0*30
$GPGSV,1,1,03,17,00,000,40,12,00,000,34,06,00,000,34*4D
$GPRMC,171747.000,V,0000.0000,N,00000.0000,E,000.0,000.0,080817,,,N*73
$GPGGA,171748.000,0000.0000,N,00000.0000,E,0,00,0.0,0.0,M,,,,0000*02
$GPGSA,A,1,,,,,,,,,,,,,0.0,0.0,0.0*30
$GPRMC,171748.000,V,0000.0000,N,00000.0000,E,000.0,000.0,080817,,,N*7C
$GPGGA,171749.000,0000.0000,N,00000.0000,E,0,00,0.0,0.0,M,,,,0000*03
$GPGSA,A,1,,,,,,,,,,,,,0.0,0.0,0.0*30
$GPRMC,171749.000,V,0000.0000,N,00000.0000,E,000.0,000.0,080817,,,N*7D
$GPGGA,171750.000,0000.0000,N,00000.0000,E,0,00,0.0,0.0,M,,,,0000*0B
$GPGSA,A,1,,,,,,,,,,,,,0.0,0.0,0.0*30
$GPGSV,1,1,03,17,00,000,41,12,00,000,32,06,00,000,34*4A
$GPRMC,171750.000,V,0000.0000,N,00000.0000,E,000.0,000.0,080817,,,N*75
$GPGGA,171751.000,0000.0000,N,00000.0000,E,0,00,0.0,0.0,M,,,,0000*0A
$GPGSA,A,1,,,,,,,,,,,,,0.0,0.0,0.0*30
$GPRMC,171751.000,V,0000.0000,N,00000.0000,E,000.0,000.0,080817,,,N*74
$GPGGA,171752.000,0000.0000,N,00000.0000,E,0,00,0.0,0.0,M,,,,0000*09
$GPGSA,A,1,,,,,,,,,,,,,0.0,0.0,0.0*30
$GPRMC,171752.000,V,0000.0000,N,00000.0000,E,000.0,000.0,080817,,,N*77
$GPGGA,171753.000,0000.0000,N,00000.0000,E,0,00,0.0,0.0,M,,,,0000*08
$GPGSA,A,1,,,,,,,,,,,,,0.0,0.0,0.0*30
$GPGSV,1,1,03,17,00,000,41,12,00,000,32,06,00,000,34*4A
$GPRMC,171753.000,V,0000.0000,N,00000.0000,E,000.0,000.0,080817,,,N*76
$GPGGA,171754.000,0000.0000,N,00000.0000,E,0,00,0.0,0.0,M,,,,0000*0F
$GPGSA,A,1,,,,,,,,,,,,,0.0,0.0,0.0*30
$GPRMC,171754.000,V,0000.0000,N,00000.0000,E,000.0,000.0,080817,,,N*71
$GPGGA,171755.000,0000.0000,N,00000.0000,E,0,00,0.0,0.0,M,,,,0000*0E
$GPGSA,A,1,,,,,,,,,,,,,0.0,0.0,0.0*30
$GPRMC,171755.000,V,0000.0000,N,00000.0000,E,000.0,000.0,080817,,,N*70
$GPGGA,171756.000,0000.0000,N,00000.0000,E,0,00,0.0,0.0,M,,,,0000*0D
$GPGSA,A,1,,,,,,,,,,,,,0.0,0.0,0.0*30
$GPGSV,1,1,03,17,00,000,40,12,00,000,28,06,00,000,34*40
$GPRMC,171756.000,V,0000.0000,N,00000.0000,E,000.0,000.0,080817,,,N*73
$GPGGA,171757.000,0000.0000,N,00000.0000,E,0,00,0.0,0.0,M,,,,0000*0C
$GPGSA,A,1,,,,,,,,,,,,,0.0,0.0,0.0*30
$GPRMC,171757.000,V,0000.0000,N,00000.0000,E,000.0,000.0,080817,,,N*72
$GPGGA,171758.000,0000.0000,N,00000.0000,E,0,00,0.0,0.0,M,,,,0000*03
$GPGSA,A,1,,,,,,,,,,,,,0.0,0.0,0.0*30
$GPRMC,171758.000,V,0000.0000,N,00000.0000,E,000.0,000.0,080817,,,N*7D
$GPGGA,171759.000,0000.0000,N,00000.0000,E,0,00,0.0,0.0,M,,,,0000*02
$GPGSA,A,1,,,,,,,,,,,,,0.0,0.0,0.0*30
$GPGSV,1,1,03,17,00,000,40,12,00,000,27,06,00,000,32*49
$GPRMC,171759.000,V,0000.0000,N,00000.0000,E,000.0,000.0,080817,,,N*7C
$GPGGA,171800.000,0000.0000,N,00000.0000,E,0,00,0.0,0.0,M,,,,0000*01
$GPGSA,A,1,,,,,,,,,,,,,0.0,0.0,0.0*30
$GPRMC,171800.000,V,0000.0000,N,00000.0000,E,000.0,000.0,080817,,,N*7F
$GPGGA,171801.000,0000.0000,N,00000.0000,E,0,00,0.0,0.0,M,,,,0000*00
$GPGSA,A,1,,,,,,,,,,,,,0.0,0.0,0.0*30
$GPRMC,171801.000,V,0000.0000,N,00000.0000,E,000.0,000.0,080817,,,N*7E
$GPGGA,171802.000,0000.0000,N,00000.0000,E,0,00,0.0,0.0,M,,,,0000*03
$GPGSA,A,1,,,,,,,,,,,,,0.0,0.0,0.0*30
$GPGSV,1,1,03,17,00,000,41,12,00,000,29,06,00,000,32*46
$GPRMC,171802.000,V,0000.0000,N,00000.0000,E,000.0,000.0,080817,,,N*7D
$GPGGA,171803.000,0000.0000,N,00000.0000,E,0,00,0.0,0.0,M,,,,0000*02
$GPGSA,A,1,,,,,,,,,,,,,0.0,0.0,0.0*30
$GPRMC,171803.000,V,0000.0000,N,00000.0000,E,000.0,000.0,080817,,,N*7C
$GPGGA,171804.000,0000.0000,N,00000.0000,E,0,00,0.0,0.0,M,,,,0000*05
$GPGSA,A,1,,,,,,,,,,,,,0.0,0.0,0.0*30
$GPRMC,171804.000,V,0000.0000,N,00000.0000,E,000.0,000.0,080817,,,N*7B
$GPGGA,171805.000,0000.0000,N,00000.0000,E,0,00,0.0,0.0,M,,,,0000*04
$GPGSA,A,1,,,,,,,,,,,,,0.0,0.0,0.0*30
$GPGSV,1,1,04,17,00,000,37,12,00,000,30,06,00,000,32,24,00,000,38*75
$GPRMC,171805.000,V,0000.0000,N,00000.0000,E,000.0,000.0,080817,,,N*7A
$GPGGA,171806.000,0000.0000,N,00000.0000,E,0,00,0.0,0.0,M,,,,0000*07
$GPGSA,A,1,,,,,,,,,,,,,0.0,0.0,0.0*30
$GPRMC,171806.000,V,0000.0000,N,00000.0000,E,000.0,000.0,080817,,,N*79
$GPGGA,171807.000,0000.0000,N,00000.0000,E,0,00,0.0,0.0,M,,,,0000*06
$GPGSA,A,1,,,,,,,,,,,,,0.0,0.0,0.0*30
$GPRMC,171807.000,V,0000.0000,N,00000.0000,E,000.0,000.0,080817,,,N*78
$GPGGA,171808.000,0000.0000,N,00000.0000,E,0,00,0.0,0.0,M,,,,0000*09
$GPGSA,A,1,,,,,,,,,,,,,0.0,0.0,0.0*30
$GPGSV,1,1,04,17,00,000,38,12,00,000,29,06,00,000,31,24,00,000,39*70
$GPRMC,171808.000,V,0000.0000,N,00000.0000,E,000.0,000.0,080817,,,N*77
$GPGGA,171809.000,0000.0000,N,00000.0000,E,0,00,0.0,0.0,M,,,,0000*08
$GPGSA,A,1,,,,,,,,,,,,,0.0,0.0,0.0*30
$GPRMC,171809.000,V,0000.0000,N,00000.0000,E,000.0,000.0,080817,,,N*76
$GPGGA,171810.000,0000.0000,N,00000.0000,E,0,00,0.0,0.0,M,,,,0000*00
$GPGSA,A,1,,,,,,,,,,,,,0.0,0.0,0.0*30
$GPRMC,171810.000,V,0000.0000,N,00000.0000,E,000.0,000.0,080817,,,N*7E
$GPGGA,171811.000,0000.0000,N,00000.0000,E,0,00,0.0,0.0,M,,,,0000*01
$GPGSA,A,1,,,,,,,,,,,,,0.0,0.0,0.0*30
$GPGSV,1,1,04,17,00,000,37,12,00,000,31,06,00,000,32,24,00,000,39*75
$GPRMC,171811.000,V,0000.0000,N,00000.0000,E,000.0,000.0,080817,,,N*7F
$GPGGA,171812.000,0000.0000,N,00000.0000,E,0,00,0.0,0.0,M,,,,0000*02
$GPGSA,A,1,,,,,,,,,,,,,0.0,0.0,0.0*30
$GPRMC,171812.000,V,0000.0000,N,00000.0000,E,000.0,000.0,080817,,,N*7C
$GPGGA,171813.000,0000.0000,N,00000.0000,E,0,00,0.0,0.0,M,,,,0000*03
$GPGSA,A,1,,,,,,,,,,,,,0.0,0.0,0.0*30
$GPRMC,171813.000,V,0000.0000,N,00000.0000,E,000.0,000.0,080817,,,N*7D
$GPGGA,171814.000,0000.0000,N,00000.0000,E,0,00,0.0,0.0,M,,,,0000*04
$GPGSA,A,1,,,,,,,,,,,,,0.0,0.0,0.0*30
$GPGSV,1,1,04,17,00,000,35,12,00,000,26,06,00,000,31,24,00,000,39*72
$GPRMC,171814.000,V,0000.0000,N,00000.0000,E,000.0,000.0,080817,,,N*7A
$GPGGA,171815.000,0000.0000,N,00000.0000,E,0,00,0.0,0.0,M,,,,0000*05
$GPGSA,A,1,,,,,,,,,,,,,0.0,0.0,0.0*30
$GPRMC,171815.000,V,0000.0000,N,00000.0000,E,000.0,000.0,080817,,,N*7B
$GPGGA,171816.000,0000.0000,N,00000.0000,E,0,00,0.0,0.0,M,,,,0000*06
$GPGSA,A,1,,,,,,,,,,,,,0.0,0.0,0.0*30
$GPRMC,171816.000,V,0000.0000,N,00000.0000,E,000.0,000.0,080817,,,N*78
$GPGGA,171818.558,3949.9283,N,10442.3740,W,1,03,2.2,-0.0,M,,,,0000*39
$GPGSA,A,2,17,12,06,,,,,,,,,,2.2,2.2,0.0*30
$GPGSV,2,1,07,17,50,049,38,12,23,309,29,06,69,167,31,24,00,000,40*72
$GPGSV,2,2,07,02,30,207,,28,27,115,,03,15,057,*45
$GPRMC,171818.558,A,3949.9283,N,10442.3740,W,000.0,000.0,080817,,,A*70
$GPGGA,171819.558,3949.9281,N,10442.3741,W,1,03,20.0,0.1,M,,,,0000*25
$GPGSA,A,2,17,12,06,,,,,,,,,,20.0,20.0,20.0*02
$GPRMC,171819.558,A,3949.9281,N,10442.3741,W,000.0,000.0,080817,,,A*72
$GPGGA,171820.558,3949.9281,N,10442.3741,W,1,03,20.0,0.1,M,,,,0000*2F
$GPGSA,A,2,17,12,06,,,,,,,,,,20.0,20.0,20.0*02
$GPRMC,171820.558,A,3949.9281,N,10442.3741,W,000.0,000.0,080817,,,A*78
$GPGGA,171821.558,3949.9281,N,10442.3741,W,1,03,20.0,0.1,M,,,,0000*2E
$GPGSA,A,2,17,12,06,,,,,,,,,,20.0,20.0,20.0*02
$GPGSV,2,1,07,17,50,049,40,12,23,309,30,06,69,167,30,24,00,000,40*74
$GPGSV,2,2,07,02,30,207,,28,27,115,,03,15,057,*45
$GPRMC,171821.558,A,3949.9281,N,10442.3741,W,000.9,217.1,080817,,,A*75
$GPGGA,171822.558,3949.9281,N,10442.3742,W,1,03,20.0,0.1,M,,,,0000*2E
$GPGSA,A,2,17,12,06,,,,,,,,,,20.0,20.0,20.0*02
$GPRMC,171822.558,A,3949.9281,N,10442.3742,W,001.3,236.3,080817,,,A*7F
$GPGGA,171823.558,3949.9280,N,10442.3742,W,1,03,20.0,0.1,M,,,,0000*2E
$GPGSA,A,2,17,12,06,,,,,,,,,,20.0,20.0,20.0*02
$GPRMC,171823.558,A,3949.9280,N,10442.3742,W,001.9,246.1,080817,,,A*70
$GPGGA,171824.558,3949.9278,N,10442.3749,W,1,03,20.0,0.0,M,,,,0000*24
$GPGSA,A,2,17,12,06,,,,,,,,,,20.0,20.0,20.0*02
$GPGSV,2,1,07,17,50,049,40,12,23,309,34,06,69,167,32,24,00,000,40*72
$GPGSV,2,2,07,02,30,207,,28,27,115,,03,15,057,*45
$GPRMC,171824.558,A,3949.9278,N,10442.3749,W,002.3,250.2,080817,,,A*76
$GPGGA,171825.558,3949.9277,N,10442.3758,W,1,03,20.0,-0.0,M,,,,0000*07
$GPGSA,A,2,17,12,06,,,,,,,,,,20.0,20.0,20.0*02
$GPRMC,171825.558,A,3949.9277,N,10442.3758,W,002.4,253.3,080817,,,A*7D
$GPGGA,171826.558,3949.9275,N,10442.3767,W,1,03,20.0,-0.2,M,,,,0000*08
$GPGSA,A,2,17,12,06,,,,,,,,,,20.0,20.0,20.0*02
$GPRMC,171826.558,A,3949.9275,N,10442.3767,W,002.5,256.2,080817,,,A*75
$GPGGA,171827.558,3949.9274,N,10442.3776,W,1,03,20.0,-0.6,M,,,,0000*0C
$GPGSA,A,2,17,12,06,,,,,,,,,,20.0,20.0,20.0*02
$GPGSV,2,1,07,17,50,049,41,12,23,309,30,06,69,167,33,24,00,000,39*78
$GPGSV,2,2,07,02,30,207,,28,27,115,,03,15,057,*45
$GPRMC,171827.558,A,3949.9274,N,10442.3776,W,002.5,255.9,080817,,,A*7D
$GPGGA,171828.558,3949.9273,N,10442.3783,W,1,03,20.0,-0.8,M,,,,0000*00
$GPGSA,A,2,17,12,06,,,,,,,,,,20.0,20.0,20.0*02
$GPRMC,171828.558,A,3949.9273,N,10442.3783,W,002.2,256.3,080817,,,A*71
$GPGGA,171829.558,3949.9272,N,10442.3786,W,1,03,20.0,-1.3,M,,,,0000*0F
$GPGSA,A,2,17,12,06,,,,,,,,,,20.0,20.0,20.0*02
$GPRMC,171829.558,A,3949.9272,N,10442.3786,W,001.7,253.4,080817,,,A*70
$GPGGA,171830.558,3949.9272,N,10442.3786,W,1,00,20.0,-1.4,M,,,,0000*03
$GPGSA,A,2,,,,,,,,,,,,,20.0,20.0,20.0*01
$GPGSV,2,1,07,17,49,049,38,12,23,309,32,06,69,167,25,24,00,000,35*77
$GPGSV,2,2,07,02,30,207,,28,27,115,,03,15,057,*45
$GPRMC,171830.558,A,3949.9272,N,10442.3786,W,001.7,253.4,080817,,,A*78
$GPGGA,171831.558,3949.9272,N,10442.3793,W,1,03,20.0,-1.1,M,,,,0000*00
$GPGSA,A,2,17,12,06,,,,,,,,,,20.0,20.0,20.0*02
$GPRMC,171831.558,A,3949.9272,N,10442.3793,W,001.4,253.3,080817,,,A*79
$GPGGA,171832.558,3949.9271,N,10442.3796,W,1,03,20.0,-1.0,M,,,,0000*04
$GPGSA,A,2,17,12,06,,,,,,,,,,20.0,20.0,20.0*02
$GPRMC,171832.558,A,3949.9271,N,10442.3796,W,001.2,251.2,080817,,,A*79
$GPGGA,171833.558,3949.9270,N,10442.3797,W,1,03,20.0,-1.2,M,,,,0000*07
$GPGSA,A,2,17,12,06,,,,,,,,,,20.0,20.0,20.0*02
$GPGSV,2,1,07,17,49,049,40,12,23,309,29,06,69,167,29,24,00,000,35*7E
$GPGSV,2,2,07,02,30,207,,28,27,115,,03,15,057,*45
$GPRMC,171833.558,A,3949.9270,N,10442.3797,W,000.9,244.4,080817,,,A*70
$GPGGA,171834.558,3949.8642,N,10442.4658,W,1,04,5.4,101.1,M,,,,0000*1A
$GPGSA,A,3,17,12,06,24,,,,,,,,,12.9,5.4,11.7*3B
$GPRMC,171834.558,A,3949.8642,N,10442.4658,W,004.7,319.8,080817,,,A*79
$GPGGA,171835.558,3949.8626,N,10442.4702,W,1,04,5.5,128.7,M,,,,0000*1B
$GPGSA,A,3,17,12,06,24,,,,,,,,,12.9,5.5,11.7*3A
$GPRMC,171835.558,A,3949.8626,N,10442.4702,W,006.2,327.9,080817,,,A*7F
$GPGGA,171836.558,3949.9028,N,10442.4807,W,1,04,5.5,151.0,M,,,,0000*12
$GPGSA,A,3,17,12,06,24,,,,,,,,,13.0,5.5,11.8*3D
$GPGSV,2,1,08,17,49,049,42,12,23,309,25,06,69,167,33,24,39,287,38*7E
$GPGSV,2,2,08,19,00,000,42,02,30,207,,28,27,115,,03,15,057,*74
$GPRMC,171836.558,A,3949.9028,N,10442.4807,W,008.8,331.2,080817,,,A*77
$GPGGA,171837.558,3949.9058,N,10442.4825,W,1,04,5.5,162.0,M,,,,0000*14
$GPGSA,A,3,17,12,06,24,,,,,,,,,13.0,5.5,11.8*3D
$GPRMC,171837.558,A,3949.9058,N,10442.4825,W,009.0,331.1,080817,,,A*7B
$GPGGA,171838.558,3949.9087,N,10442.4841,W,1,04,5.5,173.7,M,,,,0000*1C
$GPGSA,A,3,17,12,06,24,,,,,,,,,13.0,5.5,11.8*3D
$GPRMC,171838.558,A,3949.9087,N,10442.4841,W,009.2,331.8,080817,,,A*7F
$GPGGA,171839.558,3949.9118,N,10442.4857,W,1,04,5.5,185.7,M,,,,0000*14
$GPGSA,A,3,17,12,06,24,,,,,,,,,13.0,5.5,11.8*3D
$GPGSV,2,1,08,17,49,049,42,12,23,309,34,06,69,166,34,24,39,287,35*75
$GPGSV,2,2,08,19,00,000,44,02,30,207,,28,27,115,,03,15,057,*72
$GPRMC,171839.558,A,3949.9118,N,10442.4857,W,009.4,333.2,080817,,,A*70
$GPGGA,171840.558,3949.9153,N,10442.4874,W,1,04,5.5,197.1,M,,,,0000*11
$GPGSA,A,3,17,12,06,24,,,,,,,,,13.0,5.5,11.8*3D
$GPRMC,171840.558,A,3949.9153,N,10442.4874,W,009.8,333.9,080817,,,A*77
$GPGGA,171841.558,3949.9190,N,10442.4890,W,1,04,5.5,209.9,M,,,,0000*19
$GPGSA,A,3,17,12,06,24,,,,,,,,,13.1,5.5,11.8*3C
$GPRMC,171841.558,A,3949.9190,N,10442.4890,W,010.2,335.3,080817,,,A*7D
$GPGGA,171842.558,3949.9229,N,10442.4903,W,1,04,5.5,223.8,M,,,,0000*19
$GPGSA,A,3,17,12,06,24,,,,,,,,,13.1,5.5,11.9*3D
$GPGSV,2,1,08,17,49,049,41,12,23,309,35,06,69,166,34,24,39,287,35*77
$GPGSV,2,2,08,19,00,000,40,02,30,207,,28,27,115,,03,15,057,*76
$GPRMC,171842.558,A,3949.9229,N,10442.4903,W,010.6,336.6,080817,,,A*76
$GPGGA,171843.558,3949.9300,N,10442.4919,W,1,04,5.5,238.6,M,,,,0000*1D
$GPGSA,A,3,17,12,06,24,,,,,,,,,13.1,5.5,11.9*3D
$GPRMC,171843.558,A,3949.9300,N,10442.4919,W,011.8,338.7,080817,,,A*76
$GPGGA,171844.558,3949.9348,N,10442.4939,W,1,04,5.5,252.2,M,,,,0000*1C
$GPGSA,A,3,17,12,06,24,,,,,,,,,13.1,5.5,11.9*3D
$GPRMC,171844.558,A,3949.9348,N,10442.4939,W,012.1,338.4,080817,,,A*76
$GPGGA,171845.558,3949.9402,N,10442.4956,W,1,04,5.5,268.5,M,,,,0000*13
$GPGSA,A,3,17,12,06,24,,,,,,,,,13.1,5.5,11.9*3D
$GPGSV,2,1,08,17,49,050,42,12,23,309,33,06,69,166,35,24,39,287,36*78
$GPGSV,2,2,08,19,00,000,42,02,30,207,,28,27,115,,03,15,057,*74
$GPRMC,171845.558,A,3949.9402,N,10442.4956,W,012.2,338.4,080817,,,A*74
$GPGGA,171846.558,3949.9459,N,10442.4980,W,1,04,5.5,283.6,M,,,,0000*13
$GPGSA,A,3,17,12,06,24,,,,,,,,,13.2,5.5,11.9*3E
$GPRMC,171846.558,A,3949.9459,N,10442.4980,W,012.5,337.8,080817,,,A*76
$GPGGA,171847.558,3949.9518,N,10442.5017,W,1,04,5.6,301.1,M,,,,0000*1F
$GPGSA,A,3,17,12,06,24,,,,,,,,,13.2,5.6,12.0*37
$GPRMC,171847.558,A,3949.9518,N,10442.5017,W,012.8,335.9,080817,,,A*7B
$GPGGA,171848.558,3949.9583,N,10442.5053,W,1,04,5.6,319.4,M,,,,0000*1E
$GPGSA,A,3,17,12,06,24,,,,,,,,,13.2,5.6,12.0*37
$GPGSV,2,1,08,17,49,050,42,12,23,309,30,06,69,166,35,24,39,287,37*7A
$GPGSV,2,2,08,19,00,000,42,02,30,207,,28,27,115,,03,15,057,*74
$GPRMC,171848.558,A,3949.9583,N,10442.5053,W,013.1,335.5,080817,,,A*72
$GPGGA,171849.558,3949.9645,N,10442.5080,W,1,04,5.6,336.7,M,,,,0000*16
$GPGSA,A,3,17,12,06,24,,,,,,,,,13.2,5.6,12.0*37
$GPRMC,171849.558,A,3949.9645,N,10442.5080,W,013.4,335.5,080817,,,A*71
$GPGGA,171850.558,3949.9703,N,10442.5107,W,1,04,5.6,354.3,M,,,,0000*13
$GPGSA,A,3,17,12,06,24,,,,,,,,,13.2,5.6,12.0*37
$GPRMC,171850.558,A,3949.9703,N,10442.5107,W,013.5,335.9,080817,,,A*79
$GPGGA,171851.558,3949.9767,N,10442.5132,W,1,04,5.6,372.4,M,,,,0000*15
$GPGSA,A,3,17,12,06,24,,,,,,,,,13.3,5.6,12.0*36
$GPGSV,2,1,08,17,49,050,42,12,23,309,29,06,69,166,35,24,39,287,35*70
$GPGSV,2,2,08,19,00,000,42,02,30,207,,28,27,115,,03,15,057,*74
$GPRMC,171851.558,A,3949.9767,N,10442.5132,W,013.6,336.1,080817,,,A*74
$GPGGA,171852.558,3949.9824,N,10442.5161,W,1,04,5.6,390.3,M,,,,0000*13
$GPGSA,A,3,17,12,06,24,,,,,,,,,13.3,5.6,12.0*36
$GPRMC,171852.558,A,3949.9824,N,10442.5161,W,013.8,335.6,080817,,,A*73
$GPGGA,171853.558,3949.9882,N,10442.5190,W,1,04,5.6,408.7,M,,,,0000*12
$GPGSA,A,3,17,12,06,24,,,,,,,,,13.3,5.6,12.1*37
$GPRMC,171853.558,A,3949.9882,N,10442.5190,W,014.0,335.9,080817,,,A*70
$GPGGA,171854.558,3949.9944,N,10442.5220,W,1,04,5.6,428.8,M,,,,0000*1B
$GPGSA,A,3,17,12,06,24,,,,,,,,,13.3,5.6,12.1*37
$GPGSV,2,1,08,17,49,050,42,12,23,309,32,06,69,166,34,24,39,287,35*7B
$GPGSV,2,2,08,19,00,000,42,02,30,207,,28,27,115,,03,15,057,*74
$GPRMC,171854.558,A,3949.9944,N,10442.5220,W,014.3,335.8,080817,,,A*76
$GPGGA,171855.558,3950.0012,N,10442.5264,W,1,04,5.6,452.1,M,,,,0000*15
$GPGSA,A,3,17,12,06,24,,,,,,,,,13.3,5.6,12.1*37
$GPRMC,171855.558,A,3950.0012,N,10442.5264,W,014.7,335.0,080817,,,A*70
$GPGGA,171856.558,3950.0082,N,10442.5309,W,1,04,5.6,475.5,M,,,,0000*14
$GPGSA,A,3,17,12,06,24,,,,,,,,,13.4,5.6,12.1*30
$GPRMC,171856.558,A,3950.0082,N,10442.5309,W,015.0,334.6,080817,,,A*71
$GPGGA,171857.558,3950.0155,N,10442.5355,W,1,04,5.6,499.9,M,,,,0000*19
$GPGSA,A,3,17,12,06,24,,,,,,,,,13.4,5.6,12.1*30
$GPGSV,2,1,08,17,49,050,41,12,23,309,28,06,69,166,34,24,39,287,37*71
$GPGSV,2,2,08,19,00,000,42,02,30,207,,28,27,115,,03,15,057,*74
$GPRMC,171857.558,A,3950.0155,N,10442.5355,W,015.4,334.8,080817,,,A*78
$GPGGA,171858.558,3950.0230,N,10442.5392,W,1,04,5.6,525.4,M,,,,0000*16
$GPGSA,A,3,17,12,06,24,,,,,,,,,13.4,5.6,12.2*33
$GPRMC,171858.558,A,3950.0230,N,10442.5392,W,015.6,334.2,080817,,,A*74
$GPGGA,171859.558,3950.0305,N,10442.5428,W,1,04,5.7,550.3,M,,,,0000*12
$GPGSA,A,3,17,12,06,24,,,,,,,,,13.4,5.7,12.2*32
$GPRMC,171859.558,A,3950.0305,N,10442.5428,W,015.7,334.6,080817,,,A*71
$GPGGA,171900.558,3950.0372,N,10442.5474,W,1,04,5.7,575.5,M,,,,0000*17
$GPGSA,A,3,17,12,06,24,,,,,,,,,13.4,5.7,12.2*32
$GPGSV,2,1,08,17,49,050,41,12,23,309,26,06,69,166,34,24,39,287,37*7F
$GPGSV,2,2,08,19,00,000,42,02,30,207,,28,27,115,,03,15,057,*74
$GPRMC,171900.558,A,3950.0372,N,10442.5474,W,015.9,333.9,080817,,,A*73
$GPGGA,171901.558,3950.0437,N,10442.5508,W,1,04,5.7,599.4,M,,,,0000*19
$GPGSA,A,3,17,12,06,24,,,,,,,,,13.5,5.7,12.2*33
$GPRMC,171901.558,A,3950.0437,N,10442.5508,W,016.0,334.2,080817,,,A*78
$GPGGA,171902.558,3950.0506,N,10442.5551,W,1,04,5.7,626.8,M,,,,0000*1E
$GPGSA,A,3,17,12,06,24,,,,,,,,,13.5,5.7,12.2*33
$GPRMC,171902.558,A,3950.0506,N,10442.5551,W,016.1,335.1,080817,,,A*77
$GPGGA,171903.558,3950.0569,N,10442.5586,W,1,04,5.7,652.0,M,,,,0000*17
$GPGSA,A,3,17,12,06,24,,,,,,,,,13.5,5.7,12.2*33
$GPGSV,2,1,08,17,49,050,42,12,23,309,30,06,69,166,33,24,39,287,35*7E
$GPGSV,2,2,08,19,00,000,43,02,30,207,,28,27,115,,03,15,057,*75
$GPRMC,171903.558,A,3950.0569,N,10442.5586,W,016.2,334.6,080817,,,A*70
$GPGGA,171904.558,3950.1522,N,10442.6178,W,1,04,2.6,1137.7,M,,,,0000*2C
$GPGSA,A,3,17,06,24,19,,,,,,,,,6.6,2.6,6.1*3F
$GPRMC,171904.558,A,3950.1522,N,10442.6178,W,028.1,332.5,080817,,,A*74
$GPGGA,171905.558,3950.1708,N,10442.6315,W,1,05,2.6,1239.4,M,,,,0000*21
$GPGSA,A,3,17,12,06,24,19,,,,,,,,5.4,2.6,4.7*39
$GPRMC,171905.558,A,3950.1708,N,10442.6315,W,027.0,329.2,080817,,,A*75
$GPGGA,171906.558,3950.1856,N,10442.6413,W,1,05,2.6,1308.5,M,,,,0000*25
$GPGSA,A,3,17,12,06,24,19,,,,,,,,5.4,2.6,4.7*39
$GPGSV,2,1,08,17,49,050,42,12,23,309,29,06,69,166,33,24,39,287,34*77
$GPGSV,2,2,08,19,68,019,42,02,30,207,,28,27,115,,03,15,057,*72
$GPRMC,171906.558,A,3950.1856,N,10442.6413,W,026.4,329.1,080817,,,A*75
$GPGGA,171907.558,3950.1957,N,10442.6473,W,1,05,2.6,1362.8,M,,,,0000*23
$GPGSA,A,3,17,12,06,24,19,,,,,,,,5.4,2.6,4.7*39
$GPRMC,171907.558,A,3950.1957,N,10442.6473,W,024.9,329.1,080817,,,A*7D
$GPGGA,171908.558,3950.2051,N,10442.6534,W,1,05,2.6,1412.0,M,,,,0000*2A
$GPGSA,A,3,17,12,06,24,19,,,,,,,,5.4,2.6,4.7*39
$GPRMC,171908.558,A,3950.2051,N,10442.6534,W,023.2,328.4,080817,,,A*74
$GPGGA,171909.558,3950.2121,N,10442.6579,W,1,05,2.6,1449.9,M,,,,0000*23
$GPGSA,A,3,17,12,06,24,19,,,,,,,,5.4,2.6,4.7*39
$GPGSV,2,1,08,17,49,050,42,12,23,309,30,06,69,166,31,24,39,287,37*7E
$GPGSV,2,2,08,19,68,019,43,02,30,207,,28,27,116,,03,15,057,*70
$GPRMC,171909.558,A,3950.2121,N,10442.6579,W,020.7,327.4,080817,,,A*73
$GPGGA,171910.558,3950.2189,N,10442.6620,W,1,05,2.6,1485.9,M,,,,0000*26
$GPGSA,A,3,17,12,06,24,19,,,,,,,,5.4,2.6,4.7*39
$GPRMC,171910.558,A,3950.2189,N,10442.6620,W,019.6,330.9,080817,,,A*76
$GPGGA,171911.558,3950.2255,N,10442.6661,W,1,04,6.7,1511.2,M,,,,0000*23
$GPGSA,A,3,17,12,24,19,,,,,,,,,9.2,6.7,6.2*37
$GPRMC,171911.558,A,3950.2255,N,10442.6661,W,019.5,334.1,080817,,,A*7F
$GPGGA,171912.558,3950.2298,N,10442.6693,W,1,05,2.6,1530.3,M,,,,0000*2A
$GPGSA,A,3,17,12,06,24,19,,,,,,,,5.4,2.6,4.7*39
$GPGSV,2,1,08,17,49,050,40,12,23,309,26,06,69,166,33,24,39,287,33*7D
$GPGSV,2,2,08,19,68,019,40,02,31,207,,28,27,116,,03,15,057,*72
$GPRMC,171912.558,A,3950.2298,N,10442.6693,W,017.5,331.0,080817,,,A*7A
$GPGGA,171913.558,3950.2333,N,10442.6723,W,1,05,2.6,1547.1,M,,,,0000*23
$GPGSA,A,3,17,12,06,24,19,,,,,,,,5.4,2.6,4.7*39
$GPRMC,171913.558,A,3950.2333,N,10442.6723,W,016.3,328.9,080817,,,A*77
$GPGGA,171914.558,3950.2361,N,10442.6750,W,1,04,2.6,1563.0,M,,,,0000*21
$GPGSA,A,3,17,06,24,19,,,,,,,,,6.6,2.6,6.1*3F
$GPRMC,171914.558,A,3950.2361,N,10442.6750,W,014.5,328.0,080817,,,A*7E
$GPGGA,171915.558,3950.2389,N,10442.6779,W,1,05,2.6,1575.3,M,,,,0000*28
$GPGSA,A,3,17,12,06,24,19,,,,,,,,5.4,2.6,4.7*39
$GPGSV,2,1,08,17,49,050,44,12,23,309,28,06,70,166,28,24,39,287,32*74
$GPGSV,2,2,08,19,68,019,42,02,31,207,,28,27,116,,03,15,057,*70
$GPRMC,171915.558,A,3950.2389,N,10442.6779,W,013.9,326.1,080817,,,A*76
$GPGGA,171916.558,3950.2420,N,10442.6804,W,1,05,2.6,1587.4,M,,,,0000*20
$GPGSA,A,3,17,12,06,24,19,,,,,,,,5.4,2.6,4.7*39
$GPRMC,171916.558,A,3950.2420,N,10442.6804,W,013.6,326.3,080817,,,A*79
$GPGGA,171917.558,3950.2448,N,10442.6820,W,1,05,2.6,1597.2,M,,,,0000*2E
$GPGSA,A,3,17,12,06,24,19,,,,,,,,5.4,2.6,4.7*39
$GPRMC,171917.558,A,3950.2448,N,10442.6820,W,012.8,327.4,080817,,,A*79
$GPGGA,171918.558,3950.2483,N,10442.6845,W,1,05,2.6,1604.9,M,,,,0000*27
$GPGSA,A,3,17,12,06,24,19,,,,,,,,5.4,2.6,4.7*39
$GPGSV,2,1,08,17,49,050,31,12,23,309,39,06,70,166,33,24,39,287,26*79
$GPGSV,2,2,08,19,68,019,41,02,31,207,,28,27,116,,03,15,057,*73
$GPRMC,171918.558,A,3950.2483,N,10442.6845,W,013.1,325.6,080817,,,A*7A
$GPGGA,171919.558,3950.2540,N,10442.6866,W,1,05,2.6,1613.2,M,,,,0000*24
$GPGSA,A,3,17,12,06,24,19,,,,,,,,5.4,2.6,4.7*39
$GPRMC,171919.558,A,3950.2540,N,10442.6866,W,012.3,326.6,080817,,,A*74
$GPGGA,171920.558,3950.2585,N,10442.6877,W,1,05,2.6,1620.4,M,,,,0000*21
$GPGSA,A,3,17,12,06,24,19,,,,,,,,5.4,2.6,4.8*36
$GPRMC,171920.558,A,3950.2585,N,10442.6877,W,011.5,331.8,080817,,,A*7A
$GPGGA,171921.558,3950.2613,N,10442.6883,W,1,05,2.6,1626.2,M,,,,0000*27
$GPGSA,A,3,17,12,06,24,19,,,,,,,,5.4,2.6,4.8*36
$GPGSV,2,1,08,17,49,050,40,12,23,309,41,06,70,166,38,24,39,287,31*7D
$GPGSV,2,2,08,19,68,019,42,02,31,207,,28,27,116,,03,15,057,*70
$GPRMC,171921.558,A,3950.2613,N,10442.6883,W,010.9,335.3,080817,,,A*7E
$GPGGA,171922.558,3950.2639,N,10442.6890,W,1,05,2.6,1630.8,M,,,,0000*23
$GPGSA,A,3,17,12,06,24,19,,,,,,,,5.4,2.6,4.8*36
$GPRMC,171922.558,A,3950.2639,N,10442.6890,W,010.4,336.2,080817,,,A*78
$GPGGA,171923.558,3950.2669,N,10442.6897,W,1,05,2.6,1636.2,M,,,,0000*2C
$GPGSA,A,3,17,12,06,24,19,,,,,,,,5.4,2.6,4.8*36
$GPRMC,171923.558,A,3950.2669,N,10442.6897,W,009.6,336.3,080817,,,A*70
$GPGGA,171924.558,3950.2688,N,10442.6900,W,1,05,2.6,1639.7,M,,,,0000*21
$GPGSA,A,3,17,12,06,24,19,,,,,,,,5.4,2.6,4.8*36
$GPGSV,2,1,08,17,49,050,37,12,23,309,41,06,70,166,40,24,39,287,32*71
$GPGSV,2,2,08,19,68,019,41,02,31,207,,28,27,116,,03,15,057,*73
$GPRMC,171924.558,A,3950.2688,N,10442.6900,W,008.5,337.0,080817,,,A*77
$GPGGA,171925.558,3950.2705,N,10442.6904,W,1,05,2.6,1643.7,M,,,,0000*2D
$GPGSA,A,3,17,12,06,24,19,,,,,,,,5.4,2.6,4.8*36
$GPRMC,171925.558,A,3950.2705,N,10442.6904,W,007.6,337.4,080817,,,A*7E
$GPGGA,171926.558,3950.2726,N,10442.6902,W,1,05,2.6,1644.9,M,,,,0000*20
$GPGSA,A,3,17,12,06,24,19,,,,,,,,5.4,2.6,4.8*36
$GPRMC,171926.558,A,3950.2726,N,10442.6902,W,007.2,340.6,080817,,,A*7C
$GPGGA,171927.558,3950.2739,N,10442.6900,W,1,05,2.6,1645.8,M,,,,0000*2D
$GPGSA,A,3,17,12,06,24,19,,,,,,,,5.4,2.6,4.8*36
$GPGSV,2,1,08,17,49,050,38,12,23,309,39,06,70,166,40,24,39,287,31*72
$GPGSV,2,2,08,19,68,019,41,02,31,207,,28,27,116,,03,15,057,*73
$GPRMC,171927.558,A,3950.2739,N,10442.6900,W,006.7,341.7,080817,,,A*75
$GPGGA,171928.558,3950.2756,N,10442.6894,W,1,05,2.6,1646.1,M,,,,0000*2D
$GPGSA,A,3,17,12,06,24,19,,,,,,,,5.4,2.6,4.8*36
$GPRMC,171928.558,A,3950.2756,N,10442.6894,W,006.4,346.0,080817,,,A*7C
$GPGGA,171929.558,3950.2772,N,10442.6887,W,1,05,2.6,1645.7,M,,,,0000*2D
$GPGSA,A,3,17,12,06,24,19,,,,,,,,5.4,2.6,4.8*36
$GPRMC,171929.558,A,3950.2772,N,10442.6887,W,006.0,348.6,080817,,,A*75
$GPGGA,171930.558,3950.2783,N,10442.6885,W,1,05,2.6,1646.4,M,,,,0000*29
$GPGSA,A,3,17,12,06,24,19,,,,,,,,5.4,2.6,4.8*36
$GPGSV,2,1,08,17,49,050,38,12,23,309,39,06,70,166,40,24,39,287,34*77
$GPGSV,2,2,08,19,68,019,40,02,31,207,,28,27,116,,03,15,057,*72
$GPRMC,171930.558,A,3950.2783,N,10442.6885,W,005.3,348.0,080817,,,A*77
$GPGGA,171931.558,3950.2793,N,10442.6885,W,1,05,2.6,1647.3,M,,,,0000*2F
$GPGSA,A,3,17,12,06,24,19,,,,,,,,5.4,2.6,4.8*36
$GPRMC,171931.558,A,3950.2793,N,10442.6885,W,004.9,347.9,080817,,,A*7A
$GPGGA,171932.558,3950.2809,N,10442.6887,W,1,05,2.6,1647.5,M,,,,0000*24
$GPGSA,A,3,17,12,06,24,19,,,,,,,,5.4,2.6,4.8*36
$GPRMC,171932.558,A,3950.2809,N,10442.6887,W,005.6,345.3,080817,,,A*71
$GPGGA,171933.558,3950.2820,N,10442.6892,W,1,05,2.6,1643.9,M,,,,0000*22
$GPGSA,A,3,17,12,06,24,19,,,,,,,,5.4,2.6,4.8*36
$GPGSV,2,1,08,17,49,050,39,12,23,309,39,06,70,166,33,24,39,287,40*71
$GPGSV,2,2,08,19,68,019,44,02,31,207,,28,27,116,,03,15,057,*76
$GPRMC,171933.558,A,3950.2820,N,10442.6892,W,006.8,333.8,080817,,,A*78
$GPGGA,171934.558,3950.2835,N,10442.6906,W,1,05,2.6,1640.9,M,,,,0000*2E
$GPGSA,A,3,17,12,06,24,19,,,,,,,,5.4,2.6,4.8*36
$GPRMC,171934.558,A,3950.2835,N,10442.6906,W,008.7,318.7,080817,,,A*70
$GPGGA,171935.558,3950.2853,N,10442.6940,W,1,05,2.6,1641.3,M,,,,0000*26
$GPGSA,A,3,17,12,06,24,19,,,,,,,,5.4,2.6,4.8*36
$GPRMC,171935.558,A,3950.2853,N,10442.6940,W,011.0,304.3,080817,,,A*75
$GPGGA,171936.558,3950.2867,N,10442.6992,W,1,05,2.6,1642.5,M,,,,0000*28
$GPGSA,A,3,17,12,06,24,19,,,,,,,,5.4,2.6,4.8*36
$GPGSV,2,1,08,17,49,050,43,12,23,309,31,06,70,166,34,24,39,287,34*70
$GPGSV,2,2,08,19,68,019,42,02,31,207,,28,27,116,,03,15,057,*70
$GPRMC,171936.558,A,3950.2867,N,10442.6992,W,013.7,293.6,080817,,,A*71
$GPGGA,171937.558,3950.2868,N,10442.7044,W,1,05,2.6,1638.4,M,,,,0000*29
$GPGSA,A,3,17,12,06,24,19,,,,,,,,5.5,2.6,4.8*37
$GPRMC,171937.558,A,3950.2868,N,10442.7044,W,015.8,286.2,080817,,,A*75
$GPGGA,171938.558,3950.2873,N,10442.7116,W,1,05,2.6,1637.1,M,,,,0000*20
$GPGSA,A,3,17,12,06,24,19,,,,,,,,5.5,2.6,4.8*37
$GPRMC,171938.558,A,3950.2873,N,10442.7116,W,018.7,280.7,080817,,,A*77
$GPGGA,171939.558,3950.2875,N,10442.7198,W,1,05,2.6,1636.6,M,,,,0000*27
$GPGSA,A,3,17,12,06,24,19,,,,,,,,5.5,2.6,4.8*37
$GPGSV,2,1,08,17,49,050,43,12,23,309,33,06,70,166,35,24,39,287,37*70
$GPGSV,2,2,08,19,68,019,43,02,31,207,,28,27,116,,03,15,057,*71
$GPRMC,171939.558,A,3950.2875,N,10442.7198,W,021.2,276.8,080817,,,A*7F
$GPGGA,171940.558,3950.2879,N,10442.7286,W,1,05,2.6,1635.5,M,,,,0000*29
$GPGSA,A,3,17,12,06,24,19,,,,,,,,5.5,2.6,4.8*37
$GPRMC,171940.558,A,3950.2879,N,10442.7286,W,023.4,274.6,080817,,,A*79
$GPGGA,171941.558,3950.2881,N,10442.7376,W,1,04,2.6,1634.7,M,,,,0000*23
$GPGSA,A,3,17,06,24,19,,,,,,,,,6.6,2.6,6.1*3F
$GPRMC,171941.558,A,3950.2881,N,10442.7376,W,024.8,273.0,080817,,,A*7B
$GPGGA,171942.558,3950.2882,N,10442.7483,W,1,04,2.6,1634.0,M,,,,0000*29
$GPGSA,A,3,17,06,24,19,,,,,,,,,6.6,2.6,6.1*3F
$GPGSV,2,1,08,17,49,050,40,12,23,309,29,06,70,166,35,24,39,287,40*78
$GPGSV,2,2,08,19,68,019,38,02,31,207,,28,27,116,,03,15,057,*7D
$GPRMC,171942.558,A,3950.2882,N,10442.7483,W,027.1,272.2,080817,,,A*7F
$GPGGA,171943.558,3950.2885,N,10442.7586,W,1,04,2.6,1632.7,M,,,,0000*2A
$GPGSA,A,3,17,06,24,19,,,,,,,,,6.6,2.6,6.1*3F
$GPRMC,171943.558,A,3950.2885,N,10442.7586,W,028.1,271.5,080817,,,A*76
$GPGGA,171944.558,3950.2884,N,10442.7695,W,1,05,2.6,1631.1,M,,,,0000*29
$GPGSA,A,3,17,12,06,24,19,,,,,,,,5.5,2.6,4.8*37
$GPRMC,171944.558,A,3950.2884,N,10442.7695,W,029.0,271.0,080817,,,A*74
$GPGGA,171945.558,3950.2882,N,10442.7805,W,1,05,2.6,1629.0,M,,,,0000*21
$GPGSA,A,3,17,12,06,24,19,,,,,,,,5.5,2.6,4.8*37
$GPGSV,2,1,08,17,49,050,43,12,23,309,32,06,70,166,35,24,39,287,37*71
$GPGSV,2,2,08,19,68,019,43,02,31,207,,28,26,116,,03,15,057,*70
$GPRMC,171945.558,A,3950.2882,N,10442.7805,W,029.4,270.7,080817,,,A*76
$GPGGA,171946.558,3950.2880,N,10442.7911,W,1,05,2.6,1626.7,M,,,,0000*2C
$GPGSA,A,3,17,12,06,24,19,,,,,,,,5.5,2.6,4.8*37
$GPRMC,171946.558,A,3950.2880,N,10442.7911,W,029.4,270.5,080817,,,A*71
$GPGGA,171947.558,3950.2876,N,10442.8014,W,1,05,2.6,1624.6,M,,,,0000*24
$GPGSA,A,3,17,12,06,24,19,,,,,,,,5.5,2.6,4.8*37
$GPRMC,171947.558,A,3950.2876,N,10442.8014,W,029.0,270.3,080817,,,A*78
$GPGGA,171948.558,3950.2874,N,10442.8119,W,1,05,2.6,1622.8,M,,,,0000*2D
$GPGSA,A,3,17,12,06,24,19,,,,,,,,5.5,2.6,4.8*37
$GPGSV,2,1,08,17,49,050,43,12,23,309,30,06,70,166,34,24,39,287,37*72
$GPGSV,2,2,08,19,68,019,43,02,31,207,,28,26,116,,03,15,057,*70
$GPRMC,171948.558,A,3950.2874,N,10442.8119,W,029.1,270.6,080817,,,A*7D
$GPGGA,171949.558,3950.2874,N,10442.8231,W,1,05,2.6,1620.7,M,,,,0000*28
$GPGSA,A,3,17,12,06,24,19,,,,,,,,5.5,2.6,4.8*37
$GPRMC,171949.558,A,3950.2874,N,10442.8231,W,030.0,270.6,080817,,,A*7C
$GPGGA,171950.558,3950.2875,N,10442.8347,W,1,05,2.6,1619.4,M,,,,0000*28
$GPGSA,A,3,17,12,06,24,19,,,,,,,,5.5,2.6,4.8*37
$GPRMC,171950.558,A,3950.2875,N,10442.8347,W,031.3,270.7,080817,,,A*76
$GPGGA,171951.558,3950.2881,N,10442.8469,W,1,05,2.6,1619.1,M,,,,0000*2C
$GPGSA,A,3,17,12,06,24,19,,,,,,,,5.5,2.6,4.8*37
$GPGSV,2,1,08,17,49,050,43,12,23,309,28,06,70,166,34,24,39,287,36*7A
$GPGSV,2,2,08,19,68,019,43,02,31,207,,28,26,116,,03,15,057,*70
$GPRMC,171951.558,A,3950.2881,N,10442.8469,W,032.5,271.2,080817,,,A*76
$GPGGA,171952.558,3950.2886,N,10442.8591,W,1,05,2.6,1618.7,M,,,,0000*29
$GPGSA,A,3,17,12,06,24,19,,,,,,,,5.5,2.6,4.8*37
$GPRMC,171952.558,A,3950.2886,N,10442.8591,W,033.3,271.5,080817,,,A*74
$GPGGA,171953.558,3950.2891,N,10442.8721,W,1,05,2.6,1619.0,M,,,,0000*21
$GPGSA,A,3,17,12,06,24,19,,,,,,,,5.5,2.6,4.8*37
$GPRMC,171953.558,A,3950.2891,N,10442.8721,W,034.1,271.6,080817,,,A*7C
$GPGGA,171954.558,3950.2893,N,10442.8848,W,1,05,2.6,1617.6,M,,,,0000*2C
$GPGSA,A,3,17,12,06,24,19,,,,,,,,5.5,2.6,4.8*37
$GPGSV,2,1,08,17,49,050,42,12,23,309,32,06,70,166,35,24,39,287,39*7E
$GPGSV,2,2,08,19,68,019,43,02,31,207,,28,26,116,,03,15,057,*70
$GPRMC,171954.558,A,3950.2893,N,10442.8848,W,034.5,271.0,080817,,,A*7B
$GPGGA,171955.558,3950.2892,N,10442.8974,W,1,05,2.6,1616.9,M,,,,0000*2C
$GPGSA,A,3,17,12,06,24,19,,,,,,,,5.5,2.6,4.8*37
$GPRMC,171955.558,A,3950.2892,N,10442.8974,W,034.6,270.7,080817,,,A*70
$GPGGA,171956.558,3950.2894,N,10442.9104,W,1,05,2.6,1615.7,M,,,,0000*2A
$GPGSA,A,3,17,12,06,24,19,,,,,,,,5.5,2.6,4.8*37
$GPRMC,171956.558,A,3950.2894,N,10442.9104,W,035.1,270.4,080817,,,A*7E
$GPGGA,171957.558,3950.2892,N,10442.9236,W,1,05,2.6,1614.9,M,,,,0000*20
$GPGSA,A,3,17,12,06,24,19,,,,,,,,5.5,2.6,4.8*37
$GPGSV,2,1,08,17,49,050,42,12,24,309,31,06,70,166,34,24,39,287,39*7B
$GPGSV,2,2,08,19,68,019,44,02,31,207,,28,26,116,,03,15,057,*77
$GPRMC,171957.558,A,3950.2892,N,10442.9236,W,035.9,270.2,080817,,,A*75
$GPGGA,171958.558,3950.2893,N,10442.9370,W,1,05,2.6,1613.9,M,,,,0000*2A
$GPGSA,A,3,17,12,06,24,19,,,,,,,,5.5,2.6,4.8*37
$GPRMC,171958.558,A,3950.2893,N,10442.9370,W,036.8,270.2,080817,,,A*7A
$GPGGA,171959.558,3950.2896,N,10442.9512,W,1,05,2.6,1613.5,M,,,,0000*20
$GPGSA,A,3,17,12,06,24,19,,,,,,,,5.5,2.6,4.8*37
$GPRMC,171959.558,A,3950.2896,N,10442.9512,W,037.9,270.1,080817,,,A*7F
$GPGGA,172000.558,3950.2894,N,10442.9657,W,1,05,2.6,1614.0,M,,,,0000*24
$GPGSA,A,3,17,12,06,24,19,,,,,,,,5.5,2.6,4.8*37
$GPGSV,2,1,08,17,49,050,42,12,24,309,32,06,70,166,35,24,39,287,39*79
$GPGSV,2,2,08,19,68,019,43,02,31,207,,28,26,116,,03,15,057,*70
$GPRMC,172000.558,A,3950.2894,N,10442.9657,W,038.8,269.9,080817,,,A*77
$GPGGA,172001.558,3950.2893,N,10442.9804,W,1,05,2.6,1613.6,M,,,,0000*2B
$GPGSA,A,3,17,12,06,24,19,,,,,,,,5.5,2.6,4.8*37
$GPRMC,172001.558,A,3950.2893,N,10442.9804,W,039.6,269.5,080817,,,A*7A
$GPGGA,172002.558,3950.2888,N,10442.9951,W,1,05,2.6,1613.1,M,,,,0000*24
$GPGSA,A,3,17,12,06,24,19,,,,,,,,5.5,2.6,4.8*37
$GPRMC,172002.558,A,3950.2888,N,10442.9951,W,040.2,268.7,080817,,,A*7B
$GPGGA,172003.558,3950.2879,N,10443.0099,W,1,05,2.6,1612.3,M,,,,0000*2D
$GPGSA,A,3,17,12,06,24,19,,,,,,,,5.5,2.6,4.8*37
$GPGSV,2,1,08,17,49,050,38,12,24,309,33,06,70,166,35,24,40,287,39*7B
$GPGSV,2,2,08,19,68,019,43,02,31,207,,28,26,116,,03,15,057,*70
$GPRMC,172003.558,A,3950.2879,N,10443.0099,W,040.5,267.7,080817,,,A*79
$GPGGA,172004.558,3950.2866,N,10443.0248,W,1,05,2.6,1610.5,M,,,,0000*2E
$GPGSA,A,3,17,12,06,24,19,,,,,,,,5.5,2.6,4.8*37
$GPRMC,172004.558,A,3950.2866,N,10443.0248,W,041.1,266.4,080817,,,A*79
$GPGGA,172005.558,3950.2856,N,10443.0398,W,1,05,2.6,1610.0,M,,,,0000*25
$GPGSA,A,3,17,12,06,24,19,,,,,,,,5.5,2.6,4.8*37
$GPRMC,172005.558,A,3950.2856,N,10443.0398,W,041.5,265.5,080817,,,A*71
$GPGGA,172006.558,3950.2844,N,10443.0550,W,1,05,2.6,1610.1,M,,,,0000*26
$GPGSA,A,3,17,12,06,24,19,,,,,,,,5.5,2.6,4.8*37
$GPGSV,2,1,08,17,49,050,33,12,24,309,28,06,70,166,39,24,40,287,33*7C
$GPGSV,2,2,08,19,68,019,44,02,31,207,,28,26,116,,03,15,057,*77
$GPRMC,172006.558,A,3950.2844,N,10443.0550,W,041.8,263.9,080817,,,A*74
$GPGGA,172007.558,3950.2830,N,10443.0701,W,1,05,2.6,1610.0,M,,,,0000*23
$GPGSA,A,3,17,12,06,24,19,,,,,,,,5.5,2.6,4.8*37
$GPRMC,172007.558,A,3950.2830,N,10443.0701,W,041.9,262.1,080817,,,A*78
$GPGGA,172008.558,3950.2802,N,10443.0848,W,1,05,2.6,1609.1,M,,,,0000*26
$GPGSA,A,3,17,12,06,24,19,,,,,,,,5.5,2.6,4.8*37
$GPRMC,172008.558,A,3950.2802,N,10443.0848,W,041.9,259.9,080817,,,A*74
$GPGGA,172009.558,3950.2773,N,10443.0996,W,1,05,2.6,1608.7,M,,,,0000*2B
$GPGSA,A,3,17,12,06,24,19,,,,,,,,5.5,2.6,4.8*37
$GPGSV,2,1,08,17,49,050,34,12,24,309,29,06,70,166,42,24,40,287,25*71
$GPGSV,2,2,08,19,68,019,43,02,31,207,,28,26,116,,03,15,056,*71
$GPRMC,172009.558,A,3950.2773,N,10443.0996,W,042.0,257.9,080817,,,A*7A
$GPGGA,172010.558,3950.2740,N,10443.1143,W,1,05,2.7,1608.2,M,,,,0000*26
$GPGSA,A,3,17,12,06,24,19,,,,,,,,5.5,2.7,4.8*36
$GPRMC,172010.558,A,3950.2740,N,10443.1143,W,042.3,256.0,080817,,,A*78
$GPGGA,172011.558,3950.2706,N,10443.1299,W,1,04,2.7,1609.5,M,,,,0000*26
$GPGSA,A,3,17,06,24,19,,,,,,,,,6.6,2.7,6.1*3E
$GPRMC,172011.558,A,3950.2706,N,10443.1299,W,043.0,254.4,080817,,,A*7B
$GPGGA,172012.558,3950.2666,N,10443.1448,W,1,04,2.7,1609.6,M,,,,0000*2B
$GPGSA,A,3,17,06,24,19,,,,,,,,,6.6,2.7,6.1*3E
$GPGSV,2,1,08,17,49,050,34,12,24,309,21,06,70,165,42,24,40,287,32*7C
$GPGSV,2,2,08,19,68,019,40,02,31,207,,28,26,116,,03,15,056,*72
$GPRMC,172012.558,A,3950.2666,N,10443.1448,W,043.4,252.6,080817,,,A*75
$GPGGA,172013.558,3950.2621,N,10443.1595,W,1,04,2.7,1609.2,M,,,,0000*2C
$GPGSA,A,3,17,06,24,19,,,,,,,,,6.6,2.7,6.1*3E
$GPRMC,172013.558,A,3950.2621,N,10443.1595,W,043.7,250.8,080817,,,A*79
$GPGGA,172014.558,3950.2573,N,10443.1739,W,1,05,2.7,1610.5,M,,,,0000*25
$GPGSA,A,3,17,12,06,24,19,,,,,,,,5.5,2.7,4.8*36
$GPRMC,172014.558,A,3950.2573,N,10443.1739,W,043.5,248.5,080817,,,A*78
$GPGGA,172015.558,3950.2518,N,10443.1879,W,1,05,2.7,1611.7,M,,,,0000*21
$GPGSA,A,3,17,12,06,24,19,,,,,,,,5.5,2.7,4.8*36
$GPGSV,2,1,08,17,49,050,34,12,24,309,27,06,70,165,41,24,40,287,28*72
$GPGSV,2,2,08,19,68,019,38,02,31,207,,28,26,116,,03,15,056,*7D
$GPRMC,172015.558,A,3950.2518,N,10443.1879,W,043.3,246.4,080817,,,A*76
$GPGGA,172016.558,3950.2459,N,10443.2016,W,1,05,2.7,1612.6,M,,,,0000*26
$GPGSA,A,3,17,12,06,24,19,,,,,,,,5.5,2.7,4.8*36
$GPRMC,172016.558,A,3950.2459,N,10443.2016,W,043.4,244.2,080817,,,A*70
$GPGGA,172017.558,3950.2396,N,10443.2154,W,1,04,2.9,1613.3,M,,,,0000*2F
$GPGSA,A,3,17,12,06,19,,,,,,,,,5.8,2.9,5.1*3B
$GPRMC,172017.558,A,3950.2396,N,10443.2154,W,043.7,242.4,080817,,,A*71
$GPGGA,172018.558,3950.2327,N,10443.2286,W,1,05,2.7,1614.5,M,,,,0000*28
$GPGSA,A,3,17,12,06,24,19,,,,,,,,5.5,2.7,4.8*36
$GPGSV,2,1,08,17,49,050,34,12,24,309,38,06,70,165,42,24,40,287,26*71
$GPGSV,2,2,08,19,68,019,33,02,31,207,,28,26,116,,03,15,056,*76
$GPRMC,172018.558,A,3950.2327,N,10443.2286,W,043.8,240.2,080817,,,A*73
$GPGGA,172019.558,3950.2254,N,10443.2415,W,1,05,2.7,1616.7,M,,,,0000*20
$GPGSA,A,3,17,12,06,24,19,,,,,,,,5.5,2.7,4.8*36
$GPRMC,172019.558,A,3950.2254,N,10443.2415,W,043.9,237.4,080817,,,A*7C
$GPGGA,172020.558,3950.2178,N,10443.2540,W,1,05,2.7,1617.0,M,,,,0000*20
$GPGSA,A,3,17,12,06,24,19,,,,,,,,5.5,2.7,4.8*36
$GPRMC,172020.558,A,3950.2178,N,10443.2540,W,044.0,235.2,080817,,,A*70
$GPGGA,172021.558,3950.2101,N,10443.2666,W,1,05,2.7,1617.4,M,,,,0000*2C
$GPGSA,A,3,17,12,06,24,19,,,,,,,,5.5,2.7,4.8*36
$GPGSV,2,1,08,17,49,050,32,12,24,309,38,06,70,165,43,24,40,287,34*75
$GPGSV,2,2,08,19,68,020,32,02,31,207,,28,26,116,,03,15,056,*7D
$GPRMC,172021.558,A,3950.2101,N,10443.2666,W,044.3,234.3,080817,,,A*7B
$GPGGA,172022.558,3950.2024,N,10443.2796,W,1,05,2.7,1615.9,M,,,,0000*28
$GPGSA,A,3,17,12,06,24,19,,,,,,,,5.5,2.7,4.8*36
$GPRMC,172022.558,A,3950.2024,N,10443.2796,W,044.5,234.0,080817,,,A*75
$GPGGA,172023.558,3950.1947,N,10443.2927,W,1,05,2.7,1615.8,M,,,,0000*23
$GPGSA,A,3,17,12,06,24,19,,,,,,,,5.5,2.7,4.8*36
$GPRMC,172023.558,A,3950.1947,N,10443.2927,W,044.8,234.1,080817,,,A*73
$GPGGA,172024.558,3950.1870,N,10443.3056,W,1,04,2.9,1615.2,M,,,,0000*2A
$GPGSA,A,3,17,12,06,19,,,,,,,,,5.8,2.9,5.1*3B
$GPGSV,2,1,08,17,49,050,33,12,24,309,40,06,70,165,41,24,40,286,25*78
$GPGSV,2,2,08,19,68,020,35,02,31,207,,28,26,116,,03,15,056,*7A
$GPRMC,172024.558,A,3950.1870,N,10443.3056,W,045.0,234.0,080817,,,A*77
$GPGGA,172025.558,3950.1796,N,10443.3189,W,1,05,2.7,1616.3,M,,,,0000*22
$GPGSA,A,3,17,12,06,24,19,,,,,,,,5.5,2.7,4.8*36
$GPRMC,172025.558,A,3950.1796,N,10443.3189,W,045.1,234.4,080817,,,A*77
$GPGGA,172026.558,3950.1720,N,10443.3323,W,1,05,2.7,1615.3,M,,,,0000*2D
$GPGSA,A,3,17,12,06,24,19,,,,,,,,5.5,2.7,4.8*36
$GPRMC,172026.558,A,3950.1720,N,10443.3323,W,045.6,235.2,080817,,,A*7B
$GPGGA,172027.558,3950.1643,N,10443.3464,W,1,05,2.7,1614.4,M,,,,0000*2A
$GPGSA,A,3,17,12,06,24,19,,,,,,,,5.5,2.7,4.8*36
$GPGSV,2,1,08,17,49,050,33,12,24,309,38,06,70,165,39,24,40,286,33*7F
$GPGSV,2,2,08,19,68,020,36,02,31,207,,28,26,116,,03,15,056,*79
$GPRMC,172027.558,A,3950.1643,N,10443.3464,W,046.3,236.0,080817,,,A*7D
$GPGGA,172028.558,3950.1565,N,10443.3604,W,1,05,2.7,1610.5,M,,,,0000*23
$GPGSA,A,3,17,12,06,24,19,,,,,,,,5.5,2.7,4.8*36
$GPRMC,172028.558,A,3950.1565,N,10443.3604,W,046.8,237.0,080817,,,A*7B
$GPGGA,172029.558,3950.1501,N,10443.3752,W,1,05,2.7,1611.4,M,,,,0000*22
$GPGSA,A,3,17,12,06,24,19,,,,,,,,5.5,2.7,4.8*36
$GPRMC,172029.558,A,3950.1501,N,10443.3752,W,047.2,238.2,080817,,,A*7C
$GPGGA,172030.558,3950.1433,N,10443.3897,W,1,05,2.7,1609.9,M,,,,0000*28
$GPGSA,A,3,17,12,06,24,19,,,,,,,,5.5,2.7,4.8*36
$GPGSV,2,1,08,17,49,050,35,12,24,309,36,06,70,165,39,24,40,286,33*77
$GPGSV,2,2,08,19,68,020,37,02,31,208,,28,26,116,,03,15,056,*77
$GPRMC,172030.558,A,3950.1433,N,10443.3897,W,047.5,239.1,080817,,,A*77
$GPGGA,172031.558,3950.1360,N,10443.4048,W,1,05,2.7,1607.7,M,,,,0000*25
$GPGSA,A,3,17,12,06,24,19,,,,,,,,5.5,2.7,4.8*36
$GPRMC,172031.558,A,3950.1360,N,10443.4048,W,047.8,239.7,080817,,,A*71
$GPGGA,172032.558,3950.1295,N,10443.4199,W,1,05,2.7,1606.7,M,,,,0000*21
$GPGSA,A,3,17,12,06,24,19,,,,,,,,5.5,2.7,4.8*36
$GPRMC,172032.558,A,3950.1295,N,10443.4199,W,047.7,240.3,080817,,,A*71
$GPGGA,172033.558,3950.1223,N,10443.4345,W,1,05,2.7,1602.9,M,,,,0000*24
$GPGSA,A,3,17,12,06,24,19,,,,,,,,5.5,2.7,4.8*36
$GPGSV,2,1,08,17,49,050,35,12,24,309,38,06,70,165,39,24,40,286,33*79
$GPGSV,2,2,08,19,68,020,39,02,31,208,,28,26,116,,03,15,056,*79
$GPRMC,172033.558,A,3950.1223,N,10443.4345,W,047.8,240.5,080817,,,A*77
$GPGGA,172034.558,3950.1158,N,10443.4495,W,1,05,2.7,1602.4,M,,,,0000*2B
$GPGSA,A,3,17,12,06,24,19,,,,,,,,5.5,2.7,4.9*37
$GPRMC,172034.558,A,3950.1158,N,10443.4495,W,047.8,240.7,080817,,,A*77
$GPGGA,172035.558,3950.1093,N,10443.4648,W,1,05,2.7,1601.9,M,,,,0000*20
$GPGSA,A,3,17,12,06,24,19,,,,,,,,5.5,2.7,4.9*37
$GPRMC,172035.558,A,3950.1093,N,10443.4648,W,048.0,240.9,080817,,,A*7B
$GPGGA,172036.558,3950.1030,N,10443.4808,W,1,05,2.7,1602.9,M,,,,0000*23
$GPGSA,A,3,17,12,06,24,19,,,,,,,,5.5,2.7,4.9*37
$GPGSV,2,1,08,17,49,050,38,12,24,309,36,06,70,165,39,24,40,286,27*7F
$GPGSV,2,2,08,19,68,020,40,02,31,208,,28,26,116,,03,15,056,*77
$GPRMC,172036.558,A,3950.1030,N,10443.4808,W,048.1,241.3,080817,,,A*71
$GPGGA,172037.558,3950.0971,N,10443.4962,W,1,05,2.7,1602.5,M,,,,0000*2E
$GPGSA,A,3,17,12,06,24,19,,,,,,,,5.5,2.7,4.9*37
$GPRMC,172037.558,A,3950.0971,N,10443.4962,W,048.2,242.1,080817,,,A*72
$GPGGA,172038.558,3950.0913,N,10443.5114,W,1,05,2.7,1600.3,M,,,,0000*29
$GPGSA,A,3,17,12,06,24,19,,,,,,,,5.5,2.7,4.9*37
$GPRMC,172038.558,A,3950.0913,N,10443.5114,W,048.1,243.4,080817,,,A*76
$GPGGA,172039.558,3950.0863,N,10443.5277,W,1,05,2.7,1600.6,M,,,,0000*2D
$GPGSA,A,3,17,12,06,24,19,,,,,,,,5.5,2.7,4.9*37
$GPGSV,2,1,08,17,49,050,30,12,24,309,26,06,70,165,35,24,40,286,34*78
$GPGSV,2,2,08,19,68,020,43,02,31,208,,28,26,116,,03,15,056,*74
$GPRMC,172039.558,A,3950.0863,N,10443.5277,W,048.1,245.3,080817,,,A*76
$GPGGA,172040.558,3950.0816,N,10443.5444,W,1,05,2.7,1599.3,M,,,,0000*21
$GPGSA,A,3,17,12,06,24,19,,,,,,,,5.5,2.7,4.9*37
$GPRMC,172040.558,A,3950.0816,N,10443.5444,W,048.3,247.2,080817,,,A*7D
$GPGGA,172041.558,3950.0776,N,10443.5609,W,1,05,2.7,1598.4,M,,,,0000*24
$GPGSA,A,3,17,12,06,24,19,,,,,,,,5.5,2.7,4.9*37
$GPRMC,172041.558,A,3950.0776,N,10443.5609,W,048.2,249.2,080817,,,A*71
$GPGGA,172042.558,3950.0740,N,10443.5775,W,1,05,2.7,1595.0,M,,,,0000*21
$GPGSA,A,3,17,12,06,24,19,,,,,,,,5.5,2.7,4.9*37
$GPGSV,2,1,08,17,49,050,33,12,24,309,34,06,70,165,33,24,40,286,33*79
$GPGSV,2,2,08,19,67,020,45,02,31,208,,28,26,116,,03,15,056,*7D
$GPRMC,172042.558,A,3950.0740,N,10443.5775,W,048.1,251.5,080817,,,A*70
$GPGGA,172043.558,3950.0715,N,10443.5949,W,1,05,2.7,1594.9,M,,,,0000*29
$GPGSA,A,3,17,12,06,24,19,,,,,,,,5.5,2.7,4.9*37
$GPRMC,172043.558,A,3950.0715,N,10443.5949,W,047.7,254.0,080817,,,A*79
$GPGGA,172044.558,3950.0696,N,10443.6122,W,1,05,2.7,1594.4,M,,,,0000*2F
$GPGSA,A,3,17,12,06,24,19,,,,,,,,5.6,2.7,4.9*34
$GPRMC,172044.558,A,3950.0696,N,10443.6122,W,047.2,256.5,080817,,,A*70
$GPGGA,172045.558,3950.0688,N,10443.6292,W,1,05,2.7,1593.8,M,,,,0000*22
$GPGSA,A,3,17,12,06,24,19,,,,,,,,5.6,2.7,4.9*34
$GPGSV,2,1,08,17,49,050,32,12,24,309,26,06,70,165,35,24,40,286,38*76
$GPGSV,2,2,08,19,67,020,41,02,31,208,,28,26,116,,03,15,056,*79
$GPRMC,172045.558,A,3950.0688,N,10443.6292,W,046.8,259.4,080817,,,A*73
$GPGGA,172046.558,3950.0677,N,10443.6460,W,1,05,2.7,1592.7,M,,,,0000*24
$GPGSA,A,3,17,12,06,24,19,,,,,,,,5.6,2.7,4.9*34
$GPRMC,172046.558,A,3950.0677,N,10443.6460,W,046.6,261.2,080817,,,A*78
$GPGGA,172047.558,3950.0671,N,10443.6622,W,1,04,2.7,1590.4,M,,,,0000*27
$GPGSA,A,3,17,06,24,19,,,,,,,,,6.6,2.7,6.1*3E
$GPRMC,172047.558,A,3950.0671,N,10443.6622,W,046.1,262.8,080817,,,A*75
$GPGGA,172048.558,3950.0663,N,10443.6783,W,1,04,2.7,1588.8,M,,,,0000*24
$GPGSA,A,3,17,06,24,19,,,,,,,,,6.6,2.7,6.1*3E
$GPGSV,2,1,08,17,49,050,40,12,24,309,31,06,70,165,33,24,40,286,38*73
$GPGSV,2,2,08,19,67,020,41,02,31,208,,28,26,116,,03,15,056,*79
$GPRMC,172048.558,A,3950.0663,N,10443.6783,W,045.7,264.0,080817,,,A*78
$GPGGA,172049.558,3950.0656,N,10443.6946,W,1,05,2.7,1587.4,M,,,,0000*26
$GPGSA,A,3,17,12,06,24,19,,,,,,,,5.6,2.7,4.9*34
$GPRMC,172049.558,A,3950.0656,N,10443.6946,W,045.6,264.8,080817,,,A*71
$GPGGA,172050.558,3950.0650,N,10443.7111,W,1,05,2.7,1587.1,M,,,,0000*26
$GPGSA,A,3,17,12,06,24,19,,,,,,,,5.6,2.7,4.9*34
$GPRMC,172050.558,A,3950.0650,N,10443.7111,W,045.4,265.5,080817,,,A*7A
$GPGGA,172051.558,3950.0644,N,10443.7275,W,1,05,2.7,1586.8,M,,,,0000*2B
$GPGSA,A,3,17,12,06,24,19,,,,,,,,5.6,2.7,4.9*34
$GPGSV,2,1,08,17,49,050,35,12,24,309,31,06,70,165,29,24,40,286,31*73
$GPGSV,2,2,08,19,67,020,41,02,31,208,,28,26,116,,03,15,056,*79
$GPRMC,172051.558,A,3950.0644,N,10443.7275,W,045.3,265.8,080817,,,A*75
$GPGGA,172052.558,3950.0640,N,10443.7439,W,1,05,2.7,1586.2,M,,,,0000*28
$GPGSA,A,3,17,12,06,24,19,,,,,,,,5.6,2.7,4.9*34
$GPRMC,172052.558,A,3950.0640,N,10443.7439,W,045.1,266.3,080817,,,A*76
$GPGGA,172053.558,3950.0633,N,10443.7611,W,1,05,2.7,1586.8,M,,,,0000*2F
$GPGSA,A,3,17,12,06,24,19,,,,,,,,5.6,2.7,4.9*34
$GPRMC,172053.558,A,3950.0633,N,10443.7611,W,045.5,266.6,080817,,,A*7A
$GPGGA,172054.558,3950.0636,N,10443.7778,W,1,05,2.7,1586.4,M,,,,0000*2F
$GPGSA,A,3,17,12,06,24,19,,,,,,,,5.6,2.7,4.9*34
$GPGSV,2,1,08,17,49,050,40,12,24,309,25,06,70,165,34,24,40,286,34*7D
$GPGSV,2,2,08,19,67,020,41,02,31,208,,28,26,116,,03,15,056,*79
$GPRMC,172054.558,A,3950.0636,N,10443.7778,W,045.8,267.3,080817,,,A*7F
$GPGGA,172055.558,3950.0642,N,10443.7949,W,1,05,2.7,1588.0,M,,,,0000*2B
$GPGSA,A,3,17,12,06,24,19,,,,,,,,5.6,2.7,4.9*34
$GPRMC,172055.558,A,3950.0642,N,10443.7949,W,046.3,268.0,080817,,,A*75
$GPGGA,172056.558,3950.0655,N,10443.8123,W,1,05,2.7,1588.7,M,,,,0000*22
$GPGSA,A,3,17,12,06,24,19,,,,,,,,5.6,2.7,4.9*34
$GPRMC,172056.558,A,3950.0655,N,10443.8123,W,047.2,268.6,080817,,,A*7D
$GPGGA,172057.558,3950.0658,N,10443.8305,W,1,05,2.7,1591.3,M,,,,0000*24
$GPGSA,A,3,17,12,06,24,19,,,,,,,,5.6,2.7,4.9*34
$GPGSV,2,1,08,17,49,050,43,12,24,309,33,06,70,165,35,24,40,286,35*79
$GPGSV,2,2,08,19,67,020,44,02,31,208,,28,26,116,,03,15,056,*7C
$GPRMC,172057.558,A,3950.0658,N,10443.8305,W,048.0,268.7,080817,,,A*7B
$GPGGA,172058.558,3950.0659,N,10443.8487,W,1,05,2.7,1592.7,M,,,,0000*20
$GPGSA,A,3,17,12,06,24,19,,,,,,,,5.6,2.7,4.9*34
$GPRMC,172058.558,A,3950.0659,N,10443.8487,W,048.7,268.8,080817,,,A*70
$GPGGA,172059.558,3950.0659,N,10443.8666,W,1,05,2.7,1594.2,M,,,,0000*2F
$GPGSA,A,3,17,12,06,24,19,,,,,,,,5.6,2.7,4.9*34
$GPRMC,172059.558,A,3950.0659,N,10443.8666,W,049.1,268.8,080817,,,A*7B
$GPGGA,172100.558,3950.0657,N,10443.8843,W,1,04,2.7,1594.6,M,,,,0000*20
$GPGSA,A,3,17,06,24,19,,,,,,,,,6.6,2.7,6.1*3E
$GPGSV,2,1,08,17,49,050,41,12,24,309,25,06,70,165,34,24,40,286,34*7C
$GPGSV,2,2,08,19,67,020,43,02,31,208,,28,26,116,,03,15,056,*7B
$GPRMC,172100.558,A,3950.0657,N,10443.8843,W,049.2,268.8,080817,,,A*72
$GPGGA,172101.558,3950.0656,N,10443.9021,W,1,05,2.7,1594.8,M,,,,0000*22
$GPGSA,A,3,17,12,06,24,19,,,,,,,,5.6,2.7,4.9*34
$GPRMC,172101.558,A,3950.0656,N,10443.9021,W,049.2,269.0,080817,,,A*76
$GPGGA,172102.558,3950.0654,N,10443.9196,W,1,05,2.7,1595.0,M,,,,0000*27
$GPGSA,A,3,17,12,06,24,19,,,,,,,,5.6,2.7,4.9*34
$GPRMC,172102.558,A,3950.0654,N,10443.9196,W,048.9,269.1,080817,,,A*71
$GPGGA,172103.558,3950.0658,N,10443.9372,W,1,05,2.7,1595.7,M,,,,0000*25
$GPGSA,A,3,17,12,06,24,19,,,,,,,,5.6,2.7,4.9*34
$GPGSV,2,1,08,17,49,050,44,12,24,309,30,06,70,165,33,24,40,286,32*7C
$GPGSV,2,2,08,19,67,020,44,02,31,208,,28,26,116,,03,15,056,*7C
$GPRMC,172103.558,A,3950.0658,N,10443.9372,W,048.6,269.3,080817,,,A*79
$GPGGA,172104.558,3950.0666,N,10443.9553,W,1,05,2.7,1598.8,M,,,,0000*28
$GPGSA,A,3,17,12,06,24,19,,,,,,,,5.6,2.7,4.9*34
$GPRMC,172104.558,A,3950.0666,N,10443.9553,W,048.7,269.6,080817,,,A*72
$GPGGA,172105.558,3950.0672,N,10443.9728,W,1,05,2.7,1599.4,M,,,,0000*2F
$GPGSA,A,3,17,12,06,24,19,,,,,,,,5.6,2.7,4.9*34
$GPRMC,172105.558,A,3950.0672,N,10443.9728,W,048.6,269.9,080817,,,A*76
$GPGGA,172106.558,3950.0676,N,10443.9902,W,1,05,2.7,1599.4,M,,,,0000*2E
$GPGSA,A,3,17,12,06,24,19,,,,,,,,5.6,2.7,4.9*34
$GPGSV,2,1,08,17,49,050,44,12,24,309,32,06,70,165,34,24,40,286,36*7D
$GPGSV,2,2,08,19,67,020,44,02,31,208,,28,26,116,,03,15,056,*7C
$GPRMC,172106.558,A,3950.0676,N,10443.9902,W,048.5,270.0,080817,,,A*75
$GPGGA,172107.558,3950.0676,N,10444.0077,W,1,05,2.7,1598.3,M,,,,0000*2C
$GPGSA,A,3,17,12,06,24,19,,,,,,,,5.6,2.7,4.9*34
$GPRMC,172107.558,A,3950.0676,N,10444.0077,W,048.5,270.1,080817,,,A*70
