$GPGGA,175327.304,3804.9587,N,12255.9538,W,1,07,1.0,-29.1,M,,,,0000*04
$GPGSA,A,3,21,05,25,26,29,02,15,,,,,,2.0,1.0,1.7*3F
$GPRMC,175327.304,A,3804.9587,N,12255.9538,W,000.0,000.0,290918,,,A*7F
$GPGGA,175328.304,3804.9587,N,12255.9538,W,1,07,1.0,-29.1,M,,,,0000*0B
$GPGSA,A,3,21,05,25,26,29,02,15,,,,,,2.0,1.0,1.7*3F
$GPGSV,2,1,08,21,46,280,40,05,36,050,41,25,33,190,38,26,29,307,34*75
$GPGSV,2,2,08,29,76,053,38,02,10,071,40,15,18,140,41,13,00,000,28*72
$GPRMC,175328.304,A,3804.9587,N,12255.9538,W,001.1,222.5,290918,,,A*77
$GPGGA,175329.304,3804.9587,N,12255.9538,W,1,07,1.0,-29.1,M,,,,0000*0A
$GPGSA,A,3,21,05,25,26,29,02,15,,,,,,2.0,1.0,1.7*3F
$GPRMC,175329.304,A,3804.9587,N,12255.9538,W,000.0,222.5,290918,,,A*76
$GPGGA,175330.304,3804.9587,N,12255.9538,W,1,07,1.0,-29.1,M,,,,0000*02
$GPGSA,A,3,21,05,25,26,29,02,15,,,,,,2.0,1.0,1.7*3F
$GPRMC,175330.304,A,3804.9587,N,12255.9538,W,000.0,222.5,290918,,,A*7E
$GPGGA,175331.304,3804.9587,N,12255.9538,W,1,07,1.0,-29.1,M,,,,0000*03
$GPGSA,A,3,21,05,25,26,29,02,15,,,,,,2.0,1.0,1.7*3F
$GPGSV,2,1,08,21,46,280,40,05,36,050,32,25,33,190,38,26,29,307,38*7D
$GPGSV,2,2,08,29,76,053,45,02,10,071,34,15,18,140,38,13,00,000,33*7F
$GPRMC,175331.304,A,3804.9587,N,12255.9538,W,000.0,222.5,290918,,,A*7F
$GPGGA,175332.304,3804.9587,N,12255.9538,W,1,07,1.0,-29.1,M,,,,0000*00
$GPGSA,A,3,21,05,25,26,29,02,15,,,,,,2.0,1.0,1.7*3F
$GPRMC,175332.304,A,3804.9587,N,12255.9538,W,000.0,222.5,290918,,,A*7C
$GPGGA,175333.304,3804.9587,N,12255.9538,W,1,07,1.0,-29.1,M,,,,0000*01
$GPGSA,A,3,21,05,25,26,29,02,15,,,,,,2.0,1.0,1.7*3F
$GPRMC,175333.304,A,3804.9587,N,12255.9538,W,000.9,232.8,290918,,,A*78
$GPGGA,175334.304,3804.9587,N,12255.9538,W,1,07,1.0,-29.2,M,,,,0000*05
$GPGSA,A,3,21,05,25,26,29,02,15,,,,,,2.0,1.0,1.7*3F
$GPGSV,2,1,08,21,46,280,38,05,36,050,41,25,33,190,36,26,29,307,38*78
$GPGSV,2,2,08,29,76,054,45,02,10,071,33,15,18,140,39,13,00,000,33*7E
$GPRMC,175334.304,A,3804.9587,N,12255.9538,W,001.0,237.3,290918,,,A*79
$GPGGA,175335.304,3804.9587,N,12255.9538,W,1,07,1.0,-29.2,M,,,,0000*04
$GPGSA,A,3,21,05,25,26,29,02,15,,,,,,2.0,1.0,1.7*3F
$GPRMC,175335.304,A,3804.9587,N,12255.9538,W,000.0,237.3,290918,,,A*79
$GPGGA,175336.304,3804.9587,N,12255.9538,W,1,07,1.0,-29.2,M,,,,0000*07
$GPGSA,A,3,21,05,25,26,29,02,15,,,,,,2.0,1.0,1.7*3F
$GPRMC,175336.304,A,3804.9587,N,12255.9538,W,000.0,237.3,290918,,,A*7A
$GPGGA,175337.304,3804.9587,N,12255.9538,W,1,07,1.0,-29.2,M,,,,0000*06
$GPGSA,A,3,21,05,25,26,29,02,15,,,,,,2.0,1.0,1.7*3F
$GPGSV,2,1,08,21,46,280,39,05,36,050,40,25,33,190,37,26,29,307,35*74
$GPGSV,2,2,08,29,76,054,42,02,10,071,34,15,18,140,39,13,00,000,33*7E
$GPRMC,175337.304,A,3804.9587,N,12255.9538,W,000.0,237.3,290918,,,A*7B
$GPGGA,175338.304,3804.9587,N,12255.9538,W,1,07,1.0,-29.2,M,,,,0000*09
$GPGSA,A,3,21,05,25,26,29,02,15,,,,,,2.0,1.0,1.7*3F
$GPRMC,175338.304,A,3804.9587,N,12255.9538,W,000.0,237.3,290918,,,A*74
$GPGGA,175339.304,3804.9587,N,12255.9538,W,1,07,1.0,-29.2,M,,,,0000*08
$GPGSA,A,3,21,05,25,26,29,02,15,,,,,,2.0,1.0,1.7*3F
$GPRMC,175339.304,A,3804.9587,N,12255.9538,W,000.0,237.3,290918,,,A*75
$GPGGA,175340.304,3804.9587,N,12255.9538,W,1,07,1.0,-29.2,M,,,,0000*06
$GPGSA,A,3,21,05,25,26,29,02,15,,,,,,2.0,1.0,1.7*3F
$GPGSV,2,1,08,21,46,280,39,05,36,050,35,25,33,190,37,26,29,307,34*77
$GPGSV,2,2,08,29,76,054,45,02,10,071,37,15,18,140,39,13,00,000,34*7D
$GPRMC,175340.304,A,3804.9587,N,12255.9538,W,000.0,237.3,290918,,,A*7B
$GPGGA,175341.304,3804.9586,N,12255.9538,W,1,07,1.0,-29.2,M,,,,0000*06
$GPGSA,A,3,21,05,25,26,29,02,15,,,,,,2.0,1.0,1.7*3F
$GPRMC,175341.304,A,3804.9586,N,12255.9538,W,000.0,237.3,290918,,,A*7B
$GPGGA,175342.304,3804.9586,N,12255.9538,W,1,07,1.0,-29.2,M,,,,0000*05
$GPGSA,A,3,21,05,25,26,29,02,15,,,,,,2.0,1.0,1.7*3F
$GPRMC,175342.304,A,3804.9586,N,12255.9538,W,000.0,237.3,290918,,,A*78
$GPGGA,175343.304,3804.9586,N,12255.9538,W,1,07,1.0,-29.2,M,,,,0000*04
$GPGSA,A,3,21,05,25,26,29,02,15,,,,,,2.0,1.0,1.7*3F
$GPGSV,2,1,08,21,46,280,34,05,36,050,40,25,33,190,38,26,29,307,32*71
$GPGSV,2,2,08,29,76,054,35,02,10,071,38,15,18,140,41,13,00,000,32*7C
$GPRMC,175343.304,A,3804.9586,N,12255.9538,W,000.0,237.3,290918,,,A*79
$GPGGA,175344.304,3804.9586,N,12255.9538,W,1,07,1.0,-29.2,M,,,,0000*03
$GPGSA,A,3,21,05,25,26,29,02,15,,,,,,2.0,1.0,1.7*3F
$GPRMC,175344.304,A,3804.9586,N,12255.9538,W,000.0,237.3,290918,,,A*7E
$GPGGA,175345.304,3804.9586,N,12255.9538,W,1,07,1.0,-29.2,M,,,,0000*02
$GPGSA,A,3,21,05,25,26,29,02,15,,,,,,2.0,1.0,1.7*3F
$GPRMC,175345.304,A,3804.9586,N,12255.9538,W,000.0,237.3,290918,,,A*7F
$GPGGA,175346.304,3804.9586,N,12255.9538,W,1,07,1.0,-29.2,M,,,,0000*01
$GPGSA,A,3,21,05,25,26,29,02,15,,,,,,2.0,1.0,1.7*3F
$GPGSV,2,1,08,21,46,280,39,05,36,050,40,25,33,190,35,26,29,307,33*70
$GPGSV,2,2,08,29,76,054,38,02,10,071,34,15,18,140,41,13,00,000,25*7B
$GPRMC,175346.304,A,3804.9586,N,12255.9538,W,000.0,237.3,290918,,,A*7C
$GPGGA,175347.304,3804.9586,N,12255.9538,W,1,07,1.0,-29.3,M,,,,0000*01
$GPGSA,A,3,21,05,25,26,29,02,15,,,,,,2.0,1.0,1.7*3F
$GPRMC,175347.304,A,3804.9586,N,12255.9538,W,000.0,237.3,290918,,,A*7D
$GPGGA,175348.304,3804.9586,N,12255.9538,W,1,07,1.0,-29.3,M,,,,0000*0E
$GPGSA,A,3,21,05,25,26,29,02,15,,,,,,2.0,1.0,1.7*3F
$GPRMC,175348.304,A,3804.9586,N,12255.9538,W,000.8,208.1,290918,,,A*74
$GPGGA,175349.304,3804.9586,N,12255.9538,W,1,07,1.0,-29.3,M,,,,0000*0F
$GPGSA,A,3,21,05,25,26,29,02,15,,,,,,2.0,1.0,1.7*3F
$GPGSV,2,1,08,21,46,280,40,05,36,050,40,25,33,190,35,26,29,307,34*79
$GPGSV,2,2,08,29,76,054,44,02,10,071,37,15,18,140,40,13,00,000,37*71
$GPRMC,175349.304,A,3804.9586,N,12255.9538,W,000.0,208.1,290918,,,A*7D
$GPGGA,175350.304,3804.9586,N,12255.9538,W,1,07,1.0,-29.3,M,,,,0000*07
$GPGSA,A,3,21,05,25,26,29,02,15,,,,,,2.0,1.0,1.7*3F
$GPRMC,175350.304,A,3804.9586,N,12255.9538,W,000.0,208.1,290918,,,A*75
$GPGGA,175351.304,3804.9586,N,12255.9538,W,1,06,1.1,-29.3,M,,,,0000*06
$GPGSA,A,3,21,05,25,26,29,15,,,,,,,2.4,1.1,2.1*3D
$GPRMC,175351.304,A,3804.9586,N,12255.9538,W,000.0,208.1,290918,,,A*74
$GPGGA,175352.304,3804.9582,N,12255.9541,W,1,08,1.0,-29.7,M,,,,0000*04
$GPGSA,A,3,21,05,25,26,29,02,15,13,,,,,2.0,1.0,1.7*3D
$GPGSV,2,1,08,21,46,280,41,05,36,050,37,25,33,190,32,26,29,307,37*7C
$GPGSV,2,2,08,29,76,054,42,02,10,071,24,15,18,140,40,13,15,099,33*75
$GPRMC,175352.304,A,3804.9582,N,12255.9541,W,000.0,208.1,290918,,,A*7D
$GPGGA,175353.304,3804.9582,N,12255.9543,W,1,08,1.0,-29.9,M,,,,0000*09
$GPGSA,A,3,21,05,25,26,29,02,15,13,,,,,2.0,1.0,1.7*3D
$GPRMC,175353.304,A,3804.9582,N,12255.9543,W,000.0,208.1,290918,,,A*7E
$GPGGA,175354.304,3804.9581,N,12255.9543,W,1,08,1.0,-29.7,M,,,,0000*03
$GPGSA,A,3,21,05,25,26,29,02,15,13,,,,,2.0,1.0,1.7*3D
$GPRMC,175354.304,A,3804.9581,N,12255.9543,W,000.0,208.1,290918,,,A*7A
$GPGGA,175355.304,3804.9580,N,12255.9543,W,1,08,1.0,-29.8,M,,,,0000*0C
$GPGSA,A,3,21,05,25,26,29,02,15,13,,,,,2.0,1.0,1.7*3D
$GPGSV,2,1,08,21,46,280,40,05,36,050,29,25,33,190,34,26,29,307,37*74
$GPGSV,2,2,08,29,76,054,41,02,10,071,34,15,18,140,40,13,15,099,28*7D
$GPRMC,175355.304,A,3804.9580,N,12255.9543,W,000.0,208.1,290918,,,A*7A
$GPGGA,175356.304,3804.9580,N,12255.9543,W,1,08,1.0,-29.7,M,,,,0000*00
$GPGSA,A,3,21,05,25,26,29,02,15,13,,,,,2.0,1.0,1.7*3D
$GPRMC,175356.304,A,3804.9580,N,12255.9543,W,000.0,208.1,290918,,,A*79
$GPGGA,175357.304,3804.9578,N,12255.9543,W,1,08,1.0,-29.7,M,,,,0000*06
$GPGSA,A,3,21,05,25,26,29,02,15,13,,,,,2.0,1.0,1.7*3D
$GPRMC,175357.304,A,3804.9578,N,12255.9543,W,000.0,208.1,290918,,,A*7F
$GPGGA,175358.304,3804.9578,N,12255.9542,W,1,07,1.0,-29.5,M,,,,0000*05
$GPGSA,A,3,21,05,25,26,29,02,15,,,,,,2.0,1.0,1.7*3F
$GPGSV,2,1,08,21,46,280,39,05,36,050,38,25,33,190,34,26,29,307,37*7A
$GPGSV,2,2,08,29,76,054,44,02,10,071,33,15,18,140,35,13,15,099,26*73
$GPRMC,175358.304,A,3804.9578,N,12255.9542,W,000.0,208.1,290918,,,A*71
$GPGGA,175359.304,3804.9578,N,12255.9542,W,1,08,1.0,-29.5,M,,,,0000*0B
$GPGSA,A,3,21,05,25,26,29,02,15,13,,,,,2.0,1.0,1.7*3D
$GPRMC,175359.304,A,3804.9578,N,12255.9542,W,000.0,208.1,290918,,,A*70
$GPGGA,175400.304,3804.9578,N,12255.9542,W,1,08,1.0,-29.5,M,,,,0000*00
$GPGSA,A,3,21,05,25,26,29,02,15,13,,,,,2.0,1.0,1.7*3D
$GPRMC,175400.304,A,3804.9578,N,12255.9542,W,000.0,208.1,290918,,,A*7B
$GPGGA,175401.304,3804.9578,N,12255.9543,W,1,08,1.0,-29.6,M,,,,0000*03
$GPGSA,A,3,21,05,25,26,29,02,15,13,,,,,2.0,1.0,1.7*3D
$GPGSV,2,1,08,21,46,280,40,05,36,050,39,25,33,190,36,26,29,307,35*75
$GPGSV,2,2,08,29,76,054,43,02,10,071,34,15,18,140,33,13,15,099,28*7B
$GPRMC,175401.304,A,3804.9578,N,12255.9543,W,000.0,208.1,290918,,,A*7B
$GPGGA,175402.304,3804.9578,N,12255.9543,W,1,08,1.0,-29.5,M,,,,0000*03
$GPGSA,A,3,21,05,25,26,29,02,15,13,,,,,2.0,1.0,1.7*3D
$GPRMC,175402.304,A,3804.9578,N,12255.9543,W,000.0,208.1,290918,,,A*78
$GPGGA,175403.304,3804.9578,N,12255.9543,W,1,08,1.0,-29.5,M,,,,0000*02
$GPGSA,A,3,21,05,25,26,29,02,15,13,,,,,2.0,1.0,1.7*3D
$GPRMC,175403.304,A,3804.9578,N,12255.9543,W,000.0,208.1,290918,,,A*79
$GPGGA,175404.304,3804.9578,N,12255.9543,W,1,08,1.0,-29.5,M,,,,0000*05
$GPGSA,A,3,21,05,25,26,29,02,15,13,,,,,2.0,1.0,1.7*3D
$GPGSV,2,1,08,21,46,280,41,05,36,049,41,25,33,190,37,26,29,307,35*72
$GPGSV,2,2,08,29,76,054,41,02,10,071,32,15,18,140,30,13,15,099,29*7D
$GPRMC,175404.304,A,3804.9578,N,12255.9543,W,000.0,208.1,290918,,,A*7E
$GPGGA,175405.304,3804.9578,N,12255.9543,W,1,08,1.0,-29.5,M,,,,0000*04
$GPGSA,A,3,21,05,25,26,29,02,15,13,,,,,2.0,1.0,1.7*3D
$GPRMC,175405.304,A,3804.9578,N,12255.9543,W,000.0,208.1,290918,,,A*7F
$GPGGA,175406.304,3804.9578,N,12255.9543,W,1,08,1.0,-29.5,M,,,,0000*07
$GPGSA,A,3,21,05,25,26,29,02,15,13,,,,,2.0,1.0,1.7*3D
$GPRMC,175406.304,A,3804.9578,N,12255.9543,W,000.0,208.1,290918,,,A*7C
$GPGGA,175407.304,3804.9578,N,12255.9543,W,1,08,1.0,-29.5,M,,,,0000*06
$GPGSA,A,3,21,05,25,26,29,02,15,13,,,,,2.0,1.0,1.7*3D
$GPGSV,2,1,08,21,46,281,42,05,36,049,40,25,33,190,35,26,29,307,37*71
$GPGSV,2,2,08,29,76,054,41,02,10,071,28,15,18,140,35,13,15,099,28*72
$GPRMC,175407.304,A,3804.9578,N,12255.9543,W,000.0,208.1,290918,,,A*7D
$GPGGA,175408.304,3804.9578,N,12255.9543,W,1,08,1.0,-29.5,M,,,,0000*09
$GPGSA,A,3,21,05,25,26,29,02,15,13,,,,,2.0,1.0,1.7*3D
$GPRMC,175408.304,A,3804.9578,N,12255.9543,W,000.0,208.1,290918,,,A*72
$GPGGA,175409.304,3804.9578,N,12255.9543,W,1,08,1.0,-29.6,M,,,,0000*0B
$GPGSA,A,3,21,05,25,26,29,02,15,13,,,,,2.0,1.0,1.7*3D
$GPRMC,175409.304,A,3804.9578,N,12255.9543,W,000.0,208.1,290918,,,A*73
$GPGGA,175410.304,3804.9578,N,12255.9543,W,1,08,1.0,-29.6,M,,,,0000*03
$GPGSA,A,3,21,05,25,26,29,02,15,13,,,,,2.0,1.0,1.7*3D
$GPGSV,2,1,08,21,46,281,42,05,36,049,41,25,33,190,34,26,29,306,37*70
$GPGSV,2,2,08,29,76,054,41,02,10,071,27,15,18,140,35,13,15,099,29*7C
$GPRMC,175410.304,A,3804.9578,N,12255.9543,W,000.0,208.1,290918,,,A*7B
$GPGGA,175411.304,3804.9578,N,12255.9543,W,1,08,1.0,-29.6,M,,,,0000*02
$GPGSA,A,3,21,05,25,26,29,02,15,13,,,,,2.0,1.0,1.7*3D
$GPRMC,175411.304,A,3804.9578,N,12255.9543,W,000.0,208.1,290918,,,A*7A
$GPGGA,175412.304,3804.9578,N,12255.9543,W,1,08,1.0,-29.6,M,,,,0000*01
$GPGSA,A,3,21,05,25,26,29,02,15,13,,,,,2.0,1.0,1.7*3D
$GPRMC,175412.304,A,3804.9578,N,12255.9543,W,000.0,208.1,290918,,,A*79
$GPGGA,175413.304,3804.9577,N,12255.9543,W,1,08,1.0,-29.6,M,,,,0000*0F
$GPGSA,A,3,21,05,25,26,29,02,15,13,,,,,2.0,1.0,1.7*3D
$GPGSV,2,1,08,21,46,281,40,05,36,049,40,25,33,190,33,26,29,306,31*72
$GPGSV,2,2,08,29,76,055,41,02,10,071,30,15,18,140,33,13,15,099,30*75
$GPRMC,175413.304,A,3804.9577,N,12255.9543,W,000.0,208.1,290918,,,A*77
$GPGGA,175414.304,3804.9577,N,12255.9543,W,1,07,1.1,-29.6,M,,,,0000*06
$GPGSA,A,3,21,05,25,26,29,15,13,,,,,,2.2,1.1,1.9*32
$GPRMC,175414.304,A,3804.9577,N,12255.9543,W,000.9,236.2,290918,,,A*77
$GPGGA,175415.304,3804.9577,N,12255.9543,W,1,08,1.0,-29.6,M,,,,0000*09
$GPGSA,A,3,21,05,25,26,29,02,15,13,,,,,2.0,1.0,1.7*3D
$GPRMC,175415.304,A,3804.9577,N,12255.9543,W,001.1,239.1,290918,,,A*73
$GPGGA,175416.304,3804.9577,N,12255.9543,W,1,08,1.0,-29.6,M,,,,0000*0A
$GPGSA,A,3,21,05,25,26,29,02,15,13,,,,,2.0,1.0,1.7*3D
$GPGSV,2,1,08,21,46,281,41,05,36,049,37,25,33,190,37,26,29,306,31*77
$GPGSV,2,2,08,29,76,055,41,02,10,071,31,15,18,140,34,13,15,099,32*71
$GPRMC,175416.304,A,3804.9577,N,12255.9543,W,001.2,239.6,290918,,,A*74
$GPGGA,175417.304,3804.9575,N,12255.9547,W,1,08,1.0,-29.6,M,,,,0000*0D
$GPGSA,A,3,21,05,25,26,29,02,15,13,,,,,2.0,1.0,1.7*3D
$GPRMC,175417.304,A,3804.9575,N,12255.9547,W,001.4,235.3,290918,,,A*7C
$GPGGA,175418.304,3804.9572,N,12255.9552,W,1,08,1.0,-29.6,M,,,,0000*01
$GPGSA,A,3,21,05,25,26,29,02,15,13,,,,,2.0,1.0,1.7*3D
$GPRMC,175418.304,A,3804.9572,N,12255.9552,W,001.6,234.1,290918,,,A*71
$GPGGA,175419.304,3804.9569,N,12255.9557,W,1,08,1.0,-29.6,M,,,,0000*0F
$GPGSA,A,3,21,05,25,26,29,02,15,13,,,,,2.0,1.0,1.7*3D
$GPGSV,2,1,08,21,46,281,41,05,36,049,41,25,33,190,38,26,29,306,34*7C
$GPGSV,2,2,08,29,76,055,42,02,10,071,26,15,18,140,31,13,15,099,33*70
$GPRMC,175419.304,A,3804.9569,N,12255.9557,W,001.7,229.2,290918,,,A*71
$GPGGA,175420.304,3804.9565,N,12255.9563,W,1,08,1.0,-29.8,M,,,,0000*00
$GPGSA,A,3,21,05,25,26,29,02,15,13,,,,,2.0,1.0,1.7*3D
$GPRMC,175420.304,A,3804.9565,N,12255.9563,W,001.9,231.3,290918,,,A*76
$GPGGA,175421.304,3804.9561,N,12255.9570,W,1,08,1.0,-29.9,M,,,,0000*06
$GPGSA,A,3,21,05,25,26,29,02,15,13,,,,,2.0,1.0,1.7*3D
$GPRMC,175421.304,A,3804.9561,N,12255.9570,W,001.9,229.2,290918,,,A*79
$GPGGA,175422.304,3804.9556,N,12255.9576,W,1,08,1.0,-29.9,M,,,,0000*07
$GPGSA,A,3,21,05,25,26,29,02,15,13,,,,,2.0,1.0,1.7*3D
$GPGSV,2,1,08,21,46,281,40,05,36,049,44,25,33,190,37,26,29,306,38*7B
$GPGSV,2,2,08,29,76,055,44,02,10,071,32,15,18,140,33,13,15,099,33*71
$GPRMC,175422.304,A,3804.9556,N,12255.9576,W,001.8,228.9,290918,,,A*73
$GPGGA,175423.304,3804.9552,N,12255.9582,W,1,08,1.0,-30.1,M,,,,0000*09
$GPGSA,A,3,21,05,25,26,29,02,15,13,,,,,2.0,1.0,1.7*3D
$GPRMC,175423.304,A,3804.9552,N,12255.9582,W,001.6,228.2,290918,,,A*78
$GPGGA,175424.304,3804.9548,N,12255.9588,W,1,08,1.0,-30.3,M,,,,0000*0D
$GPGSA,A,3,21,05,25,26,29,02,15,13,,,,,2.0,1.0,1.7*3D
$GPRMC,175424.304,A,3804.9548,N,12255.9588,W,001.6,232.6,290918,,,A*71
$GPGGA,175425.304,3804.9545,N,12255.9594,W,1,08,1.0,-30.3,M,,,,0000*0C
$GPGSA,A,3,21,05,25,26,29,02,15,13,,,,,2.0,1.0,1.7*3D
$GPGSV,2,1,08,21,46,281,39,05,36,049,42,25,32,190,37,26,29,306,35*7F
$GPGSV,2,2,08,29,76,055,45,02,10,071,32,15,18,140,37,13,15,099,33*74
$GPRMC,175425.304,A,3804.9545,N,12255.9594,W,001.5,235.5,290918,,,A*77
$GPGGA,175426.304,3804.9544,N,12255.9600,W,1,08,1.0,-30.6,M,,,,0000*05
$GPGSA,A,3,21,05,25,26,29,02,15,13,,,,,2.0,1.0,1.7*3D
$GPRMC,175426.304,A,3804.9544,N,12255.9600,W,001.5,246.4,290918,,,A*7E
$GPGGA,175427.304,3804.9543,N,12255.9607,W,1,08,1.0,-30.8,M,,,,0000*0A
$GPGSA,A,3,21,05,25,26,29,02,15,13,,,,,2.0,1.0,1.7*3D
$GPRMC,175427.304,A,3804.9543,N,12255.9607,W,001.5,250.5,290918,,,A*79
$GPGGA,175428.304,3804.9541,N,12255.9614,W,1,08,1.0,-31.0,M,,,,0000*0C
$GPGSA,A,3,21,05,25,26,29,02,15,13,,,,,2.0,1.0,1.7*3D
$GPGSV,2,1,08,21,46,281,40,05,36,049,39,25,32,190,35,26,29,306,38*72
$GPGSV,2,2,08,29,76,055,41,02,10,071,29,15,18,140,36,13,15,099,34*7C
$GPRMC,175428.304,A,3804.9541,N,12255.9614,W,001.4,253.8,290918,,,A*79
$GPGGA,175429.304,3804.9540,N,12255.9619,W,1,08,1.0,-31.2,M,,,,0000*03
$GPGSA,A,3,21,05,25,26,29,02,15,13,,,,,2.0,1.0,1.7*3D
$GPRMC,175429.304,A,3804.9540,N,12255.9619,W,001.4,257.7,290918,,,A*7F
$GPGGA,175430.304,3804.9540,N,12255.9623,W,1,08,1.0,-31.1,M,,,,0000*01
$GPGSA,A,3,21,05,25,26,29,02,15,13,,,,,2.0,1.0,1.7*3D
$GPRMC,175430.304,A,3804.9540,N,12255.9623,W,001.3,265.4,290918,,,A*7B
$GPGGA,175431.304,3804.9540,N,12255.9630,W,1,08,1.0,-31.7,M,,,,0000*04
$GPGSA,A,3,21,05,25,26,29,02,15,13,,,,,2.0,1.0,1.7*3D
$GPGSV,2,1,08,21,46,281,38,05,36,049,40,25,32,190,33,26,29,306,37*7A
$GPGSV,2,2,08,29,76,055,45,02,10,071,25,15,18,140,40,13,15,099,34*75
$GPRMC,175431.304,A,3804.9540,N,12255.9630,W,001.2,271.9,290918,,,A*71
$GPGGA,175432.304,3804.9541,N,12255.9636,W,1,08,1.0,-32.5,M,,,,0000*01
$GPGSA,A,3,21,05,25,26,29,02,15,13,,,,,2.0,1.0,1.7*3D
$GPRMC,175432.304,A,3804.9541,N,12255.9636,W,001.2,277.7,290918,,,A*7D
$GPGGA,175433.304,3804.9541,N,12255.9642,W,1,08,1.0,-33.0,M,,,,0000*07
$GPGSA,A,3,21,05,25,26,29,02,15,13,,,,,2.0,1.0,1.7*3D
$GPRMC,175433.304,A,3804.9541,N,12255.9642,W,001.3,282.0,290918,,,A*73
$GPGGA,175434.304,3804.9543,N,12255.9648,W,1,08,1.0,-33.7,M,,,,0000*0F
$GPGSA,A,3,21,05,25,26,29,02,15,13,,,,,2.0,1.0,1.7*3D
$GPGSV,2,1,08,21,46,281,38,05,36,049,43,25,32,190,33,26,29,306,37*79
$GPGSV,2,2,08,29,76,055,45,02,10,071,27,15,18,140,40,13,15,099,34*77
$GPRMC,175434.304,A,3804.9543,N,12255.9648,W,001.4,283.0,290918,,,A*7A
$GPGGA,175435.304,3804.9543,N,12255.9653,W,1,08,1.0,-33.2,M,,,,0000*01
$GPGSA,A,3,21,05,25,26,29,02,15,13,,,,,2.0,1.0,1.7*3D
$GPRMC,175435.304,A,3804.9543,N,12255.9653,W,001.3,282.7,290918,,,A*70
$GPGGA,175436.304,3804.9544,N,12255.9658,W,1,08,1.0,-33.0,M,,,,0000*0C
$GPGSA,A,3,21,05,25,26,29,02,15,13,,,,,2.0,1.0,1.7*3D
$GPRMC,175436.304,A,3804.9544,N,12255.9658,W,001.2,286.1,290918,,,A*7C
$GPGGA,175437.304,3804.9545,N,12255.9662,W,1,08,1.0,-33.1,M,,,,0000*04
$GPGSA,A,3,21,05,25,26,29,02,15,13,,,,,2.0,1.0,1.7*3D
$GPGSV,2,1,08,21,46,281,38,05,36,049,43,25,32,190,35,26,29,306,34*7C
$GPGSV,2,2,08,29,76,055,45,02,10,071,26,15,18,140,39,13,15,099,37*7B
$GPRMC,175437.304,A,3804.9545,N,12255.9662,W,001.3,290.1,290918,,,A*73
$GPGGA,175438.304,3804.9547,N,12255.9669,W,1,08,1.0,-33.7,M,,,,0000*04
$GPGSA,A,3,21,05,25,26,29,02,15,13,,,,,2.0,1.0,1.7*3D
$GPRMC,175438.304,A,3804.9547,N,12255.9669,W,001.4,292.9,290918,,,A*78
$GPGGA,175439.304,3804.9548,N,12255.9675,W,1,08,1.0,-33.8,M,,,,0000*08
$GPGSA,A,3,21,05,25,26,29,02,15,13,,,,,2.0,1.0,1.7*3D
$GPRMC,175439.304,A,3804.9548,N,12255.9675,W,001.3,288.8,290918,,,A*76
$GPGGA,175440.304,3804.9548,N,12255.9679,W,1,08,1.0,-33.6,M,,,,0000*04
$GPGSA,A,3,21,05,25,26,29,02,15,13,,,,,2.0,1.0,1.7*3D
$GPGSV,2,1,08,21,46,281,38,05,36,049,41,25,32,190,34,26,29,306,38*73
$GPGSV,2,2,08,29,76,055,44,02,10,071,26,15,18,140,36,13,15,099,35*77
$GPRMC,175440.304,A,3804.9548,N,12255.9679,W,001.3,279.1,290918,,,A*73
$GPGGA,175441.304,3804.9547,N,12255.9687,W,1,08,1.0,-33.8,M,,,,0000*05
$GPGSA,A,3,21,05,25,26,29,02,15,13,,,,,2.0,1.0,1.7*3D
$GPRMC,175441.304,A,3804.9547,N,12255.9687,W,001.3,270.6,290918,,,A*72
$GPGGA,175442.304,3804.9544,N,12255.9692,W,1,08,1.0,-33.7,M,,,,0000*0E
$GPGSA,A,3,21,05,25,26,29,02,15,13,,,,,2.0,1.0,1.7*3D
$GPRMC,175442.304,A,3804.9544,N,12255.9692,W,001.4,259.3,290918,,,A*7F
$GPGGA,175443.304,3804.9540,N,12255.9698,W,1,08,1.0,-33.1,M,,,,0000*07
$GPGSA,A,3,21,05,25,26,29,02,15,13,,,,,2.0,1.0,1.7*3D
$GPGSV,2,1,08,21,46,281,39,05,36,049,39,25,32,190,37,26,29,306,37*71
$GPGSV,2,2,08,29,76,056,44,02,09,071,33,15,18,140,37,13,15,099,36*7A
$GPRMC,175443.304,A,3804.9540,N,12255.9698,W,001.4,248.0,290918,,,A*73
$GPGGA,175444.304,3804.9536,N,12255.9704,W,1,08,1.0,-32.9,M,,,,0000*0C
$GPGSA,A,3,21,05,25,26,29,02,15,13,,,,,2.0,1.0,1.7*3D
$GPRMC,175444.304,A,3804.9536,N,12255.9704,W,001.3,244.3,290918,,,A*79
$GPGGA,175445.304,3804.9532,N,12255.9711,W,1,08,1.0,-33.0,M,,,,0000*05
$GPGSA,A,3,21,05,25,26,29,02,15,13,,,,,2.0,1.0,1.7*3D
$GPRMC,175445.304,A,3804.9532,N,12255.9711,W,001.3,241.3,290918,,,A*7D
$GPGGA,175446.304,3804.9528,N,12255.9714,W,1,08,1.0,-33.0,M,,,,0000*08
$GPGSA,A,3,21,05,25,26,29,02,15,13,,,,,2.0,1.0,1.7*3D
$GPGSV,2,1,08,21,46,281,40,05,36,049,41,25,32,190,35,26,29,306,34*71
$GPGSV,2,2,08,29,76,056,45,02,09,071,38,15,18,140,38,13,15,099,32*7B
$GPRMC,175446.304,A,3804.9528,N,12255.9714,W,001.2,231.3,290918,,,A*76
$GPGGA,175447.304,3804.9524,N,12255.9720,W,1,08,1.0,-32.9,M,,,,0000*0A
$GPGSA,A,3,21,05,25,26,29,02,15,13,,,,,2.0,1.0,1.7*3D
$GPRMC,175447.304,A,3804.9524,N,12255.9720,W,001.2,229.4,290918,,,A*72
$GPGGA,175448.304,3804.9521,N,12255.9723,W,1,08,1.0,-33.0,M,,,,0000*0B
$GPGSA,A,3,21,05,25,26,29,02,15,13,,,,,2.0,1.0,1.7*3D
$GPRMC,175448.304,A,3804.9521,N,12255.9723,W,001.2,227.8,290918,,,A*79
$GPGGA,175449.304,3804.9517,N,12255.9725,W,1,08,1.0,-32.8,M,,,,0000*00
$GPGSA,A,3,21,05,25,26,29,02,15,13,,,,,2.0,1.0,1.7*3D
$GPGSV,2,1,08,21,47,281,40,05,36,049,44,25,32,190,36,26,29,306,34*76
$GPGSV,2,2,08,29,76,056,43,02,09,071,35,15,18,140,38,13,15,099,34*76
$GPRMC,175449.304,A,3804.9517,N,12255.9725,W,001.3,210.9,290918,,,A*7F
$GPGGA,175450.304,3804.9512,N,12255.9727,W,1,08,1.0,-32.7,M,,,,0000*00
$GPGSA,A,3,21,05,25,26,29,02,15,13,,,,,2.0,1.0,1.7*3D
$GPRMC,175450.304,A,3804.9512,N,12255.9727,W,001.5,206.5,290918,,,A*7D
$GPGGA,175451.304,3804.9506,N,12255.9727,W,1,08,1.0,-32.1,M,,,,0000*02
$GPGSA,A,3,21,05,25,26,29,02,15,13,,,,,2.0,1.0,1.7*3D
$GPRMC,175451.304,A,3804.9506,N,12255.9727,W,001.6,193.0,290918,,,A*70
$GPGGA,175452.304,3804.9501,N,12255.9727,W,1,08,1.0,-31.9,M,,,,0000*0D
$GPGSA,A,3,21,05,25,26,29,02,15,13,,,,,2.0,1.0,1.7*3D
$GPGSV,2,1,08,21,47,281,40,05,36,049,42,25,32,190,34,26,29,306,35*73
$GPGSV,2,2,08,29,76,056,43,02,09,071,35,15,18,140,38,13,15,099,33*71
$GPRMC,175452.304,A,3804.9501,N,12255.9727,W,001.8,190.0,290918,,,A*79
$GPGGA,175453.304,3804.9496,N,12255.9728,W,1,08,1.0,-32.4,M,,,,0000*02
$GPGSA,A,3,21,05,25,26,29,02,15,13,,,,,2.0,1.0,1.7*3D
$GPRMC,175453.304,A,3804.9496,N,12255.9728,W,001.7,188.3,290918,,,A*7D
$GPGGA,175454.304,3804.9490,N,12255.9729,W,1,08,1.0,-32.5,M,,,,0000*03
$GPGSA,A,3,21,05,25,26,29,02,15,13,,,,,2.0,1.0,1.7*3D
$GPRMC,175454.304,A,3804.9490,N,12255.9729,W,001.8,180.8,290918,,,A*71
$GPGGA,175455.304,3804.9482,N,12255.9728,W,1,08,1.0,-31.5,M,,,,0000*03
$GPGSA,A,3,21,05,25,26,29,02,15,13,,,,,2.0,1.0,1.7*3D
$GPGSV,2,1,08,21,47,281,40,05,36,049,41,25,32,190,34,26,29,306,37*72
$GPGSV,2,2,08,29,76,056,44,02,09,071,34,15,18,140,34,13,15,099,33*7B
$GPRMC,175455.304,A,3804.9482,N,12255.9728,W,001.9,181.8,290918,,,A*72
$GPGGA,175456.304,3804.9475,N,12255.9725,W,1,08,1.0,-31.3,M,,,,0000*03
$GPGSA,A,3,21,05,25,26,29,02,15,13,,,,,2.0,1.0,1.7*3D
$GPRMC,175456.304,A,3804.9475,N,12255.9725,W,002.0,175.7,290918,,,A*7A
$GPGGA,175457.304,3804.9469,N,12255.9725,W,1,08,1.0,-31.6,M,,,,0000*0A
$GPGSA,A,3,21,05,25,26,29,02,15,13,,,,,2.0,1.0,1.7*3D
$GPRMC,175457.304,A,3804.9469,N,12255.9725,W,002.1,178.2,290918,,,A*7F
$GPGGA,175458.304,3804.9462,N,12255.9724,W,1,08,1.0,-31.8,M,,,,0000*01
$GPGSA,A,3,21,05,25,26,29,02,15,13,,,,,2.0,1.0,1.7*3D
$GPGSV,2,1,08,21,47,281,40,05,36,049,42,25,32,190,34,26,29,306,39*7F
$GPGSV,2,2,08,29,76,056,42,02,09,071,33,15,18,140,38,13,15,099,32*77
$GPRMC,175458.304,A,3804.9462,N,12255.9724,W,002.1,175.0,290918,,,A*75
$GPGGA,175459.304,3804.9455,N,12255.9723,W,1,08,1.0,-31.3,M,,,,0000*08
$GPGSA,A,3,21,05,25,26,29,02,15,13,,,,,2.0,1.0,1.7*3D
$GPRMC,175459.304,A,3804.9455,N,12255.9723,W,002.2,174.1,290918,,,A*74
$GPGGA,175500.304,3804.9449,N,12255.9721,W,1,08,1.0,-31.0,M,,,,0000*09
$GPGSA,A,3,21,05,25,26,29,02,15,13,,,,,2.0,1.0,1.7*3D
$GPRMC,175500.304,A,3804.9449,N,12255.9721,W,002.1,176.1,290918,,,A*77
$GPGGA,175501.304,3804.9443,N,12255.9721,W,1,08,1.0,-31.4,M,,,,0000*06
$GPGSA,A,3,21,05,25,26,29,02,15,13,,,,,2.0,1.0,1.7*3D
$GPGSV,2,1,08,21,47,281,41,05,36,049,41,25,32,190,33,26,29,306,35*76
$GPGSV,2,2,08,29,76,056,44,02,09,071,33,15,18,140,39,13,15,099,34*76
$GPRMC,175501.304,A,3804.9443,N,12255.9721,W,002.1,174.4,290918,,,A*7B
$GPGGA,175502.304,3804.9434,N,12255.9722,W,1,08,1.0,-31.6,M,,,,0000*04
$GPGSA,A,3,21,05,25,26,29,02,15,13,,,,,2.0,1.0,1.7*3D
$GPRMC,175502.304,A,3804.9434,N,12255.9722,W,002.2,177.9,290918,,,A*76
$GPGGA,175503.304,3804.9427,N,12255.9720,W,1,07,1.1,-31.4,M,,,,0000*09
$GPGSA,A,3,21,05,25,26,29,15,13,,,,,,2.2,1.1,1.9*32
$GPRMC,175503.304,A,3804.9427,N,12255.9720,W,002.2,173.9,290918,,,A*73
$GPGGA,175504.304,3804.9420,N,12255.9719,W,1,08,1.0,-31.2,M,,,,0000*0B
$GPGSA,A,3,21,05,25,26,29,02,15,13,,,,,2.0,1.0,1.7*3D
$GPGSV,2,1,08,21,47,281,40,05,36,049,41,25,32,190,34,26,29,306,37*72
$GPGSV,2,2,08,29,76,056,44,02,09,071,32,15,18,140,38,13,15,099,33*71
$GPRMC,175504.304,A,3804.9420,N,12255.9719,W,002.3,177.3,290918,,,A*76
$GPGGA,175505.304,3804.9413,N,12255.9718,W,1,08,1.0,-31.1,M,,,,0000*08
$GPGSA,A,3,21,05,25,26,29,02,15,13,,,,,2.0,1.0,1.7*3D
$GPRMC,175505.304,A,3804.9413,N,12255.9718,W,002.2,173.0,290918,,,A*70
$GPGGA,175506.304,3804.9409,N,12255.9717,W,1,08,1.0,-31.1,M,,,,0000*0F
$GPGSA,A,3,21,05,25,26,29,02,15,13,,,,,2.0,1.0,1.7*3D
$GPRMC,175506.304,A,3804.9409,N,12255.9717,W,002.2,171.2,290918,,,A*77
$GPGGA,175507.304,3804.9402,N,12255.9715,W,1,08,1.0,-31.5,M,,,,0000*03
$GPGSA,A,3,21,05,25,26,29,02,15,13,,,,,2.0,1.0,1.7*3D
$GPGSV,2,1,08,21,47,281,40,05,36,049,42,25,32,190,34,26,29,306,39*7F
$GPGSV,2,2,08,29,76,056,45,02,09,071,33,15,18,140,39,13,15,099,33*70
$GPRMC,175507.304,A,3804.9402,N,12255.9715,W,002.2,174.4,290918,,,A*7C
$GPGGA,175508.304,3804.9397,N,12255.9714,W,1,08,1.0,-31.8,M,,,,0000*0B
$GPGSA,A,3,21,05,25,26,29,02,15,13,,,,,2.0,1.0,1.7*3D
$GPRMC,175508.304,A,3804.9397,N,12255.9714,W,002.1,174.3,290918,,,A*7D
$GPGGA,175509.304,3804.9392,N,12255.9711,W,1,08,1.0,-31.3,M,,,,0000*01
$GPGSA,A,3,21,05,25,26,29,02,15,13,,,,,2.0,1.0,1.7*3D
$GPRMC,175509.304,A,3804.9392,N,12255.9711,W,001.9,173.9,290918,,,A*7A
$GPGGA,175510.304,3804.9387,N,12255.9710,W,1,08,1.0,-31.4,M,,,,0000*0B
$GPGSA,A,3,21,05,25,26,29,02,15,13,,,,,2.0,1.0,1.7*3D
$GPGSV,2,1,08,21,47,281,40,05,36,049,40,25,32,190,35,26,29,306,37*72
$GPGSV,2,2,08,29,76,056,44,02,09,071,33,15,18,140,38,13,15,099,32*71
$GPRMC,175510.304,A,3804.9387,N,12255.9710,W,001.8,170.4,290918,,,A*78
$GPGGA,175511.304,3804.9380,N,12255.9709,W,1,08,1.0,-31.3,M,,,,0000*02
$GPGSA,A,3,21,05,25,26,29,02,15,13,,,,,2.0,1.0,1.7*3D
$GPRMC,175511.304,A,3804.9380,N,12255.9709,W,001.7,168.5,290918,,,A*71
$GPGGA,175512.304,3804.9376,N,12255.9710,W,1,08,1.0,-31.7,M,,,,0000*04
$GPGSA,A,3,21,05,25,26,29,02,15,13,,,,,2.0,1.0,1.7*3D
$GPRMC,175512.304,A,3804.9376,N,12255.9710,W,001.4,170.2,290918,,,A*7E
$GPGGA,175513.304,3804.9373,N,12255.9707,W,1,08,1.0,-31.9,M,,,,0000*08
$GPGSA,A,3,21,05,25,26,29,02,15,13,,,,,2.0,1.0,1.7*3D
$GPGSV,2,1,08,21,47,281,39,05,36,049,40,25,32,190,35,26,29,306,34*7F
$GPGSV,2,2,08,29,76,057,41,02,09,071,32,15,18,140,40,13,15,099,33*7A
$GPRMC,175513.304,A,3804.9373,N,12255.9707,W,001.2,166.3,290918,,,A*7C
$GPGGA,175514.304,3804.9371,N,12255.9706,W,1,08,1.0,-31.9,M,,,,0000*0C
$GPGSA,A,3,21,05,25,26,29,02,15,13,,,,,2.0,1.0,1.7*3D
$GPRMC,175514.304,A,3804.9371,N,12255.9706,W,001.1,169.3,290918,,,A*74
$GPGGA,175515.304,3804.9369,N,12255.9707,W,1,08,1.0,-31.5,M,,,,0000*09
$GPGSA,A,3,21,05,25,26,29,02,15,13,,,,,2.0,1.0,1.7*3D
$GPRMC,175515.304,A,3804.9369,N,12255.9707,W,001.0,178.6,290918,,,A*79
$GPGGA,175516.304,3804.9366,N,12255.9705,W,1,08,1.0,-31.4,M,,,,0000*06
$GPGSA,A,3,21,05,25,26,29,02,15,13,,,,,2.0,1.0,1.7*3D
$GPGSV,2,1,08,21,47,281,41,05,35,049,41,25,32,190,33,26,29,306,33*73
$GPGSV,2,2,08,29,76,057,44,02,09,071,34,15,18,140,38,13,15,099,33*76
$GPRMC,175516.304,A,3804.9366,N,12255.9705,W,001.1,159.8,290918,,,A*7B
$GPGGA,175517.304,3804.9360,N,12255.9704,W,1,08,1.0,-31.3,M,,,,0000*07
$GPGSA,A,3,21,05,25,26,29,02,15,13,,,,,2.0,1.0,1.7*3D
$GPRMC,175517.304,A,3804.9360,N,12255.9704,W,001.4,172.2,290918,,,A*7B
$GPGGA,175518.304,3804.9356,N,12255.9703,W,1,08,1.0,-31.3,M,,,,0000*0A
$GPGSA,A,3,21,05,25,26,29,02,15,13,,,,,2.0,1.0,1.7*3D
$GPRMC,175518.304,A,3804.9356,N,12255.9703,W,001.6,169.3,290918,,,A*7F
$GPGGA,175519.304,3804.9350,N,12255.9703,W,1,08,1.0,-31.4,M,,,,0000*0A
$GPGSA,A,3,21,05,25,26,29,02,15,13,,,,,2.0,1.0,1.7*3D
$GPGSV,2,1,08,21,47,281,40,05,35,049,41,25,32,190,34,26,29,306,38*7E
$GPGSV,2,2,08,29,76,057,44,02,09,071,34,15,18,140,39,13,15,099,33*77
$GPRMC,175519.304,A,3804.9350,N,12255.9703,W,001.9,173.6,290918,,,A*79
$GPGGA,175520.304,3804.9341,N,12255.9706,W,1,08,1.0,-31.7,M,,,,0000*06
$GPGSA,A,3,21,05,25,26,29,02,15,13,,,,,2.0,1.0,1.7*3D
$GPRMC,175520.304,A,3804.9341,N,12255.9706,W,002.2,178.8,290918,,,A*7B
$GPGGA,175521.304,3804.9334,N,12255.9703,W,1,08,1.0,-31.4,M,,,,0000*03
$GPGSA,A,3,21,05,25,26,29,02,15,13,,,,,2.0,1.0,1.7*3D
$GPRMC,175521.304,A,3804.9334,N,12255.9703,W,002.3,175.8,290918,,,A*71
$GPGGA,175522.304,3804.9328,N,12255.9704,W,1,08,1.0,-31.8,M,,,,0000*06
$GPGSA,A,3,21,05,25,26,29,02,15,13,,,,,2.0,1.0,1.7*3D
$GPGSV,2,1,08,21,47,281,41,05,35,049,42,25,32,190,35,26,29,306,40*72
$GPGSV,2,2,08,29,76,057,44,02,09,071,37,15,18,140,38,13,15,099,34*72
$GPRMC,175522.304,A,3804.9328,N,12255.9704,W,002.4,181.8,290918,,,A*74
$GPGGA,175523.304,3804.9322,N,12255.9704,W,1,08,1.0,-31.5,M,,,,0000*00
$GPGSA,A,3,21,05,25,26,29,02,15,13,,,,,2.0,1.0,1.7*3D
$GPRMC,175523.304,A,3804.9322,N,12255.9704,W,002.4,178.1,290918,,,A*70
$GPGGA,175524.304,3804.9315,N,12255.9703,W,1,08,1.0,-31.4,M,,,,0000*05
$GPGSA,A,3,21,05,25,26,29,02,15,13,,,,,2.0,1.0,1.7*3D
$GPRMC,175524.304,A,3804.9315,N,12255.9703,W,002.4,179.4,290918,,,A*70
$GPGGA,175525.304,3804.9309,N,12255.9703,W,1,08,1.0,-31.1,M,,,,0000*0C
$GPGSA,A,3,21,05,25,26,29,02,15,13,,,,,2.0,1.0,1.7*3D
$GPGSV,2,1,08,21,47,281,38,05,35,049,41,25,32,190,36,26,29,306,38*73
$GPGSV,2,2,08,29,76,057,42,02,09,071,37,15,18,140,38,13,15,099,34*74
$GPRMC,175525.304,A,3804.9309,N,12255.9703,W,002.3,183.9,290918,,,A*73
$GPGGA,175526.304,3804.9305,N,12255.9703,W,1,08,1.0,-30.9,M,,,,0000*0A
$GPGSA,A,3,21,05,25,26,29,02,15,13,,,,,2.0,1.0,1.7*3D
$GPRMC,175526.304,A,3804.9305,N,12255.9703,W,002.1,185.3,290918,,,A*72
$GPGGA,175527.304,3804.9300,N,12255.9701,W,1,08,1.0,-30.9,M,,,,0000*0C
$GPGSA,A,3,21,05,25,26,29,02,15,13,,,,,2.0,1.0,1.7*3D
$GPRMC,175527.304,A,3804.9300,N,12255.9701,W,002.0,182.8,290918,,,A*79
$GPGGA,175528.304,3804.9296,N,12255.9703,W,1,08,1.0,-31.0,M,,,,0000*07
$GPGSA,A,3,21,05,25,26,29,02,15,13,,,,,2.0,1.0,1.7*3D
$GPGSV,2,1,08,21,47,281,41,05,35,049,42,25,32,190,35,26,29,306,37*72
$GPGSV,2,2,08,29,76,057,44,02,09,071,34,15,18,140,39,13,15,099,32*76
$GPRMC,175528.304,A,3804.9296,N,12255.9703,W,002.0,186.6,290918,,,A*70
$GPGGA,175529.304,3804.9290,N,12255.9702,W,1,08,1.0,-31.1,M,,,,0000*00
$GPGSA,A,3,21,05,25,26,29,02,15,13,,,,,2.0,1.0,1.7*3D
$GPRMC,175529.304,A,3804.9290,N,12255.9702,W,002.0,181.3,290918,,,A*74
$GPGGA,175530.304,3804.9284,N,12255.9703,W,1,08,1.0,-31.3,M,,,,0000*0E
$GPGSA,A,3,21,05,25,26,29,02,15,13,,,,,2.0,1.0,1.7*3D
$GPRMC,175530.304,A,3804.9284,N,12255.9703,W,002.0,184.2,290918,,,A*7C
$GPGGA,175531.304,3804.9277,N,12255.9704,W,1,08,1.0,-31.1,M,,,,0000*06
$GPGSA,A,3,21,05,25,26,29,02,15,13,,,,,2.0,1.0,1.7*3D
$GPGSV,2,1,08,21,47,281,41,05,35,049,41,25,32,190,34,26,29,306,39*7E
$GPGSV,2,2,08,29,76,057,42,02,09,072,34,15,18,140,38,13,15,099,31*71
$GPRMC,175531.304,A,3804.9277,N,12255.9704,W,002.1,180.8,290918,,,A*79
$GPGGA,175532.304,3804.9270,N,12255.9704,W,1,08,1.0,-30.9,M,,,,0000*0B
$GPGSA,A,3,21,05,25,26,29,02,15,13,,,,,2.0,1.0,1.7*3D
$GPRMC,175532.304,A,3804.9270,N,12255.9704,W,002.2,178.2,290918,,,A*73
$GPGGA,175533.304,3804.9265,N,12255.9705,W,1,08,1.0,-31.2,M,,,,0000*05
$GPGSA,A,3,21,05,25,26,29,02,15,13,,,,,2.0,1.0,1.7*3D
$GPRMC,175533.304,A,3804.9265,N,12255.9705,W,002.2,179.3,290918,,,A*77
$GPGGA,175534.304,3804.9258,N,12255.9704,W,1,08,1.0,-31.3,M,,,,0000*0C
$GPGSA,A,3,21,05,25,26,29,02,15,13,,,,,2.0,1.0,1.7*3D
$GPGSV,2,1,08,21,47,281,40,05,35,049,41,25,32,190,34,26,29,306,34*72
$GPGSV,2,2,08,29,76,057,44,02,09,072,31,15,18,140,39,13,15,098,31*72
$GPRMC,175534.304,A,3804.9258,N,12255.9704,W,002.2,175.2,290918,,,A*72
$GPGGA,175535.304,3804.9253,N,12255.9704,W,1,08,1.0,-31.3,M,,,,0000*06
$GPGSA,A,3,21,05,25,26,29,02,15,13,,,,,2.0,1.0,1.7*3D
$GPRMC,175535.304,A,3804.9253,N,12255.9704,W,002.1,178.6,290918,,,A*72
$GPGGA,175536.304,3804.9247,N,12255.9701,W,1,08,1.0,-31.0,M,,,,0000*06
$GPGSA,A,3,21,05,25,26,29,02,15,13,,,,,2.0,1.0,1.7*3D
$GPRMC,175536.304,A,3804.9247,N,12255.9701,W,002.1,172.2,290918,,,A*7F
$GPGGA,175537.304,3804.9239,N,12255.9701,W,1,08,1.0,-30.6,M,,,,0000*09
$GPGSA,A,3,21,05,25,26,29,02,15,13,,,,,2.0,1.0,1.7*3D
$GPGSV,2,1,08,21,47,281,40,05,35,049,42,25,32,190,34,26,29,306,37*72
$GPGSV,2,2,08,29,76,057,43,02,09,072,33,15,18,140,39,13,15,098,33*75
$GPRMC,175537.304,A,3804.9239,N,12255.9701,W,002.2,178.2,290918,,,A*7E
$GPGGA,175538.304,3804.9233,N,12255.9701,W,1,08,1.0,-30.6,M,,,,0000*0C
$GPGSA,A,3,21,05,25,26,29,02,15,13,,,,,2.0,1.0,1.7*3D
$GPRMC,175538.304,A,3804.9233,N,12255.9701,W,002.3,173.7,290918,,,A*74
$GPGGA,175539.304,3804.9227,N,12255.9702,W,1,08,1.0,-30.7,M,,,,0000*0A
$GPGSA,A,3,21,05,25,26,29,02,15,13,,,,,2.0,1.0,1.7*3D
$GPRMC,175539.304,A,3804.9227,N,12255.9702,W,002.2,177.0,290918,,,A*71
$GPGGA,175540.304,3804.9221,N,12255.9700,W,1,08,1.0,-30.3,M,,,,0000*04
$GPGSA,A,3,21,05,25,26,29,02,15,13,,,,,2.0,1.0,1.7*3D
$GPGSV,2,1,08,21,47,281,41,05,35,049,42,25,32,190,35,26,29,306,40*72
$GPGSV,2,2,08,29,76,057,42,02,09,072,34,15,18,140,39,13,15,098,33*73
$GPRMC,175540.304,A,3804.9221,N,12255.9700,W,002.2,175.3,290918,,,A*7A
$GPGGA,175541.304,3804.9214,N,12255.9700,W,1,08,1.0,-30.7,M,,,,0000*07
$GPGSA,A,3,21,05,25,26,29,02,15,13,,,,,2.0,1.0,1.7*3D
$GPRMC,175541.304,A,3804.9214,N,12255.9700,W,002.3,177.4,290918,,,A*79
$GPGGA,175542.304,3804.9207,N,12255.9702,W,1,08,1.0,-31.5,M,,,,0000*07
$GPGSA,A,3,21,05,25,26,29,02,15,13,,,,,2.0,1.0,1.7*3D
$GPRMC,175542.304,A,3804.9207,N,12255.9702,W,002.3,180.1,290918,,,A*77
$GPGGA,175543.304,3804.9200,N,12255.9703,W,1,08,1.0,-31.9,M,,,,0000*0C
$GPGSA,A,3,21,05,25,26,29,02,15,13,,,,,2.0,1.0,1.7*3D
$GPGSV,2,1,08,21,47,281,40,05,35,049,42,25,32,190,34,26,29,306,38*7D
$GPGSV,2,2,08,29,76,058,44,02,09,072,33,15,18,140,38,13,15,098,33*7C
$GPRMC,175543.304,A,3804.9200,N,12255.9703,W,002.3,180.0,290918,,,A*71
$GPGGA,175544.304,3804.9194,N,12255.9701,W,1,08,1.0,-31.6,M,,,,0000*08
$GPGSA,A,3,21,05,25,26,29,02,15,13,,,,,2.0,1.0,1.7*3D
$GPRMC,175544.304,A,3804.9194,N,12255.9701,W,002.2,178.0,290918,,,A*7C
$GPGGA,175545.304,3804.9189,N,12255.9700,W,1,08,1.0,-31.3,M,,,,0000*01
$GPGSA,A,3,21,05,25,26,29,02,15,13,,,,,2.0,1.0,1.7*3D
$GPRMC,175545.304,A,3804.9189,N,12255.9700,W,002.1,172.4,290918,,,A*7D
$GPGGA,175546.304,3804.9183,N,12255.9701,W,1,08,1.0,-31.5,M,,,,0000*0F
$GPGSA,A,3,21,05,25,26,29,02,15,13,,,,,2.0,1.0,1.7*3D
$GPGSV,2,1,08,21,47,281,40,05,35,049,41,25,32,190,36,26,29,306,34*70
$GPGSV,2,2,08,29,76,058,42,02,09,072,33,15,18,140,38,13,15,098,32*7B
$GPRMC,175546.304,A,3804.9183,N,12255.9701,W,002.1,177.7,290918,,,A*73
$GPGGA,175547.304,3804.9178,N,12255.9698,W,1,08,1.0,-31.0,M,,,,0000*0E
$GPGSA,A,3,21,05,25,26,29,02,15,13,,,,,2.0,1.0,1.7*3D
$GPRMC,175547.304,A,3804.9178,N,12255.9698,W,002.1,172.8,290918,,,A*7D
$GPGGA,175548.304,3804.9172,N,12255.9697,W,1,08,1.0,-30.9,M,,,,0000*0C
$GPGSA,A,3,21,05,25,26,29,02,15,13,,,,,2.0,1.0,1.7*3D
$GPRMC,175548.304,A,3804.9172,N,12255.9697,W,002.1,176.4,290918,,,A*7F
$GPGGA,175549.304,3804.9166,N,12255.9698,W,1,08,1.0,-30.6,M,,,,0000*08
$GPGSA,A,3,21,05,25,26,29,02,15,13,,,,,2.0,1.0,1.7*3D
$GPGSV,2,1,08,21,47,281,41,05,35,049,41,25,32,190,35,26,29,306,39*7F
$GPGSV,2,2,08,29,76,058,44,02,09,072,33,15,18,140,38,13,15,098,32*7D
$GPRMC,175549.304,A,3804.9166,N,12255.9698,W,002.1,176.8,290918,,,A*78
$GPGGA,175550.304,3804.9160,N,12255.9697,W,1,08,1.0,-30.8,M,,,,0000*07
$GPGSA,A,3,21,05,25,26,29,02,15,13,,,,,2.0,1.0,1.7*3D
$GPRMC,175550.304,A,3804.9160,N,12255.9697,W,002.1,176.4,290918,,,A*75
$GPGGA,175551.304,3804.9153,N,12255.9697,W,1,08,1.0,-30.7,M,,,,0000*09
$GPGSA,A,3,21,05,25,26,29,02,15,13,,,,,2.0,1.0,1.7*3D
$GPRMC,175551.304,A,3804.9153,N,12255.9697,W,002.2,180.6,290918,,,A*7C
$GPGGA,175552.304,3804.9147,N,12255.9697,W,1,08,1.0,-30.7,M,,,,0000*0F
$GPGSA,A,3,21,05,25,26,29,02,15,13,,,,,2.0,1.0,1.7*3D
$GPGSV,2,1,08,21,47,281,40,05,35,049,41,25,32,190,34,26,29,306,38*7E
$GPGSV,2,2,08,29,76,058,44,02,09,072,32,15,18,140,38,13,15,098,33*7D
$GPRMC,175552.304,A,3804.9147,N,12255.9697,W,002.3,180.2,290918,,,A*7F
$GPGGA,175553.304,3804.9141,N,12255.9697,W,1,08,1.0,-30.6,M,,,,0000*09
$GPGSA,A,3,21,05,25,26,29,02,15,13,,,,,2.0,1.0,1.7*3D
$GPRMC,175553.304,A,3804.9141,N,12255.9697,W,002.2,183.1,290918,,,A*79
$GPGGA,175554.304,3804.9134,N,12255.9698,W,1,08,1.0,-30.6,M,,,,0000*03
$GPGSA,A,3,21,05,25,26,29,02,15,13,,,,,2.0,1.0,1.7*3D
$GPRMC,175554.304,A,3804.9134,N,12255.9698,W,002.3,179.7,290918,,,A*71
$GPGGA,175555.304,3804.9128,N,12255.9698,W,1,08,1.0,-30.5,M,,,,0000*0C
$GPGSA,A,3,21,05,25,26,29,02,15,13,,,,,2.0,1.0,1.7*3D
$GPGSV,2,1,08,21,47,281,40,05,35,049,42,25,32,190,35,26,29,306,37*73
$GPGSV,2,2,08,29,76,058,43,02,09,072,31,15,18,140,38,13,15,098,33*79
$GPRMC,175555.304,A,3804.9128,N,12255.9698,W,002.2,182.5,290918,,,A*7A
$GPGGA,175556.304,3804.9122,N,12255.9697,W,1,08,1.0,-30.5,M,,,,0000*0A
$GPGSA,A,3,21,05,25,26,29,02,15,13,,,,,2.0,1.0,1.7*3D
$GPRMC,175556.304,A,3804.9122,N,12255.9697,W,002.1,182.2,290918,,,A*78
$GPGGA,175557.304,3804.9117,N,12255.9697,W,1,08,1.0,-31.1,M,,,,0000*08
$GPGSA,A,3,21,05,25,26,29,02,15,13,,,,,2.0,1.0,1.7*3D
$GPRMC,175557.304,A,3804.9117,N,12255.9697,W,002.1,180.2,290918,,,A*7D
$GPGGA,175558.304,3804.9113,N,12255.9697,W,1,08,1.0,-31.2,M,,,,0000*00
$GPGSA,A,3,21,05,25,26,29,02,15,13,,,,,2.0,1.0,1.7*3D
$GPGSV,2,1,08,21,47,281,41,05,35,049,42,25,32,189,37,26,29,306,39*76
$GPGSV,2,2,08,29,76,058,45,02,09,072,34,15,18,140,39,13,15,098,32*7A
$GPRMC,175558.304,A,3804.9113,N,12255.9697,W,002.0,181.9,290918,,,A*7D
$GPGGA,175559.304,3804.9107,N,12255.9697,W,1,08,1.0,-31.2,M,,,,0000*04
$GPGSA,A,3,21,05,25,26,29,02,15,13,,,,,2.0,1.0,1.7*3D
$GPRMC,175559.304,A,3804.9107,N,12255.9697,W,002.1,175.5,290918,,,A*7F
$GPGGA,175600.304,3804.9101,N,12255.9698,W,1,08,1.0,-31.3,M,,,,0000*03
$GPGSA,A,3,21,05,25,26,29,02,15,13,,,,,2.0,1.0,1.7*3D
$GPRMC,175600.304,A,3804.9101,N,12255.9698,W,002.0,181.7,290918,,,A*71
$GPGGA,175601.304,3804.9096,N,12255.9699,W,1,08,1.0,-31.0,M,,,,0000*0F
$GPGSA,A,3,21,05,25,26,29,02,15,13,,,,,2.0,1.0,1.7*3D
$GPGSV,2,1,08,21,47,281,41,05,35,049,42,25,32,189,34,26,29,306,38*74
$GPGSV,2,2,08,29,76,059,42,02,09,072,37,15,18,140,35,13,15,098,32*73
$GPRMC,175601.304,A,3804.9096,N,12255.9699,W,002.0,183.1,290918,,,A*7A
$GPGGA,175602.304,3804.9089,N,12255.9699,W,1,08,1.0,-30.7,M,,,,0000*04
$GPGSA,A,3,21,05,25,26,29,02,15,13,,,,,2.0,1.0,1.7*3D
$GPRMC,175602.304,A,3804.9089,N,12255.9699,W,002.2,185.8,290918,,,A*7A
$GPGGA,175603.304,3804.9084,N,12255.9700,W,1,08,1.0,-30.4,M,,,,0000*0A
$GPGSA,A,3,21,05,25,26,29,02,15,13,,,,,2.0,1.0,1.7*3D
$GPRMC,175603.304,A,3804.9084,N,12255.9700,W,002.0,188.1,290918,,,A*71
$GPGGA,175604.304,3804.9077,N,12255.9701,W,1,08,1.0,-30.4,M,,,,0000*00
$GPGSA,A,3,21,05,25,26,29,02,15,13,,,,,2.0,1.0,1.7*3D
$GPGSV,2,1,08,21,47,281,41,05,35,049,42,25,32,189,35,26,29,306,37*7A
$GPGSV,2,2,08,29,76,059,44,02,09,072,34,15,18,140,38,13,15,098,33*7A
$GPRMC,175604.304,A,3804.9077,N,12255.9701,W,002.1,185.0,290918,,,A*76
$GPGGA,175605.304,3804.9071,N,12255.9700,W,1,08,1.0,-30.2,M,,,,0000*00
$GPGSA,A,3,21,05,25,26,29,02,15,13,,,,,2.0,1.0,1.7*3D
$GPRMC,175605.304,A,3804.9071,N,12255.9700,W,002.2,187.0,290918,,,A*71
$GPGGA,175606.304,3804.9065,N,12255.9702,W,1,08,1.0,-30.4,M,,,,0000*02
$GPGSA,A,3,21,05,25,26,29,02,15,13,,,,,2.0,1.0,1.7*3D
$GPRMC,175606.304,A,3804.9065,N,12255.9702,W,002.2,184.2,290918,,,A*74
$GPGGA,175607.304,3804.9059,N,12255.9704,W,1,08,1.0,-30.2,M,,,,0000*0C
$GPGSA,A,3,21,05,25,26,29,02,15,13,,,,,2.0,1.0,1.7*3D
$GPGSV,2,1,08,21,47,281,41,05,35,049,41,25,32,189,35,26,29,306,37*79
$GPGSV,2,2,08,29,76,059,44,02,09,072,35,15,18,140,38,13,16,098,32*79
$GPRMC,175607.304,A,3804.9059,N,12255.9704,W,002.2,188.2,290918,,,A*70
$GPGGA,175608.304,3804.9053,N,12255.9705,W,1,08,1.0,-30.0,M,,,,0000*0A
$GPGSA,A,3,21,05,25,26,29,02,15,13,,,,,2.0,1.0,1.7*3D
$GPRMC,175608.304,A,3804.9053,N,12255.9705,W,002.1,193.6,290918,,,A*79
$GPGGA,175609.304,3804.9048,N,12255.9707,W,1,08,1.0,-29.8,M,,,,0000*03
$GPGSA,A,3,21,05,25,26,29,02,15,13,,,,,2.0,1.0,1.7*3D
$GPRMC,175609.304,A,3804.9048,N,12255.9707,W,001.9,193.6,290918,,,A*7B
$GPGGA,175610.304,3804.9043,N,12255.9708,W,1,08,1.0,-29.6,M,,,,0000*01
$GPGSA,A,3,21,05,25,26,29,02,15,13,,,,,2.0,1.0,1.7*3D
$GPGSV,2,1,08,21,47,282,41,05,35,049,42,25,32,189,37,26,29,306,37*7B
$GPGSV,2,2,08,29,76,059,50,02,09,072,34,15,19,140,38,13,16,098,34*7A
$GPRMC,175610.304,A,3804.9043,N,12255.9708,W,001.8,189.8,290918,,,A*73
$GPGGA,175611.304,3804.9038,N,12255.9710,W,1,08,1.0,-29.9,M,,,,0000*0A
$GPGSA,A,3,21,05,25,26,29,02,15,13,,,,,2.0,1.0,1.7*3D
$GPRMC,175611.304,A,3804.9038,N,12255.9710,W,001.7,190.4,290918,,,A*7C
$GPGGA,175612.304,3804.9035,N,12255.9712,W,1,08,1.0,-30.3,M,,,,0000*04
$GPGSA,A,3,21,05,25,26,29,02,15,13,,,,,2.0,1.0,1.7*3D
$GPRMC,175612.304,A,3804.9035,N,12255.9712,W,001.5,196.5,290918,,,A*75
$GPGGA,175613.304,3804.9032,N,12255.9712,W,1,08,1.0,-30.1,M,,,,0000*00
$GPGSA,A,3,21,05,25,26,29,02,15,13,,,,,2.0,1.0,1.7*3D
$GPGSV,2,1,08,21,47,282,41,05,35,049,40,25,32,189,35,26,29,306,40*7B
$GPGSV,2,2,08,29,76,059,44,02,09,072,35,15,19,140,39,13,16,098,34*7F
$GPRMC,175613.304,A,3804.9032,N,12255.9712,W,001.2,197.1,290918,,,A*71
$GPGGA,175614.304,3804.9028,N,12255.9716,W,1,08,1.0,-30.9,M,,,,0000*00
$GPGSA,A,3,21,05,25,26,29,02,15,13,,,,,2.0,1.0,1.7*3D
$GPRMC,175614.304,A,3804.9028,N,12255.9716,W,001.1,199.0,290918,,,A*75
$GPGGA,175615.304,3804.9026,N,12255.9718,W,1,08,1.0,-30.8,M,,,,0000*00
$GPGSA,A,3,21,05,25,26,29,02,15,13,,,,,2.0,1.0,1.7*3D
$GPRMC,175615.304,A,3804.9026,N,12255.9718,W,000.9,208.1,290918,,,A*77
$GPGGA,175616.304,3804.9024,N,12255.9719,W,1,08,1.0,-30.6,M,,,,0000*0E
$GPGSA,A,3,21,05,25,26,29,02,15,13,,,,,2.0,1.0,1.7*3D
$GPGSV,2,1,08,21,47,282,40,05,35,049,41,25,32,189,35,26,29,306,40*7B
$GPGSV,2,2,08,29,76,059,43,02,09,072,34,15,19,140,39,13,16,098,32*7F
$GPRMC,175616.304,A,3804.9024,N,12255.9719,W,000.0,208.1,290918,,,A*7E
$GPGGA,175617.304,3804.9025,N,12255.9719,W,1,08,1.0,-30.4,M,,,,0000*0C
$GPGSA,A,3,21,05,25,26,29,02,15,13,,,,,2.0,1.0,1.7*3D
$GPRMC,175617.304,A,3804.9025,N,12255.9719,W,000.0,208.1,290918,,,A*7E
$GPGGA,175618.304,3804.9025,N,12255.9719,W,1,08,1.0,-30.6,M,,,,0000*01
$GPGSA,A,3,21,05,25,26,29,02,15,13,,,,,2.0,1.0,1.7*3D
$GPRMC,175618.304,A,3804.9025,N,12255.9719,W,000.0,208.1,290918,,,A*71
$GPGGA,175619.304,3804.9026,N,12255.9719,W,1,08,1.0,-30.8,M,,,,0000*0D
$GPGSA,A,3,21,05,25,26,29,02,15,13,,,,,2.0,1.0,1.7*3D
$GPGSV,2,1,08,21,47,282,40,05,35,049,40,25,32,189,35,26,29,306,38*75
$GPGSV,2,2,08,29,76,059,43,02,09,072,34,15,19,140,39,13,16,098,32*7F
$GPRMC,175619.304,A,3804.9026,N,12255.9719,W,000.0,208.1,290918,,,A*73
$GPGGA,175620.304,3804.9026,N,12255.9719,W,1,08,1.0,-31.1,M,,,,0000*0F
$GPGSA,A,3,21,05,25,26,29,02,15,13,,,,,2.0,1.0,1.7*3D
$GPRMC,175620.304,A,3804.9026,N,12255.9719,W,000.0,208.1,290918,,,A*79
$GPGGA,175621.304,3804.9026,N,12255.9720,W,1,08,1.0,-31.2,M,,,,0000*07
$GPGSA,A,3,21,05,25,26,29,02,15,13,,,,,2.0,1.0,1.7*3D
$GPRMC,175621.304,A,3804.9026,N,12255.9720,W,000.0,208.1,290918,,,A*72
$GPGGA,175622.304,3804.9026,N,12255.9720,W,1,08,1.0,-31.4,M,,,,0000*02
$GPGSA,A,3,21,05,25,26,29,02,15,13,,,,,2.0,1.0,1.7*3D
$GPGSV,2,1,08,21,47,282,41,05,35,049,41,25,32,189,34,26,29,306,34*78
$GPGSV,2,2,08,29,76,059,44,02,09,072,34,15,19,140,38,13,16,098,32*79
$GPRMC,175622.304,A,3804.9026,N,12255.9720,W,000.0,208.1,290918,,,A*71
$GPGGA,175623.304,3804.9028,N,12255.9720,W,1,08,1.0,-31.6,M,,,,0000*0F
$GPGSA,A,3,21,05,25,26,29,02,15,13,,,,,2.0,1.0,1.7*3D
$GPRMC,175623.304,A,3804.9028,N,12255.9720,W,000.0,208.1,290918,,,A*7E
$GPGGA,175624.304,3804.9028,N,12255.9720,W,1,08,1.0,-31.5,M,,,,0000*0B
$GPGSA,A,3,21,05,25,26,29,02,15,13,,,,,2.0,1.0,1.7*3D
$GPRMC,175624.304,A,3804.9028,N,12255.9720,W,000.0,208.1,290918,,,A*79
$GPGGA,175625.304,3804.9028,N,12255.9719,W,1,08,1.0,-31.1,M,,,,0000*04
$GPGSA,A,3,21,05,25,26,29,02,15,13,,,,,2.0,1.0,1.7*3D
$GPGSV,2,1,08,21,47,282,40,05,35,049,40,25,32,189,34,26,29,306,34*78
$GPGSV,2,2,08,29,76,059,43,02,09,072,33,15,19,140,39,13,16,098,32*78
$GPRMC,175625.304,A,3804.9028,N,12255.9719,W,000.0,208.1,290918,,,A*72
$GPGGA,175626.304,3804.9027,N,12255.9720,W,1,08,1.0,-31.1,M,,,,0000*02
$GPGSA,A,3,21,05,25,26,29,02,15,13,,,,,2.0,1.0,1.7*3D
$GPRMC,175626.304,A,3804.9027,N,12255.9720,W,000.0,208.1,290918,,,A*74
$GPGGA,175627.304,3804.9026,N,12255.9721,W,1,08,1.0,-31.0,M,,,,0000*02
$GPGSA,A,3,21,05,25,26,29,02,15,13,,,,,2.0,1.0,1.7*3D
$GPRMC,175627.304,A,3804.9026,N,12255.9721,W,000.0,208.1,290918,,,A*75
$GPGGA,175628.304,3804.9026,N,12255.9721,W,1,08,1.0,-31.1,M,,,,0000*0C
$GPGSA,A,3,21,05,25,26,29,02,15,13,,,,,2.0,1.0,1.7*3D
$GPGSV,2,1,08,21,47,282,41,05,35,049,41,25,32,189,34,26,29,306,38*74
$GPGSV,2,2,08,29,76,059,44,02,09,072,34,15,19,139,39,13,16,098,33*77
$GPRMC,175628.304,A,3804.9026,N,12255.9721,W,000.9,191.0,290918,,,A*71
$GPGGA,175629.304,3804.9026,N,12255.9722,W,1,08,1.0,-31.0,M,,,,0000*0F
$GPGSA,A,3,21,05,25,26,29,02,15,13,,,,,2.0,1.0,1.7*3D
$GPRMC,175629.304,A,3804.9026,N,12255.9722,W,001.0,175.7,290918,,,A*76
$GPGGA,175630.304,3804.9026,N,12255.9722,W,1,08,1.0,-30.9,M,,,,0000*0F
$GPGSA,A,3,21,05,25,26,29,02,15,13,,,,,2.0,1.0,1.7*3D
$GPRMC,175630.304,A,3804.9026,N,12255.9722,W,001.0,175.2,290918,,,A*7B
$GPGGA,175631.304,3804.9025,N,12255.9722,W,1,08,1.0,-30.7,M,,,,0000*03
$GPGSA,A,3,21,05,25,26,29,02,15,13,,,,,2.0,1.0,1.7*3D
$GPGSV,2,1,08,21,47,282,40,05,35,049,41,25,32,189,36,26,29,306,39*76
$GPGSV,2,2,08,29,76,059,44,02,09,072,34,15,19,139,39,13,16,098,32*76
$GPRMC,175631.304,A,3804.9025,N,12255.9722,W,001.3,188.4,290918,,,A*7E
$GPGGA,175632.304,3804.9024,N,12255.9723,W,1,08,1.0,-30.9,M,,,,0000*0E
$GPGSA,A,3,21,05,25,26,29,02,15,13,,,,,2.0,1.0,1.7*3D
$GPRMC,175632.304,A,3804.9024,N,12255.9723,W,001.3,197.7,290918,,,A*70
$GPGGA,175633.304,3804.9021,N,12255.9725,W,1,08,1.0,-30.8,M,,,,0000*0D
$GPGSA,A,3,21,05,25,26,29,02,15,13,,,,,2.0,1.0,1.7*3D
$GPRMC,175633.304,A,3804.9021,N,12255.9725,W,000.9,218.5,290918,,,A*7F
$GPGGA,175634.304,3804.9020,N,12255.9727,W,1,08,1.0,-30.7,M,,,,0000*06
$GPGSA,A,3,21,05,25,26,29,02,15,13,,,,,2.0,1.0,1.7*3D
$GPGSV,2,1,08,21,47,282,39,05,35,049,40,25,31,189,36,26,29,306,38*7B
$GPGSV,2,2,08,29,76,059,43,02,09,072,33,15,19,139,37,13,16,098,35*7F
$GPRMC,175634.304,A,3804.9020,N,12255.9727,W,000.0,218.5,290918,,,A*72
$GPGGA,175635.304,3804.9021,N,12255.9727,W,1,07,1.1,-30.8,M,,,,0000*07
$GPGSA,A,3,21,05,25,26,29,15,13,,,,,,2.2,1.1,2.0*38
$GPRMC,175635.304,A,3804.9021,N,12255.9727,W,000.0,218.5,290918,,,A*72
$GPGGA,175636.304,3804.9021,N,12255.9727,W,1,08,1.0,-30.8,M,,,,0000*0A
$GPGSA,A,3,21,05,25,26,29,02,15,13,,,,,2.0,1.0,1.7*3D
$GPRMC,175636.304,A,3804.9021,N,12255.9727,W,000.0,218.5,290918,,,A*71
$GPGGA,175637.304,3804.9021,N,12255.9727,W,1,08,1.0,-30.4,M,,,,0000*07
$GPGSA,A,3,21,05,25,26,29,02,15,13,,,,,2.0,1.0,1.7*3D
$GPGSV,2,1,08,21,47,282,40,05,35,049,43,25,31,189,34,26,29,306,37*7B
$GPGSV,2,2,08,29,76,060,44,02,09,072,25,15,19,139,40,13,16,098,33*73
$GPRMC,175637.304,A,3804.9021,N,12255.9727,W,000.0,218.5,290918,,,A*70
$GPGGA,175638.304,3804.9020,N,12255.9727,W,1,07,1.1,-30.2,M,,,,0000*01
$GPGSA,A,3,21,05,25,26,29,15,13,,,,,,2.2,1.1,2.0*38
$GPRMC,175638.304,A,3804.9020,N,12255.9727,W,000.0,218.5,290918,,,A*7E
$GPGGA,175639.304,3804.9021,N,12255.9727,W,1,08,1.0,-30.1,M,,,,0000*0C
$GPGSA,A,3,21,05,25,26,29,02,15,13,,,,,2.0,1.0,1.7*3D
$GPRMC,175639.304,A,3804.9021,N,12255.9727,W,000.0,218.5,290918,,,A*7E
$GPGGA,175640.304,3804.9021,N,12255.9727,W,1,08,1.0,-30.1,M,,,,0000*02
$GPGSA,A,3,21,05,25,26,29,02,15,13,,,,,2.0,1.0,1.7*3D
$GPGSV,2,1,08,21,47,282,40,05,35,049,44,25,31,189,37,26,29,306,34*7C
$GPGSV,2,2,08,29,76,060,44,02,09,072,29,15,19,139,42,13,16,098,28*77
$GPRMC,175640.304,A,3804.9021,N,12255.9727,W,000.0,218.5,290918,,,A*70
$GPGGA,175641.304,3804.9021,N,12255.9727,W,1,08,1.0,-30.2,M,,,,0000*00
$GPGSA,A,3,21,05,25,26,29,02,15,13,,,,,2.0,1.0,1.7*3D
$GPRMC,175641.304,A,3804.9021,N,12255.9727,W,000.0,218.5,290918,,,A*71
$GPGGA,175642.304,3804.9021,N,12255.9727,W,1,08,1.0,-30.2,M,,,,0000*03
$GPGSA,A,3,21,05,25,26,29,02,15,13,,,,,2.0,1.0,1.7*3D
$GPRMC,175642.304,A,3804.9021,N,12255.9727,W,000.0,218.5,290918,,,A*72
$GPGGA,175643.304,3804.9021,N,12255.9727,W,1,08,1.0,-30.2,M,,,,0000*02
$GPGSA,A,3,21,05,25,26,29,02,15,13,,,,,2.0,1.0,1.7*3D
$GPGSV,2,1,08,21,47,282,40,05,35,049,44,25,31,189,35,26,29,306,33*79
$GPGSV,2,2,08,29,76,060,44,02,09,072,33,15,19,139,42,13,16,098,29*7D
$GPRMC,175643.304,A,3804.9021,N,12255.9727,W,000.0,218.5,290918,,,A*73
$GPGGA,175644.304,3804.9022,N,12255.9727,W,1,08,1.0,-30.4,M,,,,0000*00
$GPGSA,A,3,21,05,25,26,29,02,15,13,,,,,2.0,1.0,1.7*3D
$GPRMC,175644.304,A,3804.9022,N,12255.9727,W,000.0,218.5,290918,,,A*77
$GPGGA,175645.304,3804.9022,N,12255.9728,W,1,08,1.0,-30.3,M,,,,0000*09
$GPGSA,A,3,21,05,25,26,29,02,15,13,,,,,2.0,1.0,1.7*3D
$GPRMC,175645.304,A,3804.9022,N,12255.9728,W,000.0,218.5,290918,,,A*79
$GPGGA,175646.304,3804.9023,N,12255.9728,W,1,08,1.0,-30.3,M,,,,0000*0B
$GPGSA,A,3,21,05,25,26,29,02,15,13,,,,,2.0,1.0,1.7*3D
$GPGSV,2,1,08,21,47,282,41,05,35,049,43,25,31,189,33,26,29,306,32*78
$GPGSV,2,2,08,29,76,060,45,02,09,072,34,15,19,139,41,13,16,098,29*78
$GPRMC,175646.304,A,3804.9023,N,12255.9728,W,000.0,218.5,290918,,,A*7B
$GPGGA,175647.304,3804.9023,N,12255.9728,W,1,08,1.0,-30.3,M,,,,0000*0A
$GPGSA,A,3,21,05,25,26,29,02,15,13,,,,,2.0,1.0,1.7*3D
$GPRMC,175647.304,A,3804.9023,N,12255.9728,W,000.0,218.5,290918,,,A*7A
$GPGGA,175648.304,3804.9024,N,12255.9728,W,1,08,1.0,-30.3,M,,,,0000*02
$GPGSA,A,3,21,05,25,26,29,02,15,13,,,,,2.0,1.0,1.7*3D
$GPRMC,175648.304,A,3804.9024,N,12255.9728,W,000.0,218.5,290918,,,A*72
$GPGGA,175649.304,3804.9024,N,12255.9728,W,1,08,1.0,-30.3,M,,,,0000*03
$GPGSA,A,3,21,05,25,26,29,02,15,13,,,,,2.0,1.0,1.7*3D
$GPGSV,2,1,08,21,47,282,40,05,35,049,41,25,31,189,35,26,29,306,34*7B
$GPGSV,2,2,08,29,76,060,45,02,09,072,33,15,19,139,40,13,16,098,29*7E
$GPRMC,175649.304,A,3804.9024,N,12255.9728,W,000.0,218.5,290918,,,A*73
$GPGGA,175650.304,3804.9024,N,12255.9728,W,1,08,1.0,-30.5,M,,,,0000*0D
$GPGSA,A,3,21,05,25,26,29,02,15,13,,,,,2.0,1.0,1.7*3D
$GPRMC,175650.304,A,3804.9024,N,12255.9728,W,000.0,218.5,290918,,,A*7B
$GPGGA,175651.304,3804.9025,N,12255.9729,W,1,08,1.0,-30.6,M,,,,0000*0F
$GPGSA,A,3,21,05,25,26,29,02,15,13,,,,,2.0,1.0,1.7*3D
$GPRMC,175651.304,A,3804.9025,N,12255.9729,W,000.8,331.8,290918,,,A*75
$GPGGA,175652.304,3804.9026,N,12255.9729,W,1,08,1.0,-30.4,M,,,,0000*0D
$GPGSA,A,3,21,05,25,26,29,02,15,13,,,,,2.0,1.0,1.7*3D
$GPGSV,2,1,08,21,47,282,39,05,35,049,41,25,31,189,35,26,29,305,35*77
$GPGSV,2,2,08,29,76,060,45,02,09,072,33,15,19,139,41,13,16,098,28*7E
$GPRMC,175652.304,A,3804.9026,N,12255.9729,W,000.8,326.6,290918,,,A*7D
$GPGGA,175653.304,3804.9026,N,12255.9729,W,1,08,1.0,-30.3,M,,,,0000*0B
$GPGSA,A,3,21,05,25,26,29,02,15,13,,,,,2.0,1.0,1.7*3D
$GPRMC,175653.304,A,3804.9026,N,12255.9729,W,000.0,326.6,290918,,,A*74
$GPGGA,175654.304,3804.9027,N,12255.9730,W,1,08,1.0,-30.3,M,,,,0000*05
$GPGSA,A,3,21,05,25,26,29,02,15,13,,,,,2.0,1.0,1.7*3D
$GPRMC,175654.304,A,3804.9027,N,12255.9730,W,000.0,326.6,290918,,,A*7A
$GPGGA,175655.304,3804.9027,N,12255.9730,W,1,08,1.0,-30.4,M,,,,0000*03
$GPGSA,A,3,21,05,25,26,29,02,15,13,,,,,2.0,1.0,1.7*3D
$GPGSV,2,1,08,21,47,282,39,05,35,049,42,25,31,189,35,26,29,305,35*74
$GPGSV,2,2,08,29,76,060,45,02,09,072,32,15,19,139,40,13,16,098,28*7E
$GPRMC,175655.304,A,3804.9027,N,12255.9730,W,000.0,326.6,290918,,,A*7B
$GPGGA,175656.304,3804.9028,N,12255.9731,W,1,08,1.0,-30.5,M,,,,0000*0F
$GPGSA,A,3,21,05,25,26,29,02,15,13,,,,,2.0,1.0,1.7*3D
$GPRMC,175656.304,A,3804.9028,N,12255.9731,W,000.8,321.2,290918,,,A*7D
$GPGGA,175657.304,3804.9028,N,12255.9732,W,1,08,1.0,-30.6,M,,,,0000*0E
$GPGSA,A,3,21,05,25,26,29,02,15,13,,,,,2.0,1.0,1.7*3D
$GPRMC,175657.304,A,3804.9028,N,12255.9732,W,000.9,319.9,290918,,,A*7E
$GPGGA,175658.304,3804.9029,N,12255.9733,W,1,07,1.1,-30.7,M,,,,0000*0E
$GPGSA,A,3,21,05,25,26,29,15,13,,,,,,2.2,1.1,2.0*38
$GPGSV,3,1,09,21,47,282,39,05,35,049,42,25,31,189,34,26,29,305,35*75
$GPGSV,3,2,09,29,76,060,45,02,09,072,25,15,19,139,41,13,16,098,32*72
$GPGSV,3,3,09,31,01,260,*47
$GPRMC,175658.304,A,3804.9029,N,12255.9733,W,000.9,313.5,290918,,,A*77
$GPGGA,175659.304,3804.9030,N,12255.9733,W,1,07,1.1,-30.7,M,,,,0000*07
$GPGSA,A,3,21,05,25,26,29,15,13,,,,,,2.2,1.1,2.0*38
$GPRMC,175659.304,A,3804.9030,N,12255.9733,W,000.9,312.3,290918,,,A*79
$GPGGA,175700.304,3804.9031,N,12255.9734,W,1,07,1.1,-30.8,M,,,,0000*03
$GPGSA,A,3,21,05,25,26,29,15,13,,,,,,2.2,1.1,2.0*38
$GPRMC,175700.304,A,3804.9031,N,12255.9734,W,000.9,318.3,290918,,,A*78
$GPGGA,175701.304,3804.9031,N,12255.9735,W,1,07,1.1,-30.9,M,,,,0000*02
$GPGSA,A,3,21,05,25,26,29,15,13,,,,,,2.2,1.1,2.0*38
$GPGSV,3,1,09,21,47,282,39,05,35,049,42,25,31,189,33,26,29,305,36*71
$GPGSV,3,2,09,29,76,060,44,02,09,072,24,15,19,139,39,13,16,098,33*7C
$GPGSV,3,3,09,31,01,260,*47
$GPRMC,175701.304,A,3804.9031,N,12255.9735,W,001.0,313.1,290918,,,A*79
$GPGGA,175702.304,3804.9032,N,12255.9735,W,1,08,1.0,-31.0,M,,,,0000*04
$GPGSA,A,3,21,05,25,26,29,02,15,13,,,,,2.0,1.0,1.7*3D
$GPRMC,175702.304,A,3804.9032,N,12255.9735,W,000.9,307.8,290918,,,A*7D
$GPGGA,175703.304,3804.9033,N,12255.9736,W,1,08,1.0,-31.1,M,,,,0000*06
$GPGSA,A,3,21,05,25,26,29,02,15,13,,,,,2.0,1.0,1.7*3D
$GPRMC,175703.304,A,3804.9033,N,12255.9736,W,000.9,311.1,290918,,,A*70
$GPGGA,175704.304,3804.9034,N,12255.9737,W,1,08,1.0,-31.2,M,,,,0000*04
$GPGSA,A,3,21,05,25,26,29,02,15,13,,,,,2.0,1.0,1.7*3D
$GPGSV,3,1,09,21,47,282,38,05,35,049,43,25,31,189,34,26,29,305,37*77
$GPGSV,3,2,09,29,76,060,45,02,09,072,24,15,19,139,40,13,16,098,33*73
$GPGSV,3,3,09,31,01,260,*47
$GPRMC,175704.304,A,3804.9034,N,12255.9737,W,001.0,307.9,290918,,,A*76
$GPGGA,175705.304,3804.9035,N,12255.9737,W,1,08,1.0,-31.5,M,,,,0000*03
$GPGSA,A,3,21,05,25,26,29,02,15,13,,,,,2.0,1.0,1.7*3D
$GPRMC,175705.304,A,3804.9035,N,12255.9737,W,000.9,311.1,290918,,,A*71
$GPGGA,175706.304,3804.9035,N,12255.9738,W,1,08,1.0,-31.6,M,,,,0000*0C
$GPGSA,A,3,21,05,25,26,29,02,15,13,,,,,2.0,1.0,1.7*3D
$GPRMC,175706.304,A,3804.9035,N,12255.9738,W,001.0,308.6,290918,,,A*7A
$GPGGA,175707.304,3804.9036,N,12255.9739,W,1,08,1.0,-31.6,M,,,,0000*0F
$GPGSA,A,3,21,05,25,26,29,02,15,13,,,,,2.0,1.0,1.7*3D
$GPGSV,3,1,09,21,47,282,39,05,35,049,42,25,31,189,35,26,29,305,37*76
$GPGSV,3,2,09,29,76,060,44,02,09,072,23,15,19,139,38,13,16,098,33*7A
$GPGSV,3,3,09,31,01,260,*47
$GPRMC,175707.304,A,3804.9036,N,12255.9739,W,001.0,306.3,290918,,,A*72
$GPGGA,175708.304,3804.9037,N,12255.9740,W,1,08,1.0,-31.7,M,,,,0000*0E
$GPGSA,A,3,21,05,25,26,29,02,15,13,,,,,2.0,1.0,1.7*3D
$GPRMC,175708.304,A,3804.9037,N,12255.9740,W,001.0,308.6,290918,,,A*79
$GPGGA,175709.304,3804.9037,N,12255.9741,W,1,08,1.0,-31.8,M,,,,0000*01
$GPGSA,A,3,21,05,25,26,29,02,15,13,,,,,2.0,1.0,1.7*3D
$GPRMC,175709.304,A,3804.9037,N,12255.9741,W,001.0,304.1,290918,,,A*72
$GPGGA,175710.304,3804.9038,N,12255.9742,W,1,08,1.0,-31.8,M,,,,0000*05
$GPGSA,A,3,21,05,25,26,29,02,15,13,,,,,2.0,1.0,1.7*3D
$GPGSV,3,1,09,21,47,282,39,05,35,049,44,25,31,189,32,26,29,305,35*75
$GPGSV,3,2,09,29,76,060,44,02,09,072,27,15,19,139,39,13,16,098,32*7E
$GPGSV,3,3,09,31,01,260,*47
$GPRMC,175710.304,A,3804.9038,N,12255.9742,W,001.0,303.7,290918,,,A*77
$GPGGA,175711.304,3804.9039,N,12255.9743,W,1,08,1.0,-31.9,M,,,,0000*05
$GPGSA,A,3,21,05,25,26,29,02,15,13,,,,,2.0,1.0,1.7*3D
$GPRMC,175711.304,A,3804.9039,N,12255.9743,W,000.9,306.3,290918,,,A*7F
$GPGGA,175712.304,3804.9039,N,12255.9744,W,1,08,1.0,-32.0,M,,,,0000*0B
$GPGSA,A,3,21,05,25,26,29,02,15,13,,,,,2.0,1.0,1.7*3D
$GPRMC,175712.304,A,3804.9039,N,12255.9744,W,000.9,307.0,290918,,,A*79
$GPGGA,175713.304,3804.9040,N,12255.9744,W,1,07,1.1,-32.0,M,,,,0000*0A
$GPGSA,A,3,21,05,25,26,29,15,13,,,,,,2.2,1.1,2.0*38
$GPGSV,3,1,09,21,47,282,40,05,35,049,44,25,31,189,34,26,29,305,35*7D
$GPGSV,3,2,09,29,76,060,44,02,09,072,23,15,19,139,39,13,16,098,30*78
$GPGSV,3,3,09,31,01,260,*47
$GPRMC,175713.304,A,3804.9040,N,12255.9744,W,000.9,306.5,290918,,,A*72
$GPGGA,175714.304,3804.9041,N,12255.9745,W,1,07,1.1,-32.1,M,,,,0000*0C
$GPGSA,A,3,21,05,25,26,29,15,13,,,,,,2.2,1.1,2.0*38
$GPRMC,175714.304,A,3804.9041,N,12255.9745,W,000.9,299.9,290918,,,A*7E
$GPGGA,175715.304,3804.9042,N,12255.9746,W,1,07,1.1,-32.1,M,,,,0000*0D
$GPGSA,A,3,21,05,25,26,29,15,13,,,,,,2.2,1.1,2.0*38
$GPRMC,175715.304,A,3804.9042,N,12255.9746,W,000.9,304.2,290918,,,A*71
$GPGGA,175716.304,3804.9042,N,12255.9747,W,1,08,1.0,-32.1,M,,,,0000*01
$GPGSA,A,3,21,05,25,26,29,02,15,13,,,,,2.0,1.0,1.7*3D
$GPGSV,3,1,09,21,47,282,40,05,35,049,45,25,31,189,33,26,29,305,36*78
$GPGSV,3,2,09,29,76,061,44,02,09,072,19,15,19,139,39,13,16,098,29*78
$GPGSV,3,3,09,31,01,260,*47
$GPRMC,175716.304,A,3804.9042,N,12255.9747,W,001.0,302.9,290918,,,A*76
$GPGGA,175717.304,3804.9043,N,12255.9748,W,1,08,1.0,-32.1,M,,,,0000*0E
$GPGSA,A,3,21,05,25,26,29,02,15,13,,,,,2.0,1.0,1.7*3D
$GPRMC,175717.304,A,3804.9043,N,12255.9748,W,001.0,309.0,290918,,,A*7B
$GPGGA,175718.304,3804.9043,N,12255.9749,W,1,08,1.0,-32.1,M,,,,0000*00
$GPGSA,A,3,21,05,25,26,29,02,15,13,,,,,2.0,1.0,1.7*3D
$GPRMC,175718.304,A,3804.9043,N,12255.9749,W,001.0,311.8,290918,,,A*74
$GPGGA,175719.304,3804.9043,N,12255.9750,W,1,08,1.0,-32.1,M,,,,0000*09
$GPGSA,A,3,21,05,25,26,29,02,15,13,,,,,2.0,1.0,1.7*3D
$GPGSV,3,1,09,21,47,282,40,05,35,049,45,25,31,189,34,26,29,305,34*7D
$GPGSV,3,2,09,29,76,061,45,02,09,072,22,15,19,139,39,13,16,098,25*7D
$GPGSV,3,3,09,31,01,259,*4D
$GPRMC,175719.304,A,3804.9043,N,12255.9750,W,001.0,305.6,290918,,,A*76
$GPGGA,175720.304,3804.9044,N,12255.9750,W,1,08,1.0,-32.1,M,,,,0000*04
$GPGSA,A,3,21,05,25,26,29,02,15,13,,,,,2.0,1.0,1.7*3D
$GPRMC,175720.304,A,3804.9044,N,12255.9750,W,000.9,305.7,290918,,,A*72
$GPGGA,175721.304,3804.9044,N,12255.9751,W,1,08,1.0,-32.2,M,,,,0000*07
$GPGSA,A,3,21,05,25,26,29,02,15,13,,,,,2.0,1.0,1.7*3D
$GPRMC,175721.304,A,3804.9044,N,12255.9751,W,000.9,306.5,290918,,,A*73
$GPGGA,175722.304,3804.9045,N,12255.9752,W,1,08,1.0,-32.1,M,,,,0000*05
$GPGSA,A,3,21,05,25,26,29,02,15,13,,,,,2.0,1.0,1.7*3D
$GPGSV,3,1,09,21,47,282,40,05,35,049,45,25,31,189,34,26,29,305,35*7C
$GPGSV,3,2,09,29,76,061,45,02,09,072,22,15,19,139,39,13,16,098,27*7F
$GPGSV,3,3,09,31,01,259,*4D
$GPRMC,175722.304,A,3804.9045,N,12255.9752,W,000.9,308.1,290918,,,A*78
$GPGGA,175723.304,3804.9046,N,12255.9753,W,1,08,1.0,-32.1,M,,,,0000*06
$GPGSA,A,3,21,05,25,26,29,02,15,13,,,,,2.0,1.0,1.7*3D
$GPRMC,175723.304,A,3804.9046,N,12255.9753,W,000.9,300.7,290918,,,A*75
$GPGGA,175724.304,3804.9046,N,12255.9753,W,1,08,1.0,-32.2,M,,,,0000*02
$GPGSA,A,3,21,05,25,26,29,02,15,13,,,,,2.0,1.0,1.7*3D
$GPRMC,175724.304,A,3804.9046,N,12255.9753,W,000.8,306.7,290918,,,A*75
$GPGGA,175725.304,3804.9047,N,12255.9754,W,1,08,1.0,-32.2,M,,,,0000*05
$GPGSA,A,3,21,05,25,26,29,02,15,13,,,,,2.0,1.0,1.7*3D
$GPGSV,3,1,09,21,47,282,40,05,35,049,45,25,31,189,34,26,29,305,35*7C
$GPGSV,3,2,09,29,76,061,45,02,09,072,20,15,19,139,38,13,16,098,27*7C
$GPGSV,3,3,09,31,01,259,*4D
$GPRMC,175725.304,A,3804.9047,N,12255.9754,W,000.8,313.2,290918,,,A*73
$GPGGA,175726.304,3804.9047,N,12255.9755,W,1,08,1.0,-32.1,M,,,,0000*04
$GPGSA,A,3,21,05,25,26,29,02,15,13,,,,,2.0,1.0,1.7*3D
$GPRMC,175726.304,A,3804.9047,N,12255.9755,W,000.9,311.0,290918,,,A*70
$GPGGA,175727.304,3804.9047,N,12255.9756,W,1,08,1.0,-32.1,M,,,,0000*06
$GPGSA,A,3,21,05,25,26,29,02,15,13,,,,,2.0,1.0,1.7*3D
$GPRMC,175727.304,A,3804.9047,N,12255.9756,W,000.9,306.3,290918,,,A*77
$GPGGA,175728.304,3804.9048,N,12255.9757,W,1,08,1.0,-32.1,M,,,,0000*07
$GPGSA,A,3,21,05,25,26,29,02,15,13,,,,,2.0,1.0,1.7*3D
$GPGSV,3,1,09,21,47,282,40,05,35,049,45,25,31,189,34,26,29,305,34*7D
$GPGSV,3,2,09,29,76,061,45,02,09,072,18,15,19,139,40,13,16,098,27*78
$GPGSV,3,3,09,31,01,259,*4D
$GPRMC,175728.304,A,3804.9048,N,12255.9757,W,001.0,306.6,290918,,,A*7B
$GPGGA,175729.304,3804.9049,N,12255.9758,W,1,08,1.0,-32.1,M,,,,0000*08
$GPGSA,A,3,21,05,25,26,29,02,15,13,,,,,2.0,1.0,1.7*3D
$GPRMC,175729.304,A,3804.9049,N,12255.9758,W,001.0,304.9,290918,,,A*79
$GPGGA,175730.304,3804.9049,N,12255.9759,W,1,08,1.0,-32.1,M,,,,0000*01
$GPGSA,A,3,21,05,25,26,29,02,15,13,,,,,2.0,1.0,1.7*3D
$GPRMC,175730.304,A,3804.9049,N,12255.9759,W,000.9,299.7,290918,,,A*73
$GPGGA,175731.304,3804.9050,N,12255.9760,W,1,08,1.0,-32.1,M,,,,0000*02
$GPGSA,A,3,21,05,25,26,29,02,15,13,,,,,2.0,1.0,1.7*3D
$GPGSV,3,1,09,21,47,282,40,05,35,049,45,25,31,189,34,26,29,305,35*7C
$GPGSV,3,2,09,29,76,061,45,02,09,072,19,15,19,139,39,13,16,098,27*77
$GPGSV,3,3,09,31,01,259,*4D
$GPRMC,175731.304,A,3804.9050,N,12255.9760,W,000.9,304.1,290918,,,A*73
$GPGGA,175732.304,3804.9050,N,12255.9760,W,1,08,1.0,-32.1,M,,,,0000*01
$GPGSA,A,3,21,05,25,26,29,02,15,13,,,,,2.0,1.0,1.7*3D
$GPRMC,175732.304,A,3804.9050,N,12255.9760,W,000.9,306.8,290918,,,A*7B
$GPGGA,175733.304,3804.9051,N,12255.9761,W,1,08,1.0,-32.1,M,,,,0000*00
$GPGSA,A,3,21,05,25,26,29,02,15,13,,,,,2.0,1.0,1.7*3D
$GPRMC,175733.304,A,3804.9051,N,12255.9761,W,000.9,299.2,290918,,,A*77
