$GPGGA,013637.192,3744.9309,N,12230.4148,W,1,08,1.4,-28.1,M,,,,0000*00
$GPGSA,A,3,07,17,30,11,28,13,01,19,,,,,2.4,1.4,1.9*3A
$GPGSV,3,1,11,07,12,125,27,17,71,178,28,30,49,117,35,11,18,051,27*7F
$GPGSV,3,2,11,28,57,036,26,13,52,261,17,01,21,067,28,15,29,297,24*7B
$GPGSV,3,3,11,19,48,198,34,06,03,170,,24,02,310,*4F
$CCMWV,180.0,T,001.0,N,A*33
$CCVWT,180.0,R,1.0,N,0.5,M,1.9,K*4A
$CCMWD,193.0,T,,M,1.0,N,0.5,M*65
$CCMWV,180.0,T,001.0,N,A*33
$CCVWT,180.0,R,1.0,N,0.5,M,1.9,K*4A
$CCMWD,193.0,T,,M,1.0,N,0.5,M*65
$XXRMC,013637.192,A,3744.9309,N,12230.4148,W,000.0,000.0,040317,,,A*6C
$GPRMC,013637.192,A,3744.9309,N,12230.4148,W,000.0,000.0,040317,,,A*7B
$GPGGA,013638.192,3744.9309,N,12230.4148,W,1,08,1.4,-28.1,M,,,,0000*0F
$GPGSA,A,3,07,17,30,11,28,13,01,19,,,,,2.4,1.4,1.9*3A
$CCMWV,180.0,T,001.0,N,A*33
$CCVWT,180.0,R,1.0,N,0.5,M,1.9,K*4A
$CCMWD,193.0,T,,M,1.0,N,0.5,M*65
$CCMWV,180.0,T,001.0,N,A*33
$CCVWT,180.0,R,1.0,N,0.5,M,1.9,K*4A
$CCMWD,193.0,T,,M,1.0,N,0.5,M*65
$XXRMC,013638.192,A,3744.9309,N,12230.4148,W,000.0,000.0,040317,,,A*63
$GPRMC,013638.192,A,3744.9309,N,12230.4148,W,000.0,000.0,040317,,,A*74
$GPGGA,013639.192,3744.9309,N,12230.4148,W,1,07,2.1,-28.1,M,,,,0000*07
$GPGSA,A,3,07,17,30,11,28,01,19,,,,,,3.1,2.1,2.3*33
$CCMWV,180.0,T,001.0,N,A*33
$CCVWT,180.0,R,1.0,N,0.5,M,1.9,K*4A
$CCMWD,193.0,T,,M,1.0,N,0.5,M*65
$CCMWV,180.0,T,001.0,N,A*33
$CCVWT,180.0,R,1.0,N,0.5,M,1.9,K*4A
$CCMWD,193.0,T,,M,1.0,N,0.5,M*65
$XXRMC,013639.192,A,3744.9309,N,12230.4148,W,000.0,000.0,040317,,,A*62
$GPRMC,013639.192,A,3744.9309,N,12230.4148,W,000.0,000.0,040317,,,A*75
$GPGGA,013640.192,3744.9309,N,12230.4148,W,1,07,2.1,-28.1,M,,,,0000*09
$GPGSA,A,3,07,17,30,11,28,01,19,,,,,,3.1,2.1,2.3*33
$GPGSV,3,1,11,07,12,125,26,17,71,178,29,30,49,117,34,11,18,050,27*7F
$GPGSV,3,2,11,28,57,036,27,13,52,261,15,01,21,067,28,15,29,297,23*7F
$GPGSV,3,3,11,19,48,198,34,06,03,170,,24,02,310,*4F
$CCMWV,180.0,T,001.0,N,A*33
$CCVWT,180.0,R,1.0,N,0.5,M,1.9,K*4A
$CCMWD,193.0,T,,M,1.0,N,0.5,M*65
$CCMWV,180.0,T,001.0,N,A*33
$CCVWT,180.0,R,1.0,N,0.5,M,1.9,K*4A
$CCMWD,193.0,T,,M,1.0,N,0.5,M*65
$XXRMC,013640.192,A,3744.9309,N,12230.4148,W,000.0,000.0,040317,,,A*6C
$GPRMC,013640.192,A,3744.9309,N,12230.4148,W,000.0,000.0,040317,,,A*7B
$GPGGA,013641.192,3744.9309,N,12230.4148,W,1,08,1.4,-28.1,M,,,,0000*01
$GPGSA,A,3,07,17,30,11,28,13,01,19,,,,,2.4,1.4,1.9*3A
$CCMWV,180.0,T,001.0,N,A*33
$CCVWT,180.0,R,1.0,N,0.5,M,1.9,K*4A
$CCMWD,193.0,T,,M,1.0,N,0.5,M*65
$CCMWV,180.0,T,001.0,N,A*33
$CCVWT,180.0,R,1.0,N,0.5,M,1.9,K*4A
$CCMWD,193.0,T,,M,1.0,N,0.5,M*65
$XXRMC,013641.192,A,3744.9309,N,12230.4148,W,000.0,000.0,040317,,,A*6D
$GPRMC,013641.192,A,3744.9309,N,12230.4148,W,000.0,000.0,040317,,,A*7A
$GPGGA,013642.192,3744.9309,N,12230.4147,W,1,07,2.1,-28.1,M,,,,0000*04
$GPGSA,A,3,07,17,30,11,28,01,19,,,,,,3.1,2.1,2.3*33
$CCMWV,180.0,T,001.0,N,A*33
$CCVWT,180.0,R,1.0,N,0.5,M,1.9,K*4A
$CCMWD,193.0,T,,M,1.0,N,0.5,M*65
$CCMWV,180.0,T,001.0,N,A*33
$CCVWT,180.0,R,1.0,N,0.5,M,1.9,K*4A
$CCMWD,193.0,T,,M,1.0,N,0.5,M*65
$XXRMC,013642.192,A,3744.9309,N,12230.4147,W,000.0,000.0,040317,,,A*61
$GPRMC,013642.192,A,3744.9309,N,12230.4147,W,000.0,000.0,040317,,,A*76
$GPGGA,013643.192,3744.9309,N,12230.4148,W,1,07,2.1,-28.1,M,,,,0000*0A
$GPGSA,A,3,07,17,30,11,28,01,19,,,,,,3.1,2.1,2.3*33
$GPGSV,3,1,11,07,12,125,26,17,71,178,29,30,49,117,35,11,18,050,26*7F
$GPGSV,3,2,11,28,57,036,27,13,52,261,11,01,21,067,28,15,29,297,22*7A
$GPGSV,3,3,11,19,48,198,34,06,03,170,,24,02,310,*4F
$CCMWV,180.0,T,001.0,N,A*33
$CCVWT,180.0,R,1.0,N,0.5,M,1.9,K*4A
$CCMWD,193.0,T,,M,1.0,N,0.5,M*65
$CCMWV,180.0,T,001.0,N,A*33
$CCVWT,180.0,R,1.0,N,0.5,M,1.9,K*4A
$CCMWD,193.0,T,,M,1.0,N,0.5,M*65
$XXRMC,013643.192,A,3744.9309,N,12230.4148,W,000.0,000.0,040317,,,A*6F
$GPRMC,013643.192,A,3744.9309,N,12230.4148,W,000.0,000.0,040317,,,A*78
$GPGGA,013644.192,3744.9309,N,12230.4148,W,1,07,2.1,-28.1,M,,,,0000*0D
$GPGSA,A,3,07,17,30,11,28,01,19,,,,,,3.1,2.1,2.3*33
$CCMWV,180.0,T,001.0,N,A*33
$CCVWT,180.0,R,1.0,N,0.5,M,1.9,K*4A
$CCMWD,193.0,T,,M,1.0,N,0.5,M*65
$CCMWV,180.0,T,001.0,N,A*33
$CCVWT,180.0,R,1.0,N,0.5,M,1.9,K*4A
$CCMWD,193.0,T,,M,1.0,N,0.5,M*65
$XXRMC,013644.192,A,3744.9309,N,12230.4148,W,000.0,000.0,040317,,,A*68
$GPRMC,013644.192,A,3744.9309,N,12230.4148,W,000.0,000.0,040317,,,A*7F
$GPGGA,013645.192,3744.9309,N,12230.4148,W,1,07,2.1,-28.1,M,,,,0000*0C
$GPGSA,A,3,07,17,30,11,28,01,19,,,,,,3.1,2.1,2.3*33
$CCMWV,180.0,T,001.0,N,A*33
$CCVWT,180.0,R,1.0,N,0.5,M,1.9,K*4A
$CCMWD,193.0,T,,M,1.0,N,0.5,M*65
$CCMWV,180.0,T,001.0,N,A*33
$CCVWT,180.0,R,1.0,N,0.5,M,1.9,K*4A
$CCMWD,193.0,T,,M,1.0,N,0.5,M*65
$XXRMC,013645.192,A,3744.9309,N,12230.4148,W,000.0,000.0,040317,,,A*69
$GPRMC,013645.192,A,3744.9309,N,12230.4148,W,000.0,000.0,040317,,,A*7E
$GPGGA,013646.192,3744.9309,N,12230.4148,W,1,07,2.1,-28.1,M,,,,0000*0F
$GPGSA,A,3,07,17,30,11,28,01,19,,,,,,3.1,2.1,2.3*33
$GPGSV,3,1,11,07,12,125,27,17,71,178,29,30,49,117,35,11,18,050,27*7F
$GPGSV,3,2,11,28,57,036,27,13,52,261,13,01,21,067,29,15,29,297,21*7A
$GPGSV,3,3,11,19,48,198,34,06,03,170,,24,02,310,*4F
$CCMWV,180.0,T,001.0,N,A*33
$CCVWT,180.0,R,1.0,N,0.5,M,1.9,K*4A
$CCMWD,193.0,T,,M,1.0,N,0.5,M*65
$CCMWV,180.0,T,001.0,N,A*33
$CCVWT,180.0,R,1.0,N,0.5,M,1.9,K*4A
$CCMWD,193.0,T,,M,1.0,N,0.5,M*65
$XXRMC,013646.192,A,3744.9309,N,12230.4148,W,000.0,000.0,040317,,,A*6A
$GPRMC,013646.192,A,3744.9309,N,12230.4148,W,000.0,000.0,040317,,,A*7D
$GPGGA,013647.192,3744.9309,N,12230.4147,W,1,07,2.1,-28.1,M,,,,0000*01
$GPGSA,A,3,07,17,30,11,28,01,19,,,,,,3.1,2.1,2.3*33
$CCMWV,180.0,T,001.0,N,A*33
$CCVWT,180.0,R,1.0,N,0.5,M,1.9,K*4A
$CCMWD,193.0,T,,M,1.0,N,0.5,M*65
$CCMWV,180.0,T,001.0,N,A*33
$CCVWT,180.0,R,1.0,N,0.5,M,1.9,K*4A
$CCMWD,193.0,T,,M,1.0,N,0.5,M*65
$XXRMC,013647.192,A,3744.9309,N,12230.4147,W,000.0,000.0,040317,,,A*64
$GPRMC,013647.192,A,3744.9309,N,12230.4147,W,000.0,000.0,040317,,,A*73
$GPGGA,013648.192,3744.9309,N,12230.4147,W,1,07,2.1,-28.1,M,,,,0000*0E
$GPGSA,A,3,07,17,30,11,28,01,19,,,,,,3.1,2.1,2.3*33
$CCMWV,180.0,T,001.0,N,A*33
$CCVWT,180.0,R,1.0,N,0.5,M,1.9,K*4A
$CCMWD,193.0,T,,M,1.0,N,0.5,M*65
$CCMWV,180.0,T,001.0,N,A*33
$CCVWT,180.0,R,1.0,N,0.5,M,1.9,K*4A
$CCMWD,193.0,T,,M,1.0,N,0.5,M*65
$XXRMC,013648.192,A,3744.9309,N,12230.4147,W,000.0,000.0,040317,,,A*6B
$GPRMC,013648.192,A,3744.9309,N,12230.4147,W,000.0,000.0,040317,,,A*7C
$GPGGA,013649.192,3744.9309,N,12230.4147,W,1,07,2.1,-28.1,M,,,,0000*0F
$GPGSA,A,3,07,17,30,11,28,01,19,,,,,,3.1,2.1,2.3*33
$GPGSV,3,1,11,07,12,125,27,17,71,178,28,30,49,117,35,11,18,050,26*7F
$GPGSV,3,2,11,28,57,036,28,13,52,261,12,01,21,067,29,15,29,297,20*75
$GPGSV,3,3,11,19,48,198,34,06,03,170,,24,02,310,*4F
$CCMWV,180.0,T,001.0,N,A*33
$CCVWT,180.0,R,1.0,N,0.5,M,1.9,K*4A
$CCMWD,193.0,T,,M,1.0,N,0.5,M*65
$CCMWV,180.0,T,001.0,N,A*33
$CCVWT,180.0,R,1.0,N,0.5,M,1.9,K*4A
$CCMWD,193.0,T,,M,1.0,N,0.5,M*65
$XXRMC,013649.192,A,3744.9309,N,12230.4147,W,000.0,000.0,040317,,,A*6A
$GPRMC,013649.192,A,3744.9309,N,12230.4147,W,000.0,000.0,040317,,,A*7D
$GPGGA,013650.192,3744.9309,N,12230.4147,W,1,07,2.1,-28.1,M,,,,0000*07
$GPGSA,A,3,07,17,30,11,28,01,19,,,,,,3.1,2.1,2.3*33
$CCMWV,180.0,T,001.0,N,A*33
$CCVWT,180.0,R,1.0,N,0.5,M,1.9,K*4A
$CCMWD,193.0,T,,M,1.0,N,0.5,M*65
$CCMWV,180.0,T,001.0,N,A*33
$CCVWT,180.0,R,1.0,N,0.5,M,1.9,K*4A
$CCMWD,193.0,T,,M,1.0,N,0.5,M*65
$XXRMC,013650.192,A,3744.9309,N,12230.4147,W,000.0,000.0,040317,,,A*62
$GPRMC,013650.192,A,3744.9309,N,12230.4147,W,000.0,000.0,040317,,,A*75
$GPGGA,013651.192,3744.9309,N,12230.4147,W,1,07,2.1,-28.1,M,,,,0000*06
$GPGSA,A,3,07,17,30,11,28,01,19,,,,,,3.1,2.1,2.3*33
$CCMWV,180.0,T,001.0,N,A*33
$CCVWT,180.0,R,1.0,N,0.5,M,1.9,K*4A
$CCMWD,193.0,T,,M,1.0,N,0.5,M*65
$CCMWV,180.0,T,001.0,N,A*33
$CCVWT,180.0,R,1.0,N,0.5,M,1.9,K*4A
$CCMWD,193.0,T,,M,1.0,N,0.5,M*65
$XXRMC,013651.192,A,3744.9309,N,12230.4147,W,000.0,000.0,040317,,,A*63
$GPRMC,013651.192,A,3744.9309,N,12230.4147,W,000.0,000.0,040317,,,A*74
$GPGGA,013652.192,3744.9309,N,12230.4147,W,1,07,2.1,-28.1,M,,,,0000*05
$GPGSA,A,3,07,17,30,11,28,01,19,,,,,,3.1,2.1,2.3*33
$GPGSV,3,1,11,07,12,125,26,17,71,178,29,30,49,117,34,11,18,050,27*7F
$GPGSV,3,2,11,28,57,036,27,13,52,261,09,01,21,067,29,15,29,297,18*7B
$GPGSV,3,3,11,19,48,198,34,06,03,170,,24,02,310,*4F
$CCMWV,180.0,T,001.0,N,A*33
$CCVWT,180.0,R,1.0,N,0.5,M,1.9,K*4A
$CCMWD,193.0,T,,M,1.0,N,0.5,M*65
$CCMWV,180.0,T,001.0,N,A*33
$CCVWT,180.0,R,1.0,N,0.5,M,1.9,K*4A
$CCMWD,193.0,T,,M,1.0,N,0.5,M*65
$XXRMC,013652.192,A,3744.9309,N,12230.4147,W,000.0,000.0,040317,,,A*60
$GPRMC,013652.192,A,3744.9309,N,12230.4147,W,000.0,000.0,040317,,,A*77
$GPGGA,013653.192,3744.9309,N,12230.4147,W,1,07,2.1,-28.1,M,,,,0000*04
$GPGSA,A,3,07,17,30,11,28,01,19,,,,,,3.1,2.1,2.3*33
$CCMWV,180.0,T,001.0,N,A*33
$CCVWT,180.0,R,1.0,N,0.5,M,1.9,K*4A
$CCMWD,193.0,T,,M,1.0,N,0.5,M*65
$CCMWV,180.0,T,001.0,N,A*33
$CCVWT,180.0,R,1.0,N,0.5,M,1.9,K*4A
$CCMWD,193.0,T,,M,1.0,N,0.5,M*65
$XXRMC,013653.192,A,3744.9309,N,12230.4147,W,000.0,000.0,040317,,,A*61
$GPRMC,013653.192,A,3744.9309,N,12230.4147,W,000.0,000.0,040317,,,A*76
$GPGGA,013654.192,3744.9309,N,12230.4147,W,1,07,2.1,-28.1,M,,,,0000*03
$GPGSA,A,3,07,17,30,11,28,01,19,,,,,,3.1,2.1,2.3*33
$CCMWV,180.0,T,001.0,N,A*33
$CCVWT,180.0,R,1.0,N,0.5,M,1.9,K*4A
$CCMWD,193.0,T,,M,1.0,N,0.5,M*65
$CCMWV,180.0,T,001.0,N,A*33
$CCVWT,180.0,R,1.0,N,0.5,M,1.9,K*4A
$CCMWD,193.0,T,,M,1.0,N,0.5,M*65
$XXRMC,013654.192,A,3744.9309,N,12230.4147,W,000.0,000.0,040317,,,A*66
$GPRMC,013654.192,A,3744.9309,N,12230.4147,W,000.0,000.0,040317,,,A*71
$GPGGA,013655.192,3744.9309,N,12230.4147,W,1,07,2.1,-28.1,M,,,,0000*02
$GPGSA,A,3,07,17,30,11,28,01,19,,,,,,3.1,2.1,2.3*33
$GPGSV,3,1,11,07,12,125,26,17,71,178,29,30,49,117,34,11,18,050,27*7F
$GPGSV,3,2,11,28,57,036,28,13,52,261,07,01,21,067,31,15,29,297,16*7D
$GPGSV,3,3,11,19,48,198,33,24,03,310,,06,03,170,*49
$CCMWV,180.0,T,001.0,N,A*33
$CCVWT,180.0,R,1.0,N,0.5,M,1.9,K*4A
$CCMWD,193.0,T,,M,1.0,N,0.5,M*65
$CCMWV,180.0,T,001.0,N,A*33
$CCVWT,180.0,R,1.0,N,0.5,M,1.9,K*4A
$CCMWD,193.0,T,,M,1.0,N,0.5,M*65
$XXRMC,013655.192,A,3744.9309,N,12230.4147,W,000.0,000.0,040317,,,A*67
$GPRMC,013655.192,A,3744.9309,N,12230.4147,W,000.0,000.0,040317,,,A*70
$GPGGA,013656.192,3744.9310,N,12230.4147,W,1,07,2.1,-28.1,M,,,,0000*09
$GPGSA,A,3,07,17,30,11,28,01,19,,,,,,3.1,2.1,2.3*33
$CCMWV,180.0,T,001.0,N,A*33
$CCVWT,180.0,R,1.0,N,0.5,M,1.9,K*4A
$CCMWD,193.0,T,,M,1.0,N,0.5,M*65
$CCMWV,180.0,T,001.0,N,A*33
$CCVWT,180.0,R,1.0,N,0.5,M,1.9,K*4A
$CCMWD,193.0,T,,M,1.0,N,0.5,M*65
$XXRMC,013656.192,A,3744.9310,N,12230.4147,W,000.0,000.0,040317,,,A*6C
$GPRMC,013656.192,A,3744.9310,N,12230.4147,W,000.0,000.0,040317,,,A*7B
$GPGGA,013657.192,3744.9310,N,12230.4147,W,1,07,2.1,-28.1,M,,,,0000*08
$GPGSA,A,3,07,17,30,11,28,01,19,,,,,,3.1,2.1,2.3*33
$CCMWV,180.0,T,001.0,N,A*33
$CCVWT,180.0,R,1.0,N,0.5,M,1.9,K*4A
$CCMWD,193.0,T,,M,1.0,N,0.5,M*65
$CCMWV,180.0,T,001.0,N,A*33
$CCVWT,180.0,R,1.0,N,0.5,M,1.9,K*4A
$CCMWD,193.0,T,,M,1.0,N,0.5,M*65
$XXRMC,013657.192,A,3744.9310,N,12230.4147,W,000.0,000.0,040317,,,A*6D
$GPRMC,013657.192,A,3744.9310,N,12230.4147,W,000.0,000.0,040317,,,A*7A
$GPGGA,013658.192,3744.9310,N,12230.4147,W,1,07,2.1,-28.1,M,,,,0000*07
$GPGSA,A,3,07,17,30,11,28,01,19,,,,,,3.1,2.1,2.3*33
$GPGSV,3,1,11,07,12,125,26,17,71,178,29,30,49,117,35,11,18,050,27*7E
$GPGSV,3,2,11,28,57,036,27,13,52,261,10,01,21,067,31,15,29,297,12*70
$GPGSV,3,3,11,19,48,198,34,24,03,310,,06,03,170,*4E
$CCMWV,180.0,T,001.0,N,A*33
$CCVWT,180.0,R,1.0,N,0.5,M,1.9,K*4A
$CCMWD,193.0,T,,M,1.0,N,0.5,M*65
$CCMWV,180.0,T,001.0,N,A*33
$CCVWT,180.0,R,1.0,N,0.5,M,1.9,K*4A
$CCMWD,193.0,T,,M,1.0,N,0.5,M*65
$XXRMC,013658.192,A,3744.9310,N,12230.4147,W,000.0,000.0,040317,,,A*62
$GPRMC,013658.192,A,3744.9310,N,12230.4147,W,000.0,000.0,040317,,,A*75
$GPGGA,013659.192,3744.9310,N,12230.4147,W,1,07,2.1,-28.1,M,,,,0000*06
$GPGSA,A,3,07,17,30,11,28,01,19,,,,,,3.1,2.1,2.3*33
$CCMWV,180.0,T,001.0,N,A*33
$CCVWT,180.0,R,1.0,N,0.5,M,1.9,K*4A
$CCMWD,193.0,T,,M,1.0,N,0.5,M*65
$CCMWV,180.0,T,001.0,N,A*33
$CCVWT,180.0,R,1.0,N,0.5,M,1.9,K*4A
$CCMWD,193.0,T,,M,1.0,N,0.5,M*65
$XXRMC,013659.192,A,3744.9310,N,12230.4147,W,000.0,000.0,040317,,,A*63
$GPRMC,013659.192,A,3744.9310,N,12230.4147,W,000.0,000.0,040317,,,A*74
$GPGGA,013700.192,3744.9310,N,12230.4147,W,1,07,2.1,-28.1,M,,,,0000*0B
$GPGSA,A,3,07,17,30,11,28,01,19,,,,,,3.1,2.1,2.3*33
$CCMWV,180.0,T,001.0,N,A*33
$CCVWT,180.0,R,1.0,N,0.5,M,1.9,K*4A
$CCMWD,193.0,T,,M,1.0,N,0.5,M*65
$CCMWV,180.0,T,001.0,N,A*33
$CCVWT,180.0,R,1.0,N,0.5,M,1.9,K*4A
$CCMWD,193.0,T,,M,1.0,N,0.5,M*65
$XXRMC,013700.192,A,3744.9310,N,12230.4147,W,000.0,000.0,040317,,,A*6E
$GPRMC,013700.192,A,3744.9310,N,12230.4147,W,000.0,000.0,040317,,,A*79
$GPGGA,013701.192,3744.9310,N,12230.4147,W,1,07,2.1,-28.1,M,,,,0000*0A
$GPGSA,A,3,07,17,30,11,28,01,19,,,,,,3.1,2.1,2.3*33
$GPGSV,3,1,11,07,12,125,27,17,71,178,31,30,49,117,35,11,18,050,26*77
$GPGSV,3,2,11,28,57,036,27,13,52,261,10,01,21,067,31,15,29,297,10*72
$GPGSV,3,3,11,19,48,198,33,24,03,310,,06,03,170,*49
$CCMWV,180.0,T,001.0,N,A*33
$CCVWT,180.0,R,1.0,N,0.5,M,1.9,K*4A
$CCMWD,193.0,T,,M,1.0,N,0.5,M*65
$CCMWV,180.0,T,001.0,N,A*33
$CCVWT,180.0,R,1.0,N,0.5,M,1.9,K*4A
$CCMWD,193.0,T,,M,1.0,N,0.5,M*65
$XXRMC,013701.192,A,3744.9310,N,12230.4147,W,000.0,000.0,040317,,,A*6F
$GPRMC,013701.192,A,3744.9310,N,12230.4147,W,000.0,000.0,040317,,,A*78
$GPGGA,013702.192,3744.9310,N,12230.4147,W,1,07,2.1,-28.1,M,,,,0000*09
$GPGSA,A,3,07,17,30,11,28,01,19,,,,,,3.1,2.1,2.3*33
$CCMWV,180.0,T,001.0,N,A*33
$CCVWT,180.0,R,1.0,N,0.5,M,1.9,K*4A
$CCMWD,193.0,T,,M,1.0,N,0.5,M*65
$CCMWV,180.0,T,001.0,N,A*33
$CCVWT,180.0,R,1.0,N,0.5,M,1.9,K*4A
$CCMWD,193.0,T,,M,1.0,N,0.5,M*65
$XXRMC,013702.192,A,3744.9310,N,12230.4147,W,000.0,000.0,040317,,,A*6C
$GPRMC,013702.192,A,3744.9310,N,12230.4147,W,000.0,000.0,040317,,,A*7B
$GPGGA,013703.192,3744.9310,N,12230.4147,W,1,07,2.1,-28.1,M,,,,0000*08
$GPGSA,A,3,07,17,30,11,28,01,19,,,,,,3.1,2.1,2.3*33
$CCMWV,180.0,T,001.0,N,A*33
$CCVWT,180.0,R,1.0,N,0.5,M,1.9,K*4A
$CCMWD,193.0,T,,M,1.0,N,0.5,M*65
$CCMWV,180.0,T,001.0,N,A*33
$CCVWT,180.0,R,1.0,N,0.5,M,1.9,K*4A
$CCMWD,193.0,T,,M,1.0,N,0.5,M*65
$XXRMC,013703.192,A,3744.9310,N,12230.4147,W,000.0,000.0,040317,,,A*6D
$GPRMC,013703.192,A,3744.9310,N,12230.4147,W,000.0,000.0,040317,,,A*7A
$GPGGA,013704.192,3744.9310,N,12230.4147,W,1,07,2.1,-28.1,M,,,,0000*0F
$GPGSA,A,3,07,17,30,11,28,01,19,,,,,,3.1,2.1,2.3*33
$GPGSV,3,1,11,07,12,125,27,17,71,178,31,30,49,117,34,11,18,050,26*76
$GPGSV,3,2,11,28,57,036,28,13,52,261,09,01,21,067,31,15,29,297,11*74
$GPGSV,3,3,11,19,48,198,33,24,03,310,,06,03,170,*49
$CCMWV,180.0,T,001.0,N,A*33
$CCVWT,180.0,R,1.0,N,0.5,M,1.9,K*4A
$CCMWD,193.0,T,,M,1.0,N,0.5,M*65
$CCMWV,180.0,T,001.0,N,A*33
$CCVWT,180.0,R,1.0,N,0.5,M,1.9,K*4A
$CCMWD,193.0,T,,M,1.0,N,0.5,M*65
$XXRMC,013704.192,A,3744.9310,N,12230.4147,W,000.0,000.0,040317,,,A*6A
$GPRMC,013704.192,A,3744.9310,N,12230.4147,W,000.0,000.0,040317,,,A*7D
$GPGGA,013705.192,3744.9310,N,12230.4147,W,1,07,2.1,-28.1,M,,,,0000*0E
$GPGSA,A,3,07,17,30,11,28,01,19,,,,,,3.1,2.1,2.3*33
$CCMWV,180.0,T,001.0,N,A*33
$CCVWT,180.0,R,1.0,N,0.5,M,1.9,K*4A
$CCMWD,193.0,T,,M,1.0,N,0.5,M*65
$CCMWV,180.0,T,001.0,N,A*33
$CCVWT,180.0,R,1.0,N,0.5,M,1.9,K*4A
$CCMWD,193.0,T,,M,1.0,N,0.5,M*65
$XXRMC,013705.192,A,3744.9310,N,12230.4147,W,000.0,000.0,040317,,,A*6B
$GPRMC,013705.192,A,3744.9310,N,12230.4147,W,000.0,000.0,040317,,,A*7C
$GPGGA,013706.192,3744.9310,N,12230.4147,W,1,07,2.1,-28.1,M,,,,0000*0D
$GPGSA,A,3,07,17,30,11,28,01,19,,,,,,3.1,2.1,2.3*33
$CCMWV,180.0,T,001.0,N,A*33
$CCVWT,180.0,R,1.0,N,0.5,M,1.9,K*4A
$CCMWD,193.0,T,,M,1.0,N,0.5,M*65
$CCMWV,180.0,T,001.0,N,A*33
$CCVWT,180.0,R,1.0,N,0.5,M,1.9,K*4A
$CCMWD,193.0,T,,M,1.0,N,0.5,M*65
$XXRMC,013706.192,A,3744.9310,N,12230.4147,W,000.0,000.0,040317,,,A*68
$GPRMC,013706.192,A,3744.9310,N,12230.4147,W,000.0,000.0,040317,,,A*7F
$GPGGA,013707.192,3744.9310,N,12230.4147,W,1,07,2.1,-28.1,M,,,,0000*0C
$GPGSA,A,3,07,17,30,11,28,01,19,,,,,,3.1,2.1,2.3*33
$GPGSV,3,1,11,07,12,125,28,17,71,178,31,30,49,117,34,11,18,050,27*78
$GPGSV,3,2,11,28,57,036,28,13,52,261,16,01,21,067,31,15,29,297,08*72
$GPGSV,3,3,11,19,48,198,33,24,03,310,,06,03,170,*49
$CCMWV,180.0,T,001.0,N,A*33
$CCVWT,180.0,R,1.0,N,0.5,M,1.9,K*4A
$CCMWD,193.0,T,,M,1.0,N,0.5,M*65
$CCMWV,180.0,T,001.0,N,A*33
$CCVWT,180.0,R,1.0,N,0.5,M,1.9,K*4A
$CCMWD,193.0,T,,M,1.0,N,0.5,M*65
$XXRMC,013707.192,A,3744.9310,N,12230.4147,W,000.0,000.0,040317,,,A*69
$GPRMC,013707.192,A,3744.9310,N,12230.4147,W,000.0,000.0,040317,,,A*7E
$GPGGA,013708.192,3744.9310,N,12230.4147,W,1,08,1.4,-28.1,M,,,,0000*0A
$GPGSA,A,3,07,17,30,11,28,13,01,19,,,,,2.3,1.4,1.9*3D
$CCMWV,180.0,T,001.0,N,A*33
$CCVWT,180.0,R,1.0,N,0.5,M,1.9,K*4A
$CCMWD,193.0,T,,M,1.0,N,0.5,M*65
$CCMWV,180.0,T,001.0,N,A*33
$CCVWT,180.0,R,1.0,N,0.5,M,1.9,K*4A
$CCMWD,193.0,T,,M,1.0,N,0.5,M*65
$XXRMC,013708.192,A,3744.9310,N,12230.4147,W,000.0,000.0,040317,,,A*66
$GPRMC,013708.192,A,3744.9310,N,12230.4147,W,000.0,000.0,040317,,,A*71
$GPGGA,013709.192,3744.9310,N,12230.4147,W,1,08,1.4,-28.1,M,,,,0000*0B
$GPGSA,A,3,07,17,30,11,28,13,01,19,,,,,2.3,1.4,1.9*3D
$CCMWV,180.0,T,001.0,N,A*33
$CCVWT,180.0,R,1.0,N,0.5,M,1.9,K*4A
$CCMWD,193.0,T,,M,1.0,N,0.5,M*65
$CCMWV,180.0,T,001.0,N,A*33
$CCVWT,180.0,R,1.0,N,0.5,M,1.9,K*4A
$CCMWD,193.0,T,,M,1.0,N,0.5,M*65
$XXRMC,013709.192,A,3744.9310,N,12230.4147,W,000.0,000.0,040317,,,A*67
$GPRMC,013709.192,A,3744.9310,N,12230.4147,W,000.0,000.0,040317,,,A*70
$GPGGA,013710.192,3744.9310,N,12230.4147,W,1,08,1.4,-28.1,M,,,,0000*03
$GPGSA,A,3,07,17,30,11,28,13,01,19,,,,,2.3,1.4,1.9*3D
$GPGSV,3,1,11,07,12,125,28,17,71,178,31,30,49,117,34,11,18,050,26*79
$GPGSV,3,2,11,28,57,036,28,13,52,261,16,01,21,067,31,15,29,297,13*78
$GPGSV,3,3,11,19,48,198,33,06,03,170,,24,03,310,*49
$CCMWV,180.0,T,001.0,N,A*33
$CCVWT,180.0,R,1.0,N,0.5,M,1.9,K*4A
$CCMWD,193.0,T,,M,1.0,N,0.5,M*65
$CCMWV,180.0,T,001.0,N,A*33
$CCVWT,180.0,R,1.0,N,0.5,M,1.9,K*4A
$CCMWD,193.0,T,,M,1.0,N,0.5,M*65
$XXRMC,013710.192,A,3744.9310,N,12230.4147,W,000.0,000.0,040317,,,A*6F
$GPRMC,013710.192,A,3744.9310,N,12230.4147,W,000.0,000.0,040317,,,A*78
$GPGGA,013711.192,3744.9310,N,12230.4147,W,1,08,1.4,-28.1,M,,,,0000*02
$GPGSA,A,3,07,17,30,11,28,13,01,19,,,,,2.3,1.4,1.9*3D
$CCMWV,180.0,T,001.0,N,A*33
$CCVWT,180.0,R,1.0,N,0.5,M,1.9,K*4A
$CCMWD,193.0,T,,M,1.0,N,0.5,M*65
$CCMWV,180.0,T,001.0,N,A*33
$CCVWT,180.0,R,1.0,N,0.5,M,1.9,K*4A
$CCMWD,193.0,T,,M,1.0,N,0.5,M*65
$XXRMC,013711.192,A,3744.9310,N,12230.4147,W,000.0,000.0,040317,,,A*6E
$GPRMC,013711.192,A,3744.9310,N,12230.4147,W,000.0,000.0,040317,,,A*79
$GPGGA,013712.192,3744.9310,N,12230.4147,W,1,08,1.4,-28.1,M,,,,0000*01
$GPGSA,A,3,07,17,30,11,28,13,01,19,,,,,2.3,1.4,1.9*3D
$CCMWV,180.0,T,001.0,N,A*33
$CCVWT,180.0,R,1.0,N,0.5,M,1.9,K*4A
$CCMWD,193.0,T,,M,1.0,N,0.5,M*65
$CCMWV,180.0,T,001.0,N,A*33
$CCVWT,180.0,R,1.0,N,0.5,M,1.9,K*4A
$CCMWD,193.0,T,,M,1.0,N,0.5,M*65
$XXRMC,013712.192,A,3744.9310,N,12230.4147,W,000.0,000.0,040317,,,A*6D
$GPRMC,013712.192,A,3744.9310,N,12230.4147,W,000.0,000.0,040317,,,A*7A
$GPGGA,013713.192,3744.9310,N,12230.4147,W,1,08,1.4,-28.1,M,,,,0000*00
$GPGSA,A,3,07,17,30,11,28,13,01,19,,,,,2.3,1.4,1.9*3D
$GPGSV,3,1,11,07,12,125,27,17,71,178,30,30,49,117,34,11,18,050,26*77
$GPGSV,3,2,11,28,57,036,28,13,52,261,16,01,21,067,31,15,29,297,11*7A
$GPGSV,3,3,11,19,48,198,33,06,03,170,,24,03,310,*49
$CCMWV,180.0,T,001.0,N,A*33
$CCVWT,180.0,R,1.0,N,0.5,M,1.9,K*4A
$CCMWD,193.0,T,,M,1.0,N,0.5,M*65
$CCMWV,180.0,T,001.0,N,A*33
$CCVWT,180.0,R,1.0,N,0.5,M,1.9,K*4A
$CCMWD,193.0,T,,M,1.0,N,0.5,M*65
$XXRMC,013713.192,A,3744.9310,N,12230.4147,W,000.0,000.0,040317,,,A*6C
$GPRMC,013713.192,A,3744.9310,N,12230.4147,W,000.0,000.0,040317,,,A*7B
$GPGGA,013714.192,3744.9310,N,12230.4147,W,1,08,1.4,-28.1,M,,,,0000*07
$GPGSA,A,3,07,17,30,11,28,13,01,19,,,,,2.3,1.4,1.9*3D
$CCMWV,180.0,T,001.0,N,A*33
$CCVWT,180.0,R,1.0,N,0.5,M,1.9,K*4A
$CCMWD,193.0,T,,M,1.0,N,0.5,M*65
$CCMWV,180.0,T,001.0,N,A*33
$CCVWT,180.0,R,1.0,N,0.5,M,1.9,K*4A
$CCMWD,193.0,T,,M,1.0,N,0.5,M*65
$XXRMC,013714.192,A,3744.9310,N,12230.4147,W,000.0,000.0,040317,,,A*6B
$GPRMC,013714.192,A,3744.9310,N,12230.4147,W,000.0,000.0,040317,,,A*7C
$GPGGA,013715.192,3744.9310,N,12230.4147,W,1,08,1.4,-28.1,M,,,,0000*06
$GPGSA,A,3,07,17,30,11,28,13,01,19,,,,,2.3,1.4,1.9*3D
$CCMWV,180.0,T,001.0,N,A*33
$CCVWT,180.0,R,1.0,N,0.5,M,1.9,K*4A
$CCMWD,193.0,T,,M,1.0,N,0.5,M*65
$CCMWV,180.0,T,001.0,N,A*33
$CCVWT,180.0,R,1.0,N,0.5,M,1.9,K*4A
$CCMWD,193.0,T,,M,1.0,N,0.5,M*65
$XXRMC,013715.192,A,3744.9310,N,12230.4147,W,000.0,000.0,040317,,,A*6A
$GPRMC,013715.192,A,3744.9310,N,12230.4147,W,000.0,000.0,040317,,,A*7D
$GPGGA,013716.192,3744.9310,N,12230.4147,W,1,08,1.4,-28.1,M,,,,0000*05
$GPGSA,A,3,07,17,30,11,28,13,01,19,,,,,2.3,1.4,1.9*3D
$GPGSV,3,1,11,07,12,125,28,17,71,178,30,30,49,117,34,11,18,050,26*78
$GPGSV,3,2,11,28,57,036,28,13,52,261,18,01,21,067,31,15,29,297,14*71
$GPGSV,3,3,11,19,48,198,32,06,03,170,,24,03,310,*48
$CCMWV,180.0,T,001.0,N,A*33
$CCVWT,180.0,R,1.0,N,0.5,M,1.9,K*4A
$CCMWD,193.0,T,,M,1.0,N,0.5,M*65
$CCMWV,180.0,T,001.0,N,A*33
$CCVWT,180.0,R,1.0,N,0.5,M,1.9,K*4A
$CCMWD,193.0,T,,M,1.0,N,0.5,M*65
$XXRMC,013716.192,A,3744.9310,N,12230.4147,W,000.0,000.0,040317,,,A*69
$GPRMC,013716.192,A,3744.9310,N,12230.4147,W,000.0,000.0,040317,,,A*7E
$GPGGA,013717.192,3744.9310,N,12230.4147,W,1,08,1.4,-28.1,M,,,,0000*04
$GPGSA,A,3,07,17,30,11,28,13,01,19,,,,,2.3,1.4,1.9*3D
$CCMWV,180.0,T,001.0,N,A*33
$CCVWT,180.0,R,1.0,N,0.5,M,1.9,K*4A
$CCMWD,193.0,T,,M,1.0,N,0.5,M*65
$CCMWV,180.0,T,001.0,N,A*33
$CCVWT,180.0,R,1.0,N,0.5,M,1.9,K*4A
$CCMWD,193.0,T,,M,1.0,N,0.5,M*65
$XXRMC,013717.192,A,3744.9310,N,12230.4147,W,000.0,000.0,040317,,,A*68
$GPRMC,013717.192,A,3744.9310,N,12230.4147,W,000.0,000.0,040317,,,A*7F
$GPGGA,013718.192,3744.9310,N,12230.4147,W,1,08,1.4,-28.1,M,,,,0000*0B
$GPGSA,A,3,07,17,30,11,28,13,01,19,,,,,2.3,1.4,1.9*3D
$CCMWV,180.0,T,001.0,N,A*33
$CCVWT,180.0,R,1.0,N,0.5,M,1.9,K*4A
$CCMWD,193.0,T,,M,1.0,N,0.5,M*65
$CCMWV,180.0,T,001.0,N,A*33
$CCVWT,180.0,R,1.0,N,0.5,M,1.9,K*4A
$CCMWD,193.0,T,,M,1.0,N,0.5,M*65
$XXRMC,013718.192,A,3744.9310,N,12230.4147,W,000.0,000.0,040317,,,A*67
$GPRMC,013718.192,A,3744.9310,N,12230.4147,W,000.0,000.0,040317,,,A*70
$GPGGA,013719.192,3744.9310,N,12230.4147,W,1,08,1.4,-28.1,M,,,,0000*0A
$GPGSA,A,3,07,17,30,11,28,13,01,19,,,,,2.3,1.4,1.9*3D
$GPGSV,3,1,11,07,12,125,27,17,72,178,30,30,49,117,35,11,18,050,25*76
$GPGSV,3,2,11,28,57,036,28,13,52,261,18,01,21,067,31,15,29,297,10*75
$GPGSV,3,3,11,19,48,198,32,06,03,170,,24,03,310,*48
$CCMWV,180.0,T,001.0,N,A*33
$CCVWT,180.0,R,1.0,N,0.5,M,1.9,K*4A
$CCMWD,193.0,T,,M,1.0,N,0.5,M*65
$CCMWV,180.0,T,001.0,N,A*33
$CCVWT,180.0,R,1.0,N,0.5,M,1.9,K*4A
$CCMWD,193.0,T,,M,1.0,N,0.5,M*65
$XXRMC,013719.192,A,3744.9310,N,12230.4147,W,000.0,000.0,040317,,,A*66
$GPRMC,013719.192,A,3744.9310,N,12230.4147,W,000.0,000.0,040317,,,A*71
$GPGGA,013720.192,3744.9310,N,12230.4147,W,1,08,1.4,-28.0,M,,,,0000*01
$GPGSA,A,3,07,17,30,11,28,13,01,19,,,,,2.3,1.4,1.9*3D
$CCMWV,180.0,T,001.0,N,A*33
$CCVWT,180.0,R,1.0,N,0.5,M,1.9,K*4A
$CCMWD,193.0,T,,M,1.0,N,0.5,M*65
$CCMWV,180.0,T,001.0,N,A*33
$CCVWT,180.0,R,1.0,N,0.5,M,1.9,K*4A
$CCMWD,193.0,T,,M,1.0,N,0.5,M*65
$XXRMC,013720.192,A,3744.9310,N,12230.4147,W,000.0,000.0,040317,,,A*6C
$GPRMC,013720.192,A,3744.9310,N,12230.4147,W,000.0,000.0,040317,,,A*7B
$GPGGA,013721.192,3744.9310,N,12230.4147,W,1,08,1.4,-28.0,M,,,,0000*00
$GPGSA,A,3,07,17,30,11,28,13,01,19,,,,,2.3,1.4,1.9*3D
$CCMWV,180.0,T,001.0,N,A*33
$CCVWT,180.0,R,1.0,N,0.5,M,1.9,K*4A
$CCMWD,193.0,T,,M,1.0,N,0.5,M*65
$CCMWV,180.0,T,001.0,N,A*33
$CCVWT,180.0,R,1.0,N,0.5,M,1.9,K*4A
$CCMWD,193.0,T,,M,1.0,N,0.5,M*65
$XXRMC,013721.192,A,3744.9310,N,12230.4147,W,000.0,000.0,040317,,,A*6D
$GPRMC,013721.192,A,3744.9310,N,12230.4147,W,000.0,000.0,040317,,,A*7A
$GPGGA,013722.192,3744.9310,N,12230.4147,W,1,08,1.4,-28.0,M,,,,0000*03
$GPGSA,A,3,07,17,30,11,28,13,01,19,,,,,2.3,1.4,1.9*3D
$GPGSV,3,1,11,07,12,125,28,17,72,178,30,30,49,117,35,11,18,050,26*7A
$GPGSV,3,2,11,28,57,036,28,13,52,261,17,01,21,067,31,15,29,297,10*7A
$GPGSV,3,3,11,19,48,198,32,06,03,170,,24,03,310,*48
$CCMWV,180.0,T,001.0,N,A*33
$CCVWT,180.0,R,1.0,N,0.5,M,1.9,K*4A
$CCMWD,193.0,T,,M,1.0,N,0.5,M*65
$CCMWV,180.0,T,001.0,N,A*33
$CCVWT,180.0,R,1.0,N,0.5,M,1.9,K*4A
$CCMWD,193.0,T,,M,1.0,N,0.5,M*65
$XXRMC,013722.192,A,3744.9310,N,12230.4147,W,000.0,000.0,040317,,,A*6E
$GPRMC,013722.192,A,3744.9310,N,12230.4147,W,000.0,000.0,040317,,,A*79
$GPGGA,013723.192,3744.9310,N,12230.4147,W,1,08,1.4,-28.0,M,,,,0000*02
$GPGSA,A,3,07,17,30,11,28,13,01,19,,,,,2.3,1.4,1.9*3D
$CCMWV,180.0,T,001.0,N,A*33
$CCVWT,180.0,R,1.0,N,0.5,M,1.9,K*4A
$CCMWD,193.0,T,,M,1.0,N,0.5,M*65
$CCMWV,180.0,T,001.0,N,A*33
$CCVWT,180.0,R,1.0,N,0.5,M,1.9,K*4A
$CCMWD,193.0,T,,M,1.0,N,0.5,M*65
$XXRMC,013723.192,A,3744.9310,N,12230.4147,W,000.0,000.0,040317,,,A*6F
$GPRMC,013723.192,A,3744.9310,N,12230.4147,W,000.0,000.0,040317,,,A*78
$GPGGA,013724.192,3744.9310,N,12230.4147,W,1,08,1.4,-28.0,M,,,,0000*05
$GPGSA,A,3,07,17,30,11,28,13,01,19,,,,,2.3,1.4,1.9*3D
$CCMWV,180.0,T,001.0,N,A*33
$CCVWT,180.0,R,1.0,N,0.5,M,1.9,K*4A
$CCMWD,193.0,T,,M,1.0,N,0.5,M*65
$CCMWV,180.0,T,001.0,N,A*33
$CCVWT,180.0,R,1.0,N,0.5,M,1.9,K*4A
$CCMWD,193.0,T,,M,1.0,N,0.5,M*65
$XXRMC,013724.192,A,3744.9310,N,12230.4147,W,000.0,000.0,040317,,,A*68
$GPRMC,013724.192,A,3744.9310,N,12230.4147,W,000.0,000.0,040317,,,A*7F
$GPGGA,013725.192,3744.9310,N,12230.4147,W,1,08,1.4,-28.0,M,,,,0000*04
$GPGSA,A,3,07,17,30,11,28,13,01,19,,,,,2.3,1.4,1.9*3D
$GPGSV,3,1,11,07,12,125,27,17,72,178,30,30,49,117,34,11,18,050,26*74
$GPGSV,3,2,11,28,57,036,28,13,52,261,18,01,21,067,31,15,29,297,08*7C
$GPGSV,3,3,11,19,48,198,33,06,03,170,,24,03,310,*49
$CCMWV,180.0,T,001.0,N,A*33
$CCVWT,180.0,R,1.0,N,0.5,M,1.9,K*4A
$CCMWD,193.0,T,,M,1.0,N,0.5,M*65
$CCMWV,180.0,T,001.0,N,A*33
$CCVWT,180.0,R,1.0,N,0.5,M,1.9,K*4A
$CCMWD,193.0,T,,M,1.0,N,0.5,M*65
$XXRMC,013725.192,A,3744.9310,N,12230.4147,W,000.0,000.0,040317,,,A*69
$GPRMC,013725.192,A,3744.9310,N,12230.4147,W,000.0,000.0,040317,,,A*7E
$GPGGA,013726.192,3744.9310,N,12230.4147,W,1,08,1.4,-28.0,M,,,,0000*07
$GPGSA,A,3,07,17,30,11,28,13,01,19,,,,,2.3,1.4,1.9*3D
$CCMWV,180.0,T,001.0,N,A*33
$CCVWT,180.0,R,1.0,N,0.5,M,1.9,K*4A
$CCMWD,193.0,T,,M,1.0,N,0.5,M*65
$CCMWV,180.0,T,001.0,N,A*33
$CCVWT,180.0,R,1.0,N,0.5,M,1.9,K*4A
$CCMWD,193.0,T,,M,1.0,N,0.5,M*65
$XXRMC,013726.192,A,3744.9310,N,12230.4147,W,000.0,000.0,040317,,,A*6A
$GPRMC,013726.192,A,3744.9310,N,12230.4147,W,000.0,000.0,040317,,,A*7D
$GPGGA,013727.192,3744.9310,N,12230.4147,W,1,08,1.4,-28.0,M,,,,0000*06
$GPGSA,A,3,07,17,30,11,28,13,01,19,,,,,2.3,1.4,1.9*3D
$CCMWV,180.0,T,001.0,N,A*33
$CCVWT,180.0,R,1.0,N,0.5,M,1.9,K*4A
$CCMWD,193.0,T,,M,1.0,N,0.5,M*65
$CCMWV,180.0,T,001.0,N,A*33
$CCVWT,180.0,R,1.0,N,0.5,M,1.9,K*4A
$CCMWD,193.0,T,,M,1.0,N,0.5,M*65
$XXRMC,013727.192,A,3744.9310,N,12230.4147,W,000.0,000.0,040317,,,A*6B
$GPRMC,013727.192,A,3744.9310,N,12230.4147,W,000.0,000.0,040317,,,A*7C
$GPGGA,013728.192,3744.9310,N,12230.4147,W,1,08,1.4,-28.0,M,,,,0000*09
$GPGSA,A,3,07,17,30,11,28,13,01,19,,,,,2.3,1.4,1.9*3D
$GPGSV,3,1,11,07,12,125,28,17,72,178,31,30,49,117,34,11,18,050,26*7A
$GPGSV,3,2,11,28,57,036,28,13,52,261,19,01,21,067,31,15,29,297,06*73
$GPGSV,3,3,11,19,48,198,33,06,03,170,,24,03,310,*49
$CCMWV,180.0,T,001.0,N,A*33
$CCVWT,180.0,R,1.0,N,0.5,M,1.9,K*4A
$CCMWD,193.0,T,,M,1.0,N,0.5,M*65
$CCMWV,180.0,T,001.0,N,A*33
$CCVWT,180.0,R,1.0,N,0.5,M,1.9,K*4A
$CCMWD,193.0,T,,M,1.0,N,0.5,M*65
$XXRMC,013728.192,A,3744.9310,N,12230.4147,W,000.0,000.0,040317,,,A*64
$GPRMC,013728.192,A,3744.9310,N,12230.4147,W,000.0,000.0,040317,,,A*73
$GPGGA,013729.192,3744.9310,N,12230.4147,W,1,08,1.4,-28.0,M,,,,0000*08
$GPGSA,A,3,07,17,30,11,28,13,01,19,,,,,2.3,1.4,1.9*3D
$CCMWV,180.0,T,001.0,N,A*33
$CCVWT,180.0,R,1.0,N,0.5,M,1.9,K*4A
$CCMWD,193.0,T,,M,1.0,N,0.5,M*65
$CCMWV,180.0,T,001.0,N,A*33
$CCVWT,180.0,R,1.0,N,0.5,M,1.9,K*4A
$CCMWD,193.0,T,,M,1.0,N,0.5,M*65
$XXRMC,013729.192,A,3744.9310,N,12230.4147,W,000.0,000.0,040317,,,A*65
$GPRMC,013729.192,A,3744.9310,N,12230.4147,W,000.0,000.0,040317,,,A*72
$GPGGA,013730.192,3744.9310,N,12230.4147,W,1,08,1.4,-28.0,M,,,,0000*00
$GPGSA,A,3,07,17,30,11,28,13,01,19,,,,,2.3,1.4,1.9*3D
$CCMWV,180.0,T,001.0,N,A*33
$CCVWT,180.0,R,1.0,N,0.5,M,1.9,K*4A
$CCMWD,193.0,T,,M,1.0,N,0.5,M*65
$CCMWV,180.0,T,001.0,N,A*33
$CCVWT,180.0,R,1.0,N,0.5,M,1.9,K*4A
$CCMWD,193.0,T,,M,1.0,N,0.5,M*65
$XXRMC,013730.192,A,3744.9310,N,12230.4147,W,000.0,000.0,040317,,,A*6D
$GPRMC,013730.192,A,3744.9310,N,12230.4147,W,000.0,000.0,040317,,,A*7A
$GPGGA,013731.192,3744.9310,N,12230.4147,W,1,08,1.4,-28.0,M,,,,0000*01
$GPGSA,A,3,07,17,30,11,28,13,01,19,,,,,2.3,1.4,1.9*3D
$GPGSV,3,1,11,07,12,125,28,17,72,178,30,30,49,117,34,11,18,050,26*7B
$GPGSV,3,2,11,28,57,036,27,13,52,261,20,01,21,067,31,15,29,297,04*74
$GPGSV,3,3,11,19,48,198,33,06,03,170,,24,03,310,*49
$CCMWV,180.0,T,001.0,N,A*33
$CCVWT,180.0,R,1.0,N,0.5,M,1.9,K*4A
$CCMWD,193.0,T,,M,1.0,N,0.5,M*65
$CCMWV,180.0,T,001.0,N,A*33
$CCVWT,180.0,R,1.0,N,0.5,M,1.9,K*4A
$CCMWD,193.0,T,,M,1.0,N,0.5,M*65
$XXRMC,013731.192,A,3744.9310,N,12230.4147,W,000.0,000.0,040317,,,A*6C
$GPRMC,013731.192,A,3744.9310,N,12230.4147,W,000.0,000.0,040317,,,A*7B
$GPGGA,013732.192,3744.9310,N,12230.4147,W,1,08,1.4,-28.0,M,,,,0000*02
$GPGSA,A,3,07,17,30,11,28,13,01,19,,,,,2.3,1.4,1.9*3D
$CCMWV,180.0,T,001.0,N,A*33
$CCVWT,180.0,R,1.0,N,0.5,M,1.9,K*4A
$CCMWD,193.0,T,,M,1.0,N,0.5,M*65
$CCMWV,180.0,T,001.0,N,A*33
$CCVWT,180.0,R,1.0,N,0.5,M,1.9,K*4A
$CCMWD,193.0,T,,M,1.0,N,0.5,M*65
$XXRMC,013732.192,A,3744.9310,N,12230.4147,W,000.0,000.0,040317,,,A*6F
$GPRMC,013732.192,A,3744.9310,N,12230.4147,W,000.0,000.0,040317,,,A*78
$GPGGA,013733.192,3744.9310,N,12230.4147,W,1,08,1.4,-28.0,M,,,,0000*03
$GPGSA,A,3,07,17,30,11,28,13,01,19,,,,,2.3,1.4,1.9*3D
$CCMWV,180.0,T,001.0,N,A*33
$CCVWT,180.0,R,1.0,N,0.5,M,1.9,K*4A
$CCMWD,193.0,T,,M,1.0,N,0.5,M*65
$CCMWV,180.0,T,001.0,N,A*33
$CCVWT,180.0,R,1.0,N,0.5,M,1.9,K*4A
$CCMWD,193.0,T,,M,1.0,N,0.5,M*65
$XXRMC,013733.192,A,3744.9310,N,12230.4147,W,000.0,000.0,040317,,,A*6E
$GPRMC,013733.192,A,3744.9310,N,12230.4147,W,000.0,000.0,040317,,,A*79
$GPGGA,013734.192,3744.9310,N,12230.4147,W,1,08,1.4,-28.0,M,,,,0000*04
$GPGSA,A,3,07,17,30,11,28,13,01,19,,,,,2.3,1.4,1.9*3D
$GPGSV,3,1,11,07,12,125,28,17,72,178,30,30,49,117,34,11,18,050,26*7B
$GPGSV,3,2,11,28,57,036,28,13,52,261,21,01,21,067,31,19,48,198,33*79
$GPGSV,3,3,11,15,29,297,,06,03,170,,24,03,310,*4E
$CCMWV,180.0,T,001.0,N,A*33
$CCVWT,180.0,R,1.0,N,0.5,M,1.9,K*4A
$CCMWD,193.0,T,,M,1.0,N,0.5,M*65
$CCMWV,180.0,T,001.0,N,A*33
$CCVWT,180.0,R,1.0,N,0.5,M,1.9,K*4A
$CCMWD,193.0,T,,M,1.0,N,0.5,M*65
$XXRMC,013734.192,A,3744.9310,N,12230.4147,W,000.0,000.0,040317,,,A*69
$GPRMC,013734.192,A,3744.9310,N,12230.4147,W,000.0,000.0,040317,,,A*7E
$GPGGA,013735.192,3744.9309,N,12230.4147,W,1,08,1.4,-28.0,M,,,,0000*0D
$GPGSA,A,3,07,17,30,11,28,13,01,19,,,,,2.3,1.4,1.9*3D
$CCMWV,180.0,T,001.0,N,A*33
$CCVWT,180.0,R,1.0,N,0.5,M,1.9,K*4A
$CCMWD,193.0,T,,M,1.0,N,0.5,M*65
$CCMWV,180.0,T,001.0,N,A*33
$CCVWT,180.0,R,1.0,N,0.5,M,1.9,K*4A
$CCMWD,193.0,T,,M,1.0,N,0.5,M*65
$XXRMC,013735.192,A,3744.9309,N,12230.4147,W,000.0,000.0,040317,,,A*60
$GPRMC,013735.192,A,3744.9309,N,12230.4147,W,000.0,000.0,040317,,,A*77
$GPGGA,013736.192,3744.9309,N,12230.4147,W,1,08,1.4,-28.0,M,,,,0000*0E
$GPGSA,A,3,07,17,30,11,28,13,01,19,,,,,2.3,1.4,1.9*3D
$CCMWV,180.0,T,001.0,N,A*33
$CCVWT,180.0,R,1.0,N,0.5,M,1.9,K*4A
$CCMWD,193.0,T,,M,1.0,N,0.5,M*65
$CCMWV,180.0,T,001.0,N,A*33
$CCVWT,180.0,R,1.0,N,0.5,M,1.9,K*4A
$CCMWD,193.0,T,,M,1.0,N,0.5,M*65
$XXRMC,013736.192,A,3744.9309,N,12230.4147,W,000.0,000.0,040317,,,A*63
$GPRMC,013736.192,A,3744.9309,N,12230.4147,W,000.0,000.0,040317,,,A*74
$GPGGA,013737.192,3744.9309,N,12230.4147,W,1,08,1.4,-28.0,M,,,,0000*0F
$GPGSA,A,3,07,17,30,11,28,13,01,19,,,,,2.3,1.4,1.9*3D
$GPGSV,3,1,11,07,12,125,27,17,72,178,30,30,49,117,34,11,18,050,26*74
$GPGSV,3,2,11,28,57,036,27,13,52,261,22,01,21,067,31,19,48,198,32*74
$GPGSV,3,3,11,15,29,297,,06,03,170,,24,03,310,*4E
$CCMWV,180.0,T,001.0,N,A*33
$CCVWT,180.0,R,1.0,N,0.5,M,1.9,K*4A
$CCMWD,193.0,T,,M,1.0,N,0.5,M*65
$CCMWV,180.0,T,001.0,N,A*33
$CCVWT,180.0,R,1.0,N,0.5,M,1.9,K*4A
$CCMWD,193.0,T,,M,1.0,N,0.5,M*65
$XXRMC,013737.192,A,3744.9309,N,12230.4147,W,000.0,000.0,040317,,,A*62
$GPRMC,013737.192,A,3744.9309,N,12230.4147,W,000.0,000.0,040317,,,A*75
$GPGGA,013738.192,3744.9309,N,12230.4147,W,1,08,1.4,-28.0,M,,,,0000*00
$GPGSA,A,3,07,17,30,11,28,13,01,19,,,,,2.3,1.4,1.9*3D
$CCMWV,180.0,T,001.0,N,A*33
$CCVWT,180.0,R,1.0,N,0.5,M,1.9,K*4A
$CCMWD,193.0,T,,M,1.0,N,0.5,M*65
$CCMWV,180.0,T,001.0,N,A*33
$CCVWT,180.0,R,1.0,N,0.5,M,1.9,K*4A
$CCMWD,193.0,T,,M,1.0,N,0.5,M*65
$XXRMC,013738.192,A,3744.9309,N,12230.4147,W,000.0,000.0,040317,,,A*6D
$GPRMC,013738.192,A,3744.9309,N,12230.4147,W,000.0,000.0,040317,,,A*7A
$GPGGA,013739.192,3744.9309,N,12230.4147,W,1,08,1.4,-27.9,M,,,,0000*07
$GPGSA,A,3,07,17,30,11,28,13,01,19,,,,,2.3,1.4,1.9*3D
$CCMWV,180.0,T,001.0,N,A*33
$CCVWT,180.0,R,1.0,N,0.5,M,1.9,K*4A
$CCMWD,193.0,T,,M,1.0,N,0.5,M*65
$CCMWV,180.0,T,001.0,N,A*33
$CCVWT,180.0,R,1.0,N,0.5,M,1.9,K*4A
$CCMWD,193.0,T,,M,1.0,N,0.5,M*65
$XXRMC,013739.192,A,3744.9309,N,12230.4147,W,000.0,000.0,040317,,,A*6C
$GPRMC,013739.192,A,3744.9309,N,12230.4147,W,000.0,000.0,040317,,,A*7B
$GPGGA,013740.192,3744.9309,N,12230.4147,W,1,08,1.4,-27.9,M,,,,0000*09
$GPGSA,A,3,07,17,30,11,28,13,01,19,,,,,2.3,1.4,1.9*3D
$GPGSV,3,1,11,07,11,125,27,17,72,178,30,30,49,117,34,11,18,050,25*74
$GPGSV,3,2,11,28,57,036,28,13,52,261,22,01,21,067,32,19,48,198,33*79
$GPGSV,3,3,11,15,29,297,,06,03,170,,24,03,310,*4E
$CCMWV,180.0,T,001.0,N,A*33
$CCVWT,180.0,R,1.0,N,0.5,M,1.9,K*4A
$CCMWD,193.0,T,,M,1.0,N,0.5,M*65
$CCMWV,180.0,T,001.0,N,A*33
$CCVWT,180.0,R,1.0,N,0.5,M,1.9,K*4A
$CCMWD,193.0,T,,M,1.0,N,0.5,M*65
$XXRMC,013740.192,A,3744.9309,N,12230.4147,W,000.0,000.0,040317,,,A*62
$GPRMC,013740.192,A,3744.9309,N,12230.4147,W,000.0,000.0,040317,,,A*75
$GPGGA,013741.192,3744.9309,N,12230.4146,W,1,08,1.4,-27.9,M,,,,0000*09
$GPGSA,A,3,07,17,30,11,28,13,01,19,,,,,2.3,1.4,1.9*3D
$CCMWV,180.0,T,001.0,N,A*33
$CCVWT,180.0,R,1.0,N,0.5,M,1.9,K*4A
$CCMWD,193.0,T,,M,1.0,N,0.5,M*65
$CCMWV,180.0,T,001.0,N,A*33
$CCVWT,180.0,R,1.0,N,0.5,M,1.9,K*4A
$CCMWD,193.0,T,,M,1.0,N,0.5,M*65
$XXRMC,013741.192,A,3744.9309,N,12230.4146,W,000.0,000.0,040317,,,A*62
$GPRMC,013741.192,A,3744.9309,N,12230.4146,W,000.0,000.0,040317,,,A*75
$GPGGA,013742.192,3744.9309,N,12230.4146,W,1,08,1.4,-27.9,M,,,,0000*0A
$GPGSA,A,3,07,17,30,11,28,13,01,19,,,,,2.3,1.4,1.9*3D
$CCMWV,180.0,T,001.0,N,A*33
$CCVWT,180.0,R,1.0,N,0.5,M,1.9,K*4A
$CCMWD,193.0,T,,M,1.0,N,0.5,M*65
$CCMWV,180.0,T,001.0,N,A*33
$CCVWT,180.0,R,1.0,N,0.5,M,1.9,K*4A
$CCMWD,193.0,T,,M,1.0,N,0.5,M*65
$XXRMC,013742.192,A,3744.9309,N,12230.4146,W,000.0,000.0,040317,,,A*61
$GPRMC,013742.192,A,3744.9309,N,12230.4146,W,000.0,000.0,040317,,,A*76
$GPGGA,013743.192,3744.9309,N,12230.4146,W,1,08,1.4,-27.9,M,,,,0000*0B
$GPGSA,A,3,07,17,30,11,28,13,01,19,,,,,2.3,1.4,1.9*3D
$GPGSV,3,1,11,07,11,125,27,17,72,178,31,30,49,117,34,11,18,050,26*76
$GPGSV,3,2,11,28,57,036,28,13,52,261,22,01,21,067,32,19,48,198,33*79
$GPGSV,3,3,11,15,29,297,,06,03,170,,24,03,310,*4E
$CCMWV,180.0,T,001.0,N,A*33
$CCVWT,180.0,R,1.0,N,0.5,M,1.9,K*4A
$CCMWD,193.0,T,,M,1.0,N,0.5,M*65
$CCMWV,180.0,T,001.0,N,A*33
$CCVWT,180.0,R,1.0,N,0.5,M,1.9,K*4A
$CCMWD,193.0,T,,M,1.0,N,0.5,M*65
$XXRMC,013743.192,A,3744.9309,N,12230.4146,W,000.0,000.0,040317,,,A*60
$GPRMC,013743.192,A,3744.9309,N,12230.4146,W,000.0,000.0,040317,,,A*77
$GPGGA,013744.192,3744.9309,N,12230.4146,W,1,08,1.4,-27.9,M,,,,0000*0C
$GPGSA,A,3,07,17,30,11,28,13,01,19,,,,,2.3,1.4,1.9*3D
$CCMWV,180.0,T,001.0,N,A*33
$CCVWT,180.0,R,1.0,N,0.5,M,1.9,K*4A
$CCMWD,193.0,T,,M,1.0,N,0.5,M*65
$CCMWV,180.0,T,001.0,N,A*33
$CCVWT,180.0,R,1.0,N,0.5,M,1.9,K*4A
$CCMWD,193.0,T,,M,1.0,N,0.5,M*65
$XXRMC,013744.192,A,3744.9309,N,12230.4146,W,000.0,000.0,040317,,,A*67
$GPRMC,013744.192,A,3744.9309,N,12230.4146,W,000.0,000.0,040317,,,A*70
$GPGGA,013745.192,3744.9309,N,12230.4146,W,1,08,1.4,-27.9,M,,,,0000*0D
$GPGSA,A,3,07,17,30,11,28,13,01,19,,,,,2.3,1.4,1.9*3D
$CCMWV,180.0,T,001.0,N,A*33
$CCVWT,180.0,R,1.0,N,0.5,M,1.9,K*4A
$CCMWD,193.0,T,,M,1.0,N,0.5,M*65
$CCMWV,180.0,T,001.0,N,A*33
$CCVWT,180.0,R,1.0,N,0.5,M,1.9,K*4A
$CCMWD,193.0,T,,M,1.0,N,0.5,M*65
$XXRMC,013745.192,A,3744.9309,N,12230.4146,W,000.0,000.0,040317,,,A*66
$GPRMC,013745.192,A,3744.9309,N,12230.4146,W,000.0,000.0,040317,,,A*71
$GPGGA,013746.192,3744.9309,N,12230.4146,W,1,08,1.4,-27.9,M,,,,0000*0E
$GPGSA,A,3,07,17,30,11,28,13,01,19,,,,,2.3,1.4,1.9*3D
$GPGSV,3,1,11,07,11,125,27,17,72,178,30,30,49,117,34,11,18,050,25*74
$GPGSV,3,2,11,28,57,036,28,13,51,260,22,01,21,067,32,19,48,198,33*7B
$GPGSV,3,3,11,15,29,297,,06,03,170,,24,03,310,*4E
$CCMWV,180.0,T,001.0,N,A*33
$CCVWT,180.0,R,1.0,N,0.5,M,1.9,K*4A
$CCMWD,193.0,T,,M,1.0,N,0.5,M*65
$CCMWV,180.0,T,001.0,N,A*33
$CCVWT,180.0,R,1.0,N,0.5,M,1.9,K*4A
$CCMWD,193.0,T,,M,1.0,N,0.5,M*65
$XXRMC,013746.192,A,3744.9309,N,12230.4146,W,000.0,000.0,040317,,,A*65
$GPRMC,013746.192,A,3744.9309,N,12230.4146,W,000.0,000.0,040317,,,A*72
$GPGGA,013747.192,3744.9309,N,12230.4146,W,1,08,1.4,-27.9,M,,,,0000*0F
$GPGSA,A,3,07,17,30,11,28,13,01,19,,,,,2.3,1.4,1.9*3D
$CCMWV,180.0,T,001.0,N,A*33
$CCVWT,180.0,R,1.0,N,0.5,M,1.9,K*4A
$CCMWD,193.0,T,,M,1.0,N,0.5,M*65
$CCMWV,180.0,T,001.0,N,A*33
$CCVWT,180.0,R,1.0,N,0.5,M,1.9,K*4A
$CCMWD,193.0,T,,M,1.0,N,0.5,M*65
$XXRMC,013747.192,A,3744.9309,N,12230.4146,W,000.0,000.0,040317,,,A*64
$GPRMC,013747.192,A,3744.9309,N,12230.4146,W,000.0,000.0,040317,,,A*73
$GPGGA,013748.192,3744.9309,N,12230.4146,W,1,08,1.4,-27.9,M,,,,0000*00
$GPGSA,A,3,07,17,30,11,28,13,01,19,,,,,2.3,1.4,1.9*3D
$CCMWV,180.0,T,001.0,N,A*33
$CCVWT,180.0,R,1.0,N,0.5,M,1.9,K*4A
$CCMWD,193.0,T,,M,1.0,N,0.5,M*65
$CCMWV,180.0,T,001.0,N,A*33
$CCVWT,180.0,R,1.0,N,0.5,M,1.9,K*4A
$CCMWD,193.0,T,,M,1.0,N,0.5,M*65
$XXRMC,013748.192,A,3744.9309,N,12230.4146,W,000.0,000.0,040317,,,A*6B
$GPRMC,013748.192,A,3744.9309,N,12230.4146,W,000.0,000.0,040317,,,A*7C
$GPGGA,013749.192,3744.9309,N,12230.4146,W,1,08,1.4,-27.9,M,,,,0000*01
$GPGSA,A,3,07,17,30,11,28,13,01,19,,,,,2.3,1.4,1.9*3D
$GPGSV,3,1,11,07,11,125,27,17,72,178,31,30,49,117,34,11,18,050,25*75
$GPGSV,3,2,11,28,57,036,27,13,51,260,22,01,21,067,31,19,48,198,32*76
$GPGSV,3,3,11,15,29,296,,06,03,170,,24,03,310,*4F
$CCMWV,180.0,T,001.0,N,A*33
$CCVWT,180.0,R,1.0,N,0.5,M,1.9,K*4A
$CCMWD,193.0,T,,M,1.0,N,0.5,M*65
$CCMWV,180.0,T,001.0,N,A*33
$CCVWT,180.0,R,1.0,N,0.5,M,1.9,K*4A
$CCMWD,193.0,T,,M,1.0,N,0.5,M*65
$XXRMC,013749.192,A,3744.9309,N,12230.4146,W,000.0,000.0,040317,,,A*6A
$GPRMC,013749.192,A,3744.9309,N,12230.4146,W,000.0,000.0,040317,,,A*7D
$GPGGA,013750.192,3744.9309,N,12230.4146,W,1,08,1.4,-27.9,M,,,,0000*09
$GPGSA,A,3,07,17,30,11,28,13,01,19,,,,,2.3,1.4,1.9*3D
$CCMWV,180.0,T,001.0,N,A*33
$CCVWT,180.0,R,1.0,N,0.5,M,1.9,K*4A
$CCMWD,193.0,T,,M,1.0,N,0.5,M*65
$CCMWV,180.0,T,001.0,N,A*33
$CCVWT,180.0,R,1.0,N,0.5,M,1.9,K*4A
$CCMWD,193.0,T,,M,1.0,N,0.5,M*65
$XXRMC,013750.192,A,3744.9309,N,12230.4146,W,000.0,000.0,040317,,,A*62
$GPRMC,013750.192,A,3744.9309,N,12230.4146,W,000.0,000.0,040317,,,A*75
$GPGGA,013751.192,3744.9309,N,12230.4146,W,1,08,1.4,-27.9,M,,,,0000*08
$GPGSA,A,3,07,17,30,11,28,13,01,19,,,,,2.3,1.4,1.9*3D
$CCMWV,180.0,T,001.0,N,A*33
$CCVWT,180.0,R,1.0,N,0.5,M,1.9,K*4A
$CCMWD,193.0,T,,M,1.0,N,0.5,M*65
$CCMWV,180.0,T,001.0,N,A*33
$CCVWT,180.0,R,1.0,N,0.5,M,1.9,K*4A
$CCMWD,193.0,T,,M,1.0,N,0.5,M*65
$XXRMC,013751.192,A,3744.9309,N,12230.4146,W,000.0,000.0,040317,,,A*63
$GPRMC,013751.192,A,3744.9309,N,12230.4146,W,000.0,000.0,040317,,,A*74
$GPGGA,013752.192,3744.9309,N,12230.4146,W,1,08,1.4,-27.8,M,,,,0000*0A
$GPGSA,A,3,07,17,30,11,28,13,01,19,,,,,2.3,1.4,1.9*3D
$GPGSV,3,1,11,07,11,125,26,17,72,177,31,30,49,117,33,11,18,050,26*7F
$GPGSV,3,2,11,28,57,036,26,13,51,260,22,01,21,067,32,19,48,198,32*74
$GPGSV,3,3,11,15,29,296,,06,03,170,,24,03,310,*4F
$CCMWV,180.0,T,001.0,N,A*33
$CCVWT,180.0,R,1.0,N,0.5,M,1.9,K*4A
$CCMWD,193.0,T,,M,1.0,N,0.5,M*65
$CCMWV,180.0,T,001.0,N,A*33
$CCVWT,180.0,R,1.0,N,0.5,M,1.9,K*4A
$CCMWD,193.0,T,,M,1.0,N,0.5,M*65
$XXRMC,013752.192,A,3744.9309,N,12230.4146,W,000.0,000.0,040317,,,A*60
$GPRMC,013752.192,A,3744.9309,N,12230.4146,W,000.0,000.0,040317,,,A*77
$GPGGA,013753.192,3744.9309,N,12230.4146,W,1,08,1.4,-27.8,M,,,,0000*0B
$GPGSA,A,3,07,17,30,11,28,13,01,19,,,,,2.3,1.4,1.9*3D
$CCMWV,180.0,T,001.0,N,A*33
$CCVWT,180.0,R,1.0,N,0.5,M,1.9,K*4A
$CCMWD,193.0,T,,M,1.0,N,0.5,M*65
$CCMWV,180.0,T,001.0,N,A*33
$CCVWT,180.0,R,1.0,N,0.5,M,1.9,K*4A
$CCMWD,193.0,T,,M,1.0,N,0.5,M*65
$XXRMC,013753.192,A,3744.9309,N,12230.4146,W,000.0,000.0,040317,,,A*61
$GPRMC,013753.192,A,3744.9309,N,12230.4146,W,000.0,000.0,040317,,,A*76
$GPGGA,013754.192,3744.9309,N,12230.4146,W,1,08,1.4,-27.8,M,,,,0000*0C
$GPGSA,A,3,07,17,30,11,28,13,01,19,,,,,2.3,1.4,1.9*3D
$CCMWV,180.0,T,001.0,N,A*33
$CCVWT,180.0,R,1.0,N,0.5,M,1.9,K*4A
$CCMWD,193.0,T,,M,1.0,N,0.5,M*65
$CCMWV,180.0,T,001.0,N,A*33
$CCVWT,180.0,R,1.0,N,0.5,M,1.9,K*4A
$CCMWD,193.0,T,,M,1.0,N,0.5,M*65
$XXRMC,013754.192,A,3744.9309,N,12230.4146,W,000.0,000.0,040317,,,A*66
$GPRMC,013754.192,A,3744.9309,N,12230.4146,W,000.0,000.0,040317,,,A*71
$GPGGA,013755.192,3744.9309,N,12230.4146,W,1,08,1.4,-27.8,M,,,,0000*0D
$GPGSA,A,3,07,17,30,11,28,13,01,19,,,,,2.3,1.4,1.9*3D
$GPGSV,3,1,11,07,11,125,26,17,72,177,31,30,49,117,33,11,18,050,25*7C
$GPGSV,3,2,11,28,57,036,26,13,51,260,22,01,21,067,32,19,48,198,33*75
$GPGSV,3,3,11,15,29,296,,06,03,170,,24,03,310,*4F
$CCMWV,180.0,T,001.0,N,A*33
$CCVWT,180.0,R,1.0,N,0.5,M,1.9,K*4A
$CCMWD,193.0,T,,M,1.0,N,0.5,M*65
$CCMWV,180.0,T,001.0,N,A*33
$CCVWT,180.0,R,1.0,N,0.5,M,1.9,K*4A
$CCMWD,193.0,T,,M,1.0,N,0.5,M*65
$XXRMC,013755.192,A,3744.9309,N,12230.4146,W,000.0,000.0,040317,,,A*67
$GPRMC,013755.192,A,3744.9309,N,12230.4146,W,000.0,000.0,040317,,,A*70
$GPGGA,013756.192,3744.9309,N,12230.4146,W,1,08,1.4,-27.8,M,,,,0000*0E
$GPGSA,A,3,07,17,30,11,28,13,01,19,,,,,2.3,1.4,1.9*3D
$CCMWV,180.0,T,001.0,N,A*33
$CCVWT,180.0,R,1.0,N,0.5,M,1.9,K*4A
$CCMWD,193.0,T,,M,1.0,N,0.5,M*65
$CCMWV,180.0,T,001.0,N,A*33
$CCVWT,180.0,R,1.0,N,0.5,M,1.9,K*4A
$CCMWD,193.0,T,,M,1.0,N,0.5,M*65
$XXRMC,013756.192,A,3744.9309,N,12230.4146,W,000.0,000.0,040317,,,A*64
$GPRMC,013756.192,A,3744.9309,N,12230.4146,W,000.0,000.0,040317,,,A*73
$GPGGA,013757.192,3744.9309,N,12230.4146,W,1,08,1.4,-27.8,M,,,,0000*0F
$GPGSA,A,3,07,17,30,11,28,13,01,19,,,,,2.3,1.4,1.9*3D
$CCMWV,180.0,T,001.0,N,A*33
$CCVWT,180.0,R,1.0,N,0.5,M,1.9,K*4A
$CCMWD,193.0,T,,M,1.0,N,0.5,M*65
$CCMWV,180.0,T,001.0,N,A*33
$CCVWT,180.0,R,1.0,N,0.5,M,1.9,K*4A
$CCMWD,193.0,T,,M,1.0,N,0.5,M*65
$XXRMC,013757.192,A,3744.9309,N,12230.4146,W,000.0,000.0,040317,,,A*65
$GPRMC,013757.192,A,3744.9309,N,12230.4146,W,000.0,000.0,040317,,,A*72
$GPGGA,013758.192,3744.9309,N,12230.4146,W,1,08,1.4,-27.8,M,,,,0000*00
$GPGSA,A,3,07,17,30,11,28,13,01,19,,,,,2.3,1.4,1.9*3D
$GPGSV,3,1,11,07,11,125,25,17,72,177,31,30,49,117,33,11,18,050,25*7F
$GPGSV,3,2,11,28,57,036,26,13,51,260,21,01,21,067,31,19,48,198,32*74
$GPGSV,3,3,11,15,29,296,,06,03,170,,24,03,310,*4F
$CCMWV,180.0,T,001.0,N,A*33
$CCVWT,180.0,R,1.0,N,0.5,M,1.9,K*4A
$CCMWD,193.0,T,,M,1.0,N,0.5,M*65
$CCMWV,180.0,T,001.0,N,A*33
$CCVWT,180.0,R,1.0,N,0.5,M,1.9,K*4A
$CCMWD,193.0,T,,M,1.0,N,0.5,M*65
$XXRMC,013758.192,A,3744.9309,N,12230.4146,W,000.0,000.0,040317,,,A*6A
$GPRMC,013758.192,A,3744.9309,N,12230.4146,W,000.0,000.0,040317,,,A*7D
$GPGGA,013759.192,3744.9309,N,12230.4146,W,1,08,1.4,-27.8,M,,,,0000*01
$GPGSA,A,3,07,17,30,11,28,13,01,19,,,,,2.3,1.4,1.9*3D
$CCMWV,180.0,T,001.0,N,A*33
$CCVWT,180.0,R,1.0,N,0.5,M,1.9,K*4A
$CCMWD,193.0,T,,M,1.0,N,0.5,M*65
$CCMWV,180.0,T,001.0,N,A*33
$CCVWT,180.0,R,1.0,N,0.5,M,1.9,K*4A
$CCMWD,193.0,T,,M,1.0,N,0.5,M*65
$XXRMC,013759.192,A,3744.9309,N,12230.4146,W,000.0,000.0,040317,,,A*6B
$GPRMC,013759.192,A,3744.9309,N,12230.4146,W,000.0,000.0,040317,,,A*7C
$GPGGA,013800.192,3744.9309,N,12230.4146,W,1,08,1.4,-27.8,M,,,,0000*02
$GPGSA,A,3,07,17,30,11,28,13,01,19,,,,,2.3,1.4,1.9*3D
$CCMWV,180.0,T,001.0,N,A*33
$CCVWT,180.0,R,1.0,N,0.5,M,1.9,K*4A
$CCMWD,193.0,T,,M,1.0,N,0.5,M*65
$CCMWV,180.0,T,001.0,N,A*33
$CCVWT,180.0,R,1.0,N,0.5,M,1.9,K*4A
$CCMWD,193.0,T,,M,1.0,N,0.5,M*65
$XXRMC,013800.192,A,3744.9309,N,12230.4146,W,000.0,000.0,040317,,,A*68
$GPRMC,013800.192,A,3744.9309,N,12230.4146,W,000.0,000.0,040317,,,A*7F
$GPGGA,013801.192,3744.9309,N,12230.4146,W,1,08,1.4,-27.8,M,,,,0000*03
$GPGSA,A,3,07,17,30,11,28,13,01,19,,,,,2.3,1.4,1.9*3D
$GPGSV,3,1,11,07,11,125,25,17,72,177,32,30,49,117,33,11,18,050,25*7C
$GPGSV,3,2,11,28,56,036,25,13,51,260,22,01,21,067,31,19,48,198,33*74
$GPGSV,3,3,11,15,29,296,,06,03,170,,24,03,310,*4F
$CCMWV,180.0,T,001.0,N,A*33
$CCVWT,180.0,R,1.0,N,0.5,M,1.9,K*4A
$CCMWD,193.0,T,,M,1.0,N,0.5,M*65
$CCMWV,180.0,T,001.0,N,A*33
$CCVWT,180.0,R,1.0,N,0.5,M,1.9,K*4A
$CCMWD,193.0,T,,M,1.0,N,0.5,M*65
$XXRMC,013801.192,A,3744.9309,N,12230.4146,W,000.0,000.0,040317,,,A*69
$GPRMC,013801.192,A,3744.9309,N,12230.4146,W,000.0,000.0,040317,,,A*7E
$GPGGA,013802.192,3744.9309,N,12230.4146,W,1,08,1.4,-27.8,M,,,,0000*00
$GPGSA,A,3,07,17,30,11,28,13,01,19,,,,,2.3,1.4,1.9*3D
$CCMWV,180.0,T,001.0,N,A*33
$CCVWT,180.0,R,1.0,N,0.5,M,1.9,K*4A
$CCMWD,193.0,T,,M,1.0,N,0.5,M*65
$CCMWV,180.0,T,001.0,N,A*33
$CCVWT,180.0,R,1.0,N,0.5,M,1.9,K*4A
$CCMWD,193.0,T,,M,1.0,N,0.5,M*65
$XXRMC,013802.192,A,3744.9309,N,12230.4146,W,000.0,000.0,040317,,,A*6A
$GPRMC,013802.192,A,3744.9309,N,12230.4146,W,000.0,000.0,040317,,,A*7D
$GPGGA,013803.192,3744.9309,N,12230.4146,W,1,08,1.4,-27.8,M,,,,0000*01
$GPGSA,A,3,07,17,30,11,28,13,01,19,,,,,2.3,1.4,1.9*3D
$CCMWV,180.0,T,001.0,N,A*33
$CCVWT,180.0,R,1.0,N,0.5,M,1.9,K*4A
$CCMWD,193.0,T,,M,1.0,N,0.5,M*65
$CCMWV,180.0,T,001.0,N,A*33
$CCVWT,180.0,R,1.0,N,0.5,M,1.9,K*4A
$CCMWD,193.0,T,,M,1.0,N,0.5,M*65
$XXRMC,013803.192,A,3744.9309,N,12230.4146,W,000.0,000.0,040317,,,A*6B
$GPRMC,013803.192,A,3744.9309,N,12230.4146,W,000.0,000.0,040317,,,A*7C
$GPGGA,013804.192,3744.9309,N,12230.4146,W,1,08,1.4,-27.8,M,,,,0000*06
$GPGSA,A,3,07,17,30,11,28,13,01,19,,,,,2.3,1.4,1.9*3D
$GPGSV,3,1,11,07,11,125,24,17,72,177,32,30,49,117,32,11,18,050,24*7D
$GPGSV,3,2,11,28,56,036,25,13,51,260,21,01,21,067,30,19,48,198,33*76
$GPGSV,3,3,11,15,29,296,,06,03,170,,24,03,310,*4F
$CCMWV,180.0,T,001.0,N,A*33
$CCVWT,180.0,R,1.0,N,0.5,M,1.9,K*4A
$CCMWD,193.0,T,,M,1.0,N,0.5,M*65
$CCMWV,180.0,T,001.0,N,A*33
$CCVWT,180.0,R,1.0,N,0.5,M,1.9,K*4A
$CCMWD,193.0,T,,M,1.0,N,0.5,M*65
$XXRMC,013804.192,A,3744.9309,N,12230.4146,W,000.0,000.0,040317,,,A*6C
$GPRMC,013804.192,A,3744.9309,N,12230.4146,W,000.0,000.0,040317,,,A*7B
$GPGGA,013805.192,3744.9309,N,12230.4146,W,1,08,1.4,-27.8,M,,,,0000*07
$GPGSA,A,3,07,17,30,11,28,13,01,19,,,,,2.3,1.4,1.9*3D
$CCMWV,180.0,T,001.0,N,A*33
$CCVWT,180.0,R,1.0,N,0.5,M,1.9,K*4A
$CCMWD,193.0,T,,M,1.0,N,0.5,M*65
$CCMWV,180.0,T,001.0,N,A*33
$CCVWT,180.0,R,1.0,N,0.5,M,1.9,K*4A
$CCMWD,193.0,T,,M,1.0,N,0.5,M*65
$XXRMC,013805.192,A,3744.9309,N,12230.4146,W,000.0,000.0,040317,,,A*6D
$GPRMC,013805.192,A,3744.9309,N,12230.4146,W,000.0,000.0,040317,,,A*7A
$GPGGA,013806.192,3744.9309,N,12230.4146,W,1,08,1.4,-27.8,M,,,,0000*04
$GPGSA,A,3,07,17,30,11,28,13,01,19,,,,,2.3,1.4,1.9*3D
$CCMWV,180.0,T,001.0,N,A*33
$CCVWT,180.0,R,1.0,N,0.5,M,1.9,K*4A
$CCMWD,193.0,T,,M,1.0,N,0.5,M*65
$CCMWV,180.0,T,001.0,N,A*33
$CCVWT,180.0,R,1.0,N,0.5,M,1.9,K*4A
$CCMWD,193.0,T,,M,1.0,N,0.5,M*65
$XXRMC,013806.192,A,3744.9309,N,12230.4146,W,000.0,000.0,040317,,,A*6E
$GPRMC,013806.192,A,3744.9309,N,12230.4146,W,000.0,000.0,040317,,,A*79
$GPGGA,013807.192,3744.9309,N,12230.4146,W,1,08,1.4,-27.8,M,,,,0000*05
$GPGSA,A,3,07,17,30,11,28,13,01,19,,,,,2.3,1.4,1.9*3D
$GPGSV,3,1,11,07,11,125,24,17,72,177,32,30,49,117,32,11,18,050,24*7D
$GPGSV,3,2,11,28,56,036,25,13,51,260,21,01,21,066,30,19,48,198,33*77
$GPGSV,3,3,11,15,29,296,,06,03,170,,24,03,310,*4F
$CCMWV,180.0,T,001.0,N,A*33
$CCVWT,180.0,R,1.0,N,0.5,M,1.9,K*4A
$CCMWD,193.0,T,,M,1.0,N,0.5,M*65
$CCMWV,180.0,T,001.0,N,A*33
$CCVWT,180.0,R,1.0,N,0.5,M,1.9,K*4A
$CCMWD,193.0,T,,M,1.0,N,0.5,M*65
$XXRMC,013807.192,A,3744.9309,N,12230.4146,W,000.0,000.0,040317,,,A*6F
$GPRMC,013807.192,A,3744.9309,N,12230.4146,W,000.0,000.0,040317,,,A*78
$GPGGA,013808.192,3744.9309,N,12230.4146,W,1,08,1.4,-27.8,M,,,,0000*0A
$GPGSA,A,3,07,17,30,11,28,13,01,19,,,,,2.3,1.4,1.9*3D
$CCMWV,180.0,T,001.0,N,A*33
$CCVWT,180.0,R,1.0,N,0.5,M,1.9,K*4A
$CCMWD,193.0,T,,M,1.0,N,0.5,M*65
$CCMWV,180.0,T,001.0,N,A*33
$CCVWT,180.0,R,1.0,N,0.5,M,1.9,K*4A
$CCMWD,193.0,T,,M,1.0,N,0.5,M*65
$XXRMC,013808.192,A,3744.9309,N,12230.4146,W,000.0,000.0,040317,,,A*60
$GPRMC,013808.192,A,3744.9309,N,12230.4146,W,000.0,000.0,040317,,,A*77
$GPGGA,013809.192,3744.9309,N,12230.4146,W,1,08,1.4,-27.8,M,,,,0000*0B
$GPGSA,A,3,07,17,30,11,28,13,01,19,,,,,2.3,1.4,1.9*3D
$CCMWV,180.0,T,001.0,N,A*33
$CCVWT,180.0,R,1.0,N,0.5,M,1.9,K*4A
$CCMWD,193.0,T,,M,1.0,N,0.5,M*65
$CCMWV,180.0,T,001.0,N,A*33
$CCVWT,180.0,R,1.0,N,0.5,M,1.9,K*4A
$CCMWD,193.0,T,,M,1.0,N,0.5,M*65
$XXRMC,013809.192,A,3744.9309,N,12230.4146,W,000.0,000.0,040317,,,A*61
$GPRMC,013809.192,A,3744.9309,N,12230.4146,W,000.0,000.0,040317,,,A*76
$GPGGA,013810.192,3744.9309,N,12230.4146,W,1,08,1.4,-27.8,M,,,,0000*03
$GPGSA,A,3,07,17,30,11,28,13,01,19,,,,,2.3,1.4,1.9*3D
$GPGSV,3,1,11,07,11,125,25,17,72,177,32,30,49,117,32,11,18,050,24*7C
$GPGSV,3,2,11,28,56,036,25,13,51,260,21,01,21,066,30,19,48,198,34*70
$GPGSV,3,3,11,15,29,296,,06,03,170,,24,03,310,*4F
$CCMWV,180.0,T,001.0,N,A*33
$CCVWT,180.0,R,1.0,N,0.5,M,1.9,K*4A
$CCMWD,193.0,T,,M,1.0,N,0.5,M*65
$CCMWV,180.0,T,001.0,N,A*33
$CCVWT,180.0,R,1.0,N,0.5,M,1.9,K*4A
$CCMWD,193.0,T,,M,1.0,N,0.5,M*65
$XXRMC,013810.192,A,3744.9309,N,12230.4146,W,000.0,000.0,040317,,,A*69
$GPRMC,013810.192,A,3744.9309,N,12230.4146,W,000.0,000.0,040317,,,A*7E
$GPGGA,013811.192,3744.9309,N,12230.4146,W,1,08,1.4,-27.8,M,,,,0000*02
$GPGSA,A,3,07,17,30,11,28,13,01,19,,,,,2.3,1.4,1.9*3D
$CCMWV,180.0,T,001.0,N,A*33
$CCVWT,180.0,R,1.0,N,0.5,M,1.9,K*4A
$CCMWD,193.0,T,,M,1.0,N,0.5,M*65
$CCMWV,180.0,T,001.0,N,A*33
$CCVWT,180.0,R,1.0,N,0.5,M,1.9,K*4A
$CCMWD,193.0,T,,M,1.0,N,0.5,M*65
$XXRMC,013811.192,A,3744.9309,N,12230.4146,W,000.0,000.0,040317,,,A*68
$GPRMC,013811.192,A,3744.9309,N,12230.4146,W,000.0,000.0,040317,,,A*7F
$GPGGA,013812.192,3744.9309,N,12230.4146,W,1,08,1.4,-27.8,M,,,,0000*01
$GPGSA,A,3,07,17,30,11,28,13,01,19,,,,,2.3,1.4,1.9*3D
$CCMWV,180.0,T,001.0,N,A*33
$CCVWT,180.0,R,1.0,N,0.5,M,1.9,K*4A
$CCMWD,193.0,T,,M,1.0,N,0.5,M*65
$CCMWV,180.0,T,001.0,N,A*33
$CCVWT,180.0,R,1.0,N,0.5,M,1.9,K*4A
$CCMWD,193.0,T,,M,1.0,N,0.5,M*65
$XXRMC,013812.192,A,3744.9309,N,12230.4146,W,000.0,000.0,040317,,,A*6B
$GPRMC,013812.192,A,3744.9309,N,12230.4146,W,000.0,000.0,040317,,,A*7C
$GPGGA,013813.192,3744.9309,N,12230.4146,W,1,08,1.4,-27.8,M,,,,0000*00
$GPGSA,A,3,07,17,30,11,28,13,01,19,,,,,2.3,1.4,1.9*3D
$GPGSV,3,1,11,07,11,126,25,17,72,177,33,30,49,117,32,11,18,050,26*7C
$GPGSV,3,2,11,28,56,036,26,13,51,260,22,01,21,066,30,19,48,198,34*70
$GPGSV,3,3,11,15,29,296,,06,03,170,,24,03,310,*4F
$CCMWV,180.0,T,001.0,N,A*33
$CCVWT,180.0,R,1.0,N,0.5,M,1.9,K*4A
$CCMWD,193.0,T,,M,1.0,N,0.5,M*65
$CCMWV,180.0,T,001.0,N,A*33
$CCVWT,180.0,R,1.0,N,0.5,M,1.9,K*4A
$CCMWD,193.0,T,,M,1.0,N,0.5,M*65
$XXRMC,013813.192,A,3744.9309,N,12230.4146,W,000.0,000.0,040317,,,A*6A
$GPRMC,013813.192,A,3744.9309,N,12230.4146,W,000.0,000.0,040317,,,A*7D
$GPGGA,013814.192,3744.9309,N,12230.4146,W,1,08,1.4,-27.8,M,,,,0000*07
$GPGSA,A,3,07,17,30,11,28,13,01,19,,,,,2.3,1.4,1.9*3D
$CCMWV,180.0,T,001.0,N,A*33
$CCVWT,180.0,R,1.0,N,0.5,M,1.9,K*4A
$CCMWD,193.0,T,,M,1.0,N,0.5,M*65
$CCMWV,180.0,T,001.0,N,A*33
$CCVWT,180.0,R,1.0,N,0.5,M,1.9,K*4A
$CCMWD,193.0,T,,M,1.0,N,0.5,M*65
$XXRMC,013814.192,A,3744.9309,N,12230.4146,W,000.0,000.0,040317,,,A*6D
$GPRMC,013814.192,A,3744.9309,N,12230.4146,W,000.0,000.0,040317,,,A*7A
$GPGGA,013815.192,3744.9309,N,12230.4146,W,1,08,1.4,-27.8,M,,,,0000*06
$GPGSA,A,3,07,17,30,11,28,13,01,19,,,,,2.3,1.4,1.9*3D
$CCMWV,180.0,T,001.0,N,A*33
$CCVWT,180.0,R,1.0,N,0.5,M,1.9,K*4A
$CCMWD,193.0,T,,M,1.0,N,0.5,M*65
$CCMWV,180.0,T,001.0,N,A*33
$CCVWT,180.0,R,1.0,N,0.5,M,1.9,K*4A
$CCMWD,193.0,T,,M,1.0,N,0.5,M*65
$XXRMC,013815.192,A,3744.9309,N,12230.4146,W,000.0,000.0,040317,,,A*6C
$GPRMC,013815.192,A,3744.9309,N,12230.4146,W,000.0,000.0,040317,,,A*7B
$GPGGA,013816.192,3744.9309,N,12230.4146,W,1,08,1.4,-27.8,M,,,,0000*05
$GPGSA,A,3,07,17,30,11,28,13,01,19,,,,,2.3,1.4,1.9*3D
$GPGSV,3,1,11,07,11,126,26,17,72,177,33,30,49,117,32,11,18,050,25*7C
$GPGSV,3,2,11,28,56,036,26,13,51,260,22,01,21,066,30,19,48,198,34*70
$GPGSV,3,3,11,15,29,296,,06,03,170,,24,03,310,*4F
$CCMWV,180.0,T,001.0,N,A*33
$CCVWT,180.0,R,1.0,N,0.5,M,1.9,K*4A
$CCMWD,193.0,T,,M,1.0,N,0.5,M*65
$CCMWV,180.0,T,001.0,N,A*33
$CCVWT,180.0,R,1.0,N,0.5,M,1.9,K*4A
$CCMWD,193.0,T,,M,1.0,N,0.5,M*65
$XXRMC,013816.192,A,3744.9309,N,12230.4146,W,000.0,000.0,040317,,,A*6F
$GPRMC,013816.192,A,3744.9309,N,12230.4146,W,000.0,000.0,040317,,,A*78
$GPGGA,013817.192,3744.9309,N,12230.4146,W,1,08,1.4,-27.8,M,,,,0000*04
$GPGSA,A,3,07,17,30,11,28,13,01,19,,,,,2.3,1.4,1.9*3D
$CCMWV,180.0,T,001.0,N,A*33
$CCVWT,180.0,R,1.0,N,0.5,M,1.9,K*4A
$CCMWD,193.0,T,,M,1.0,N,0.5,M*65
$CCMWV,180.0,T,001.0,N,A*33
$CCVWT,180.0,R,1.0,N,0.5,M,1.9,K*4A
$CCMWD,193.0,T,,M,1.0,N,0.5,M*65
$XXRMC,013817.192,A,3744.9309,N,12230.4146,W,000.0,000.0,040317,,,A*6E
$GPRMC,013817.192,A,3744.9309,N,12230.4146,W,000.0,000.0,040317,,,A*79
$GPGGA,013818.192,3744.9309,N,12230.4146,W,1,08,1.4,-27.8,M,,,,0000*0B
$GPGSA,A,3,07,17,30,11,28,13,01,19,,,,,2.3,1.4,1.9*3D
$CCMWV,180.0,T,001.0,N,A*33
$CCVWT,180.0,R,1.0,N,0.5,M,1.9,K*4A
$CCMWD,193.0,T,,M,1.0,N,0.5,M*65
$CCMWV,180.0,T,001.0,N,A*33
$CCVWT,180.0,R,1.0,N,0.5,M,1.9,K*4A
$CCMWD,193.0,T,,M,1.0,N,0.5,M*65
$XXRMC,013818.192,A,3744.9309,N,12230.4146,W,000.0,000.0,040317,,,A*61
$GPRMC,013818.192,A,3744.9309,N,12230.4146,W,000.0,000.0,040317,,,A*76
$GPGGA,013819.192,3744.9309,N,12230.4146,W,1,08,1.4,-27.8,M,,,,0000*0A
$GPGSA,A,3,07,17,30,11,28,13,01,19,,,,,2.3,1.4,1.9*3D
$GPGSV,3,1,11,07,11,126,25,17,72,177,33,30,49,117,32,11,18,050,25*7F
$GPGSV,3,2,11,28,56,036,25,13,51,260,21,01,21,066,30,15,29,296,10*70
$GPGSV,3,3,11,19,48,198,33,06,03,170,,24,03,310,*49
$CCMWV,180.0,T,001.0,N,A*33
$CCVWT,180.0,R,1.0,N,0.5,M,1.9,K*4A
$CCMWD,193.0,T,,M,1.0,N,0.5,M*65
$CCMWV,180.0,T,001.0,N,A*33
$CCVWT,180.0,R,1.0,N,0.5,M,1.9,K*4A
$CCMWD,193.0,T,,M,1.0,N,0.5,M*65
$XXRMC,013819.192,A,3744.9309,N,12230.4146,W,000.0,000.0,040317,,,A*60
$GPRMC,013819.192,A,3744.9309,N,12230.4146,W,000.0,000.0,040317,,,A*77
$GPGGA,013820.192,3744.9309,N,12230.4146,W,1,08,1.4,-27.8,M,,,,0000*00
$GPGSA,A,3,07,17,30,11,28,13,01,19,,,,,2.3,1.4,1.9*3D
$CCMWV,180.0,T,001.0,N,A*33
$CCVWT,180.0,R,1.0,N,0.5,M,1.9,K*4A
$CCMWD,193.0,T,,M,1.0,N,0.5,M*65
$CCMWV,180.0,T,001.0,N,A*33
$CCVWT,180.0,R,1.0,N,0.5,M,1.9,K*4A
$CCMWD,193.0,T,,M,1.0,N,0.5,M*65
$XXRMC,013820.192,A,3744.9309,N,12230.4146,W,000.0,000.0,040317,,,A*6A
$GPRMC,013820.192,A,3744.9309,N,12230.4146,W,000.0,000.0,040317,,,A*7D
$GPGGA,013821.192,3744.9309,N,12230.4146,W,1,08,1.4,-27.8,M,,,,0000*01
$GPGSA,A,3,07,17,30,11,28,13,01,19,,,,,2.3,1.4,1.9*3D
$CCMWV,180.0,T,001.0,N,A*33
$CCVWT,180.0,R,1.0,N,0.5,M,1.9,K*4A
$CCMWD,193.0,T,,M,1.0,N,0.5,M*65
$CCMWV,180.0,T,001.0,N,A*33
$CCVWT,180.0,R,1.0,N,0.5,M,1.9,K*4A
$CCMWD,193.0,T,,M,1.0,N,0.5,M*65
$XXRMC,013821.192,A,3744.9309,N,12230.4146,W,000.0,000.0,040317,,,A*6B
$GPRMC,013821.192,A,3744.9309,N,12230.4146,W,000.0,000.0,040317,,,A*7C
$GPGGA,013822.192,3744.9309,N,12230.4145,W,1,08,1.4,-27.8,M,,,,0000*01
$GPGSA,A,3,07,17,30,11,28,13,01,19,,,,,2.3,1.4,1.9*3D
$GPGSV,3,1,11,07,11,126,25,17,72,177,34,30,49,117,31,11,18,050,25*7B
$GPGSV,3,2,11,28,56,036,26,13,51,260,21,01,21,066,30,15,29,296,22*72
$GPGSV,3,3,11,19,48,198,34,06,03,170,,24,03,310,*4E
$CCMWV,180.0,T,001.0,N,A*33
$CCVWT,180.0,R,1.0,N,0.5,M,1.9,K*4A
$CCMWD,193.0,T,,M,1.0,N,0.5,M*65
$CCMWV,180.0,T,001.0,N,A*33
$CCVWT,180.0,R,1.0,N,0.5,M,1.9,K*4A
$CCMWD,193.0,T,,M,1.0,N,0.5,M*65
$XXRMC,013822.192,A,3744.9309,N,12230.4145,W,000.0,000.0,040317,,,A*6B
$GPRMC,013822.192,A,3744.9309,N,12230.4145,W,000.0,000.0,040317,,,A*7C
$GPGGA,013823.192,3744.9309,N,12230.4145,W,1,08,1.4,-27.8,M,,,,0000*00
$GPGSA,A,3,07,17,30,11,28,13,01,19,,,,,2.3,1.4,1.9*3D
$CCMWV,180.0,T,001.0,N,A*33
$CCVWT,180.0,R,1.0,N,0.5,M,1.9,K*4A
$CCMWD,193.0,T,,M,1.0,N,0.5,M*65
$CCMWV,180.0,T,001.0,N,A*33
$CCVWT,180.0,R,1.0,N,0.5,M,1.9,K*4A
$CCMWD,193.0,T,,M,1.0,N,0.5,M*65
$XXRMC,013823.192,A,3744.9309,N,12230.4145,W,000.0,000.0,040317,,,A*6A
$GPRMC,013823.192,A,3744.9309,N,12230.4145,W,000.0,000.0,040317,,,A*7D
$GPGGA,013824.192,3744.9309,N,12230.4145,W,1,08,1.4,-27.7,M,,,,0000*08
$GPGSA,A,3,07,17,30,11,28,13,01,19,,,,,2.3,1.4,1.9*3D
$CCMWV,180.0,T,001.0,N,A*33
$CCVWT,180.0,R,1.0,N,0.5,M,1.9,K*4A
$CCMWD,193.0,T,,M,1.0,N,0.5,M*65
$CCMWV,180.0,T,001.0,N,A*33
$CCVWT,180.0,R,1.0,N,0.5,M,1.9,K*4A
$CCMWD,193.0,T,,M,1.0,N,0.5,M*65
$XXRMC,013824.192,A,3744.9309,N,12230.4145,W,000.0,000.0,040317,,,A*6D
$GPRMC,013824.192,A,3744.9309,N,12230.4145,W,000.0,000.0,040317,,,A*7A
$GPGGA,013825.192,3744.9309,N,12230.4145,W,1,08,1.4,-27.7,M,,,,0000*09
$GPGSA,A,3,07,17,30,11,28,13,01,19,,,,,2.3,1.4,1.9*3D
$GPGSV,3,1,11,07,11,126,24,17,72,177,34,30,49,117,32,11,18,050,25*79
$GPGSV,3,2,11,28,56,036,25,13,51,260,21,01,21,066,30,15,29,296,23*70
$GPGSV,3,3,11,19,49,198,34,06,03,170,,24,03,310,*4F
$CCMWV,180.0,T,001.0,N,A*33
$CCVWT,180.0,R,1.0,N,0.5,M,1.9,K*4A
$CCMWD,193.0,T,,M,1.0,N,0.5,M*65
$CCMWV,180.0,T,001.0,N,A*33
$CCVWT,180.0,R,1.0,N,0.5,M,1.9,K*4A
$CCMWD,193.0,T,,M,1.0,N,0.5,M*65
$XXRMC,013825.192,A,3744.9309,N,12230.4145,W,000.0,000.0,040317,,,A*6C
$GPRMC,013825.192,A,3744.9309,N,12230.4145,W,000.0,000.0,040317,,,A*7B
$GPGGA,013826.192,3744.9309,N,12230.4145,W,1,08,1.4,-27.7,M,,,,0000*0A
$GPGSA,A,3,07,17,30,11,28,13,01,19,,,,,2.3,1.4,1.9*3D
$CCMWV,180.0,T,001.0,N,A*33
$CCVWT,180.0,R,1.0,N,0.5,M,1.9,K*4A
$CCMWD,193.0,T,,M,1.0,N,0.5,M*65
$CCMWV,180.0,T,001.0,N,A*33
$CCVWT,180.0,R,1.0,N,0.5,M,1.9,K*4A
$CCMWD,193.0,T,,M,1.0,N,0.5,M*65
$XXRMC,013826.192,A,3744.9309,N,12230.4145,W,000.0,000.0,040317,,,A*6F
$GPRMC,013826.192,A,3744.9309,N,12230.4145,W,000.0,000.0,040317,,,A*78
$GPGGA,013827.192,3744.9309,N,12230.4145,W,1,08,1.4,-27.7,M,,,,0000*0B
$GPGSA,A,3,07,17,30,11,28,13,01,19,,,,,2.3,1.4,1.9*3D
$CCMWV,180.0,T,001.0,N,A*33
$CCVWT,180.0,R,1.0,N,0.5,M,1.9,K*4A
$CCMWD,193.0,T,,M,1.0,N,0.5,M*65
$CCMWV,180.0,T,001.0,N,A*33
$CCVWT,180.0,R,1.0,N,0.5,M,1.9,K*4A
$CCMWD,193.0,T,,M,1.0,N,0.5,M*65
$XXRMC,013827.192,A,3744.9309,N,12230.4145,W,000.0,000.0,040317,,,A*6E
$GPRMC,013827.192,A,3744.9309,N,12230.4145,W,000.0,000.0,040317,,,A*79
$GPGGA,013828.192,3744.9309,N,12230.4145,W,1,08,1.4,-27.7,M,,,,0000*04
$GPGSA,A,3,07,17,30,11,28,13,01,19,,,,,2.3,1.4,1.9*3D
$GPGSV,3,1,11,07,11,126,24,17,72,177,34,30,49,117,32,11,18,050,25*79
$GPGSV,3,2,11,28,56,036,25,13,51,260,20,01,21,066,30,15,29,296,22*70
$GPGSV,3,3,11,19,49,198,33,06,03,170,,24,03,310,*48
$CCMWV,180.0,T,001.0,N,A*33
$CCVWT,180.0,R,1.0,N,0.5,M,1.9,K*4A
$CCMWD,193.0,T,,M,1.0,N,0.5,M*65
$CCMWV,180.0,T,001.0,N,A*33
$CCVWT,180.0,R,1.0,N,0.5,M,1.9,K*4A
$CCMWD,193.0,T,,M,1.0,N,0.5,M*65
$XXRMC,013828.192,A,3744.9309,N,12230.4145,W,000.0,000.0,040317,,,A*61
$GPRMC,013828.192,A,3744.9309,N,12230.4145,W,000.0,000.0,040317,,,A*76
$GPGGA,013829.192,3744.9309,N,12230.4145,W,1,08,1.4,-27.7,M,,,,0000*05
$GPGSA,A,3,07,17,30,11,28,13,01,19,,,,,2.3,1.4,1.9*3D
$CCMWV,180.0,T,001.0,N,A*33
$CCVWT,180.0,R,1.0,N,0.5,M,1.9,K*4A
$CCMWD,193.0,T,,M,1.0,N,0.5,M*65
$CCMWV,180.0,T,001.0,N,A*33
$CCVWT,180.0,R,1.0,N,0.5,M,1.9,K*4A
$CCMWD,193.0,T,,M,1.0,N,0.5,M*65
$XXRMC,013829.192,A,3744.9309,N,12230.4145,W,000.0,000.0,040317,,,A*60
$GPRMC,013829.192,A,3744.9309,N,12230.4145,W,000.0,000.0,040317,,,A*77
$GPGGA,013830.192,3744.9309,N,12230.4145,W,1,08,1.4,-27.7,M,,,,0000*0D
$GPGSA,A,3,07,17,30,11,28,13,01,19,,,,,2.3,1.4,1.9*3D
$CCMWV,180.0,T,001.0,N,A*33
$CCVWT,180.0,R,1.0,N,0.5,M,1.9,K*4A
$CCMWD,193.0,T,,M,1.0,N,0.5,M*65
$CCMWV,180.0,T,001.0,N,A*33
$CCVWT,180.0,R,1.0,N,0.5,M,1.9,K*4A
$CCMWD,193.0,T,,M,1.0,N,0.5,M*65
$XXRMC,013830.192,A,3744.9309,N,12230.4145,W,000.0,000.0,040317,,,A*68
$GPRMC,013830.192,A,3744.9309,N,12230.4145,W,000.0,000.0,040317,,,A*7F
$GPGGA,013831.192,3744.9309,N,12230.4145,W,1,08,1.4,-27.7,M,,,,0000*0C
$GPGSA,A,3,07,17,30,11,28,13,01,19,,,,,2.3,1.4,1.9*3D
$GPGSV,3,1,11,07,11,126,24,17,72,177,34,30,49,117,32,11,18,050,24*78
$GPGSV,3,2,11,28,56,036,26,13,51,260,19,01,21,066,30,15,29,296,23*78
